stop_id,route_id,average_ons,average_offs,average_load,X,Y,Stop_ID,Stop_Name,lambda_0.0,lambda_0.05,lambda_0.1,lambda_0.15,lambda_0.2,lambda_0.25,lambda_0.3,lambda_0.35,lambda_0.4,lambda_0.45,lambda_0.5,lambda_0.55,lambda_0.6,lambda_0.65,lambda_0.7,lambda_0.75,lambda_0.8,lambda_0.85,lambda_0.9,lambda_0.95,lambda_1.0
17863,15,6.363414813686666,0.0,6.388445527464717,-71.0918606,42.3366446,17863.0,Ruggles Lower Busway,1.0,1.0,1.0,1.0,1.0,1.0,1.0,1.0,1.0,1.0,1.0,1.0,1.0,1.0,1.0,1.0,1.0,1.0,1.0,1.0,1.0
11257,15,1.651477561173723,0.07583231800182763,7.983646563102851,-71.0926919999999,42.331197,11257.0,Malcolm X Blvd @ King St,0.0,0.0,1.0,1.0,1.0,1.0,1.0,1.0,1.0,1.0,1.0,1.0,1.0,1.0,1.0,1.0,1.0,1.0,1.0,1.0,1.0
1259,15,0.4295347074153045,0.011108031272210373,7.885039564084341,-71.0898579999999,42.3309750000001,1259.0,Malcolm X Blvd opp Madison Park HS,0.0,0.0,0.0,0.0,0.0,0.0,0.0,0.0,0.0,0.0,0.0,0.0,0.0,0.0,0.0,1.0,1.0,1.0,1.0,1.0,1.0
11323,15,1.4165745084103292,0.19627221037668793,9.108873015873018,-71.08842,42.330605,11323.0,Malcolm X Blvd opp O'Bryant HS,0.0,1.0,1.0,1.0,1.0,1.0,1.0,1.0,1.0,1.0,1.0,1.0,1.0,1.0,1.0,1.0,1.0,1.0,1.0,1.0,1.0
11259,15,0.08735015399194503,0.12182113243307277,9.065719497749349,-71.086203,42.329483,11259.0,Malcolm X Blvd @ Shawmut Ave,0.0,0.0,0.0,0.0,0.0,0.0,0.0,0.0,0.0,0.0,0.0,0.0,0.0,0.0,0.0,0.0,0.0,0.0,0.0,1.0,1.0
64000,15,6.533012837597724,0.551248001066098,14.44851767945985,-71.0846039,42.3289888,64000.0,Nubian Station,1.0,1.0,1.0,1.0,1.0,1.0,1.0,1.0,1.0,1.0,1.0,1.0,1.0,1.0,1.0,1.0,1.0,1.0,1.0,1.0,1.0
1493,15,0.8824038290689411,0.30463019722814505,15.069523365316277,-71.0810099999999,42.3284340000001,1493.0,Dudley St @ Greenville St,0.0,0.0,1.0,1.0,1.0,1.0,1.0,1.0,1.0,1.0,1.0,1.0,1.0,1.0,1.0,1.0,1.0,1.0,1.0,1.0,1.0
1495,15,0.6021453002842928,0.5524633528784649,15.120833555437102,-71.0774029999999,42.3276020000001,1495.0,Dudley St @ Adams St,0.0,0.0,0.0,0.0,0.0,0.0,0.0,0.0,0.0,0.0,0.0,0.0,1.0,1.0,1.0,1.0,1.0,1.0,1.0,1.0,1.0
1497,15,0.43655939054726367,0.7378700248756218,14.786127176616914,-71.074964,42.3250780000001,1497.0,Dudley St @ Blue Hill Ave,0.0,0.0,0.0,0.0,0.0,0.0,0.0,0.0,0.0,0.0,0.0,0.0,1.0,1.0,1.0,1.0,1.0,1.0,1.0,1.0,1.0
1498,15,0.3376545842217484,0.7895273631840799,14.329012304548684,-71.073931,42.3236430000001,1498.0,Dudley St @ Dennis St,0.0,0.0,0.0,0.0,0.0,0.0,0.0,0.0,0.0,0.0,0.0,0.0,0.0,0.0,0.0,0.0,1.0,1.0,1.0,1.0,1.0
1499,15,0.40744980454868507,1.2556787491115846,13.483054371002135,-71.072268,42.321257,1499.0,Dudley St @ W Cottage St,1.0,1.0,1.0,1.0,1.0,1.0,1.0,1.0,1.0,1.0,1.0,1.0,1.0,1.0,1.0,1.0,1.0,1.0,1.0,1.0,1.0
1500,15,0.2560321162046908,0.8524582444918267,12.868851723525232,-71.071274,42.3200620000001,1500.0,Dudley St @ Howard Ave,0.0,0.0,0.0,0.0,0.0,0.0,0.0,0.0,0.0,0.0,0.0,0.0,0.0,0.0,0.0,0.0,1.0,1.0,1.0,1.0,1.0
1501,15,0.24319829424307038,0.9387506663113007,12.156163379530915,-71.0692529999999,42.3187100000001,1501.0,Dudley St @ Uphams Corner Station,0.0,0.0,0.0,0.0,0.0,0.0,0.0,0.0,0.0,0.0,0.0,0.0,0.0,0.0,0.0,0.0,0.0,1.0,1.0,1.0,1.0
11501,15,0.3147145966595594,2.4769209754797443,9.981831911869222,-71.066499,42.3175850000001,11501.0,Dudley St @ Virginia St,1.0,1.0,1.0,1.0,1.0,1.0,1.0,1.0,1.0,1.0,1.0,1.0,1.0,1.0,1.0,1.0,1.0,1.0,1.0,1.0,1.0
1503,15,0.25825848436389476,0.7106896321961622,9.516087420042648,-71.065682,42.3167800000001,1503.0,Columbia Rd opp Cushing Ave,0.0,0.0,0.0,0.0,0.0,0.0,0.0,0.0,0.0,0.0,0.0,0.0,0.0,0.0,0.0,0.0,0.0,0.0,1.0,1.0,1.0
1504,15,0.27288468372423597,1.069950026652452,8.701102523098797,-71.065955,42.314891,1504.0,Hancock St @ Bird St,1.0,0.0,0.0,0.0,0.0,0.0,0.0,0.0,0.0,0.0,0.0,0.0,0.0,0.0,0.0,0.0,1.0,1.0,1.0,1.0,1.0
1506,15,0.10161713752665248,0.8618323560767595,7.93381996268657,-71.064654,42.3126770000001,1506.0,Hancock St @ Trull St,0.0,0.0,0.0,0.0,0.0,0.0,0.0,0.0,0.0,0.0,0.0,0.0,0.0,0.0,0.0,0.0,0.0,0.0,1.0,1.0,1.0
1508,15,0.05407960199004977,3.486787269012082,4.497967306325515,-71.062716,42.310318,1508.0,Hancock St @ Bowdoin St,1.0,1.0,1.0,1.0,1.0,1.0,1.0,1.0,1.0,1.0,1.0,1.0,1.0,1.0,1.0,0.0,0.0,0.0,1.0,1.0,1.0
1509,15,0.0289587775408671,0.20173063255152812,8.736333511016344,-71.063141,42.310102,1509.0,Bowdoin St @ Tovar St,0.0,0.0,0.0,0.0,0.0,0.0,0.0,0.0,0.0,0.0,0.0,0.0,0.0,0.0,0.0,0.0,0.0,0.0,0.0,0.0,0.0
1510,15,0.056334399431414356,0.902430703624733,7.908648276474769,-71.0643259999999,42.308815,1510.0,Bowdoin St @ Hendry St,0.0,0.0,0.0,0.0,0.0,0.0,0.0,0.0,0.0,0.0,0.0,0.0,0.0,0.0,0.0,0.0,0.0,0.0,0.0,1.0,1.0
1511,15,0.18164934257285004,1.617220149253731,6.489633084577114,-71.06501,42.308167,1511.0,Bowdoin St @ Quincy St,1.0,1.0,0.0,0.0,0.0,0.0,0.0,0.0,0.0,0.0,0.0,0.0,0.0,0.0,0.0,1.0,1.0,1.0,1.0,1.0,1.0
11512,15,0.07223999052357255,0.36870409855484465,7.79667140488036,-71.066004,42.307218,11512.0,Bowdoin opp Mt Ida,0.0,0.0,0.0,0.0,0.0,0.0,0.0,0.0,0.0,0.0,0.0,0.0,0.0,0.0,0.0,0.0,0.0,0.0,0.0,0.0,1.0
1512,15,0.23473110637289732,1.2284440890784165,6.810450722577588,-71.0669819999999,42.3063270000001,1512.0,Bowdoin St @ Hamilton St,1.0,0.0,1.0,1.0,1.0,1.0,1.0,1.0,1.0,1.0,1.0,1.0,0.0,0.0,0.0,1.0,0.0,1.0,1.0,1.0,1.0
1513,15,0.2539119876806445,0.7787046908315576,6.256686804074865,-71.068298,42.3052920000001,1513.0,Bowdoin St @ Olney St,0.0,1.0,0.0,0.0,0.0,0.0,0.0,0.0,0.0,0.0,0.0,0.0,0.0,0.0,0.0,0.0,1.0,1.0,1.0,1.0,1.0
1514,15,0.017928216062544414,0.22683901918976535,6.058795309168443,-71.0697279999999,42.304293,1514.0,Bowdoin St @ Eunice St,0.0,0.0,0.0,0.0,0.0,0.0,0.0,0.0,0.0,0.0,0.0,0.0,0.0,0.0,0.0,0.0,0.0,0.0,0.0,0.0,0.0
1515,15,0.13347251836057814,0.4393597488746745,5.841802890310354,-71.071427,42.303498,1515.0,Bowdoin St @ Geneva Ave,0.0,0.0,0.0,0.0,0.0,0.0,0.0,0.0,0.0,0.0,0.0,0.0,0.0,0.0,0.0,0.0,0.0,0.0,0.0,1.0,1.0
553,15,0.1424751243781095,0.4381722340677565,5.566746624022744,-71.069671,42.3022920000001,553.0,Geneva Ave @ Holiday St,0.0,0.0,0.0,0.0,0.0,0.0,0.0,0.0,0.0,0.0,0.0,0.0,0.0,0.0,0.0,0.0,0.0,0.0,1.0,1.0,1.0
554,15,0.14800402748163954,0.7435678749111578,4.912689528547738,-71.0676099999999,42.301075,554.0,Geneva Ave @ Westville St,1.0,1.0,0.0,0.0,0.0,0.0,0.0,0.0,0.0,0.0,0.0,0.0,0.0,0.0,0.0,0.0,0.0,1.0,1.0,1.0,1.0
555,15,0.015046789860222683,0.35130597014925363,4.582782515991472,-71.066358,42.3003350000001,555.0,Geneva Ave @ Dakota St,0.0,0.0,0.0,0.0,0.0,0.0,0.0,0.0,0.0,0.0,0.0,0.0,0.0,0.0,0.0,0.0,0.0,0.0,0.0,0.0,0.0
556,15,0.005662165363657883,0.6193200663349918,3.9902600094764282,-71.0648849999999,42.299473,556.0,Geneva Ave @ Tonawanda St,0.0,0.0,0.0,0.0,0.0,0.0,0.0,0.0,0.0,0.0,0.0,0.0,0.0,0.0,0.0,0.0,0.0,0.0,0.0,0.0,1.0
323,15,0.0,3.845827410566217,0.14900201374081976,-71.0647573,42.2989063,323.0,Fields Corner Busway,0.0,0.0,0.0,0.0,0.0,0.0,0.0,0.0,0.0,0.0,0.0,0.0,0.0,0.0,0.0,0.0,0.0,0.0,0.0,0.0,0.0
15100,15,0.0,1.535,0.2175,-71.0643709999999,42.3081010000001,15100.0,St Peters Sq @ Church,1.0,1.0,1.0,1.0,1.0,1.0,1.0,1.0,1.0,1.0,1.0,1.0,1.0,1.0,1.0,1.0,1.0,1.0,1.0,1.0,1.0
