stop_id,route_id,average_ons,average_offs,average_load,X,Y,Stop_ID,Stop_Name,lambda_0.0,lambda_0.05,lambda_0.1,lambda_0.15,lambda_0.2,lambda_0.25,lambda_0.3,lambda_0.35,lambda_0.4,lambda_0.45,lambda_0.5,lambda_0.55,lambda_0.6,lambda_0.65,lambda_0.7,lambda_0.75,lambda_0.8,lambda_0.85,lambda_0.9,lambda_0.95,lambda_1.0
8309,117,2.414285714285714,0.0,2.414285714285714,-71.0593809,42.3622469,8309.0,Surface Rd @ Hanover St,1.0,1.0,1.0,1.0,1.0,1.0,1.0,1.0,1.0,1.0,1.0,1.0,1.0,1.0,1.0,1.0,1.0,1.0,1.0,1.0,1.0
5740,117,12.63334656084656,0.1,13.476222222222217,-71.039615,42.3691390000001,5740.0,Maverick,1.0,1.0,1.0,1.0,1.0,1.0,1.0,1.0,1.0,1.0,1.0,1.0,1.0,1.0,1.0,1.0,1.0,1.0,1.0,1.0,1.0
5742,117,2.0944444444444446,0.15098356009070302,16.33652777777778,-71.038958,42.372502,5742.0,Meridian St @ Havre St,0.0,0.0,0.0,1.0,1.0,1.0,1.0,1.0,1.0,1.0,1.0,1.0,1.0,1.0,1.0,1.0,1.0,1.0,1.0,1.0,1.0
5743,117,3.1306320861678,1.3096740362811785,18.15383786848073,-71.039031,42.375709,5743.0,Meridian St @ Saratoga St,1.0,1.0,1.0,1.0,1.0,1.0,1.0,1.0,1.0,1.0,1.0,1.0,1.0,1.0,1.0,1.0,1.0,1.0,1.0,1.0,1.0
5745,117,0.5607284580498864,0.8391411564625854,17.89178287981859,-71.0391079999999,42.378763,5745.0,Meridian St @ Eutaw St,0.0,0.0,0.0,0.0,0.0,0.0,0.0,0.0,0.0,0.0,0.0,0.0,0.0,1.0,1.0,1.0,1.0,1.0,1.0,1.0,1.0
5746,117,0.5173157596371879,1.6339002267573697,16.77763888888889,-71.039186,42.3804450000001,5746.0,Meridian St @ White St,0.0,0.0,0.0,0.0,0.0,0.0,0.0,0.0,0.0,0.0,0.0,0.0,0.0,0.0,1.0,1.0,1.0,1.0,1.0,1.0,1.0
5747,117,0.5920238095238094,1.0768083900226748,16.297755102040806,-71.039184,42.382078,5747.0,Meridian St @ Falcon St,0.0,0.0,0.0,0.0,0.0,0.0,0.0,0.0,0.0,0.0,0.0,0.0,0.0,0.0,1.0,1.0,1.0,1.0,1.0,1.0,1.0
5748,117,0.1996343537414966,0.6077607709750569,15.696714852607712,-71.0385699999999,42.3879390000001,5748.0,Pearl St @ Marginal St,0.0,0.0,0.0,0.0,0.0,0.0,0.0,0.0,0.0,0.0,0.0,0.0,0.0,0.0,0.0,0.0,0.0,1.0,1.0,1.0,1.0
5749,117,0.6181632653061225,1.4815164399092973,14.891326530612236,-71.0376239999999,42.389439,5749.0,Pearl St @ Essex St,0.0,0.0,0.0,0.0,0.0,0.0,0.0,0.0,0.0,0.0,0.0,0.0,0.0,1.0,1.0,1.0,1.0,1.0,1.0,1.0,1.0
5614,117,0.6993622448979594,0.966729024943311,14.636028911564626,-71.0355529999999,42.3902630000001,5614.0,Park St @ Hawthorne St,0.0,0.0,0.0,0.0,0.0,0.0,0.0,0.0,0.0,0.0,0.0,0.0,0.0,1.0,1.0,1.0,1.0,1.0,1.0,1.0,1.0
5615,117,3.3502636054421764,2.378032879818593,15.615223922902498,-71.0341299999999,42.3925170000001,5615.0,Hawthorne St @ Broadway,1.0,1.0,1.0,1.0,1.0,1.0,1.0,1.0,1.0,1.0,1.0,1.0,1.0,1.0,1.0,1.0,1.0,1.0,1.0,1.0,1.0
5617,117,0.30487244897959187,0.2479818594104308,15.675036848072567,-71.03297,42.3933660000001,5617.0,Broadway @ Shurtleff St,0.0,0.0,0.0,0.0,0.0,0.0,0.0,0.0,0.0,0.0,0.0,0.0,0.0,0.0,0.0,1.0,1.0,1.0,1.0,1.0,1.0
5750,117,0.557766439909297,0.20540816326530617,16.01988378684808,-71.03111,42.394393,5750.0,Broadway @ Gerrish Ave,0.0,0.0,0.0,0.0,0.0,0.0,0.0,0.0,0.0,0.0,0.0,0.0,0.0,1.0,1.0,1.0,1.0,1.0,1.0,1.0,1.0
5751,117,0.15020691609977319,0.2286451247165533,15.945997732426305,-71.029701,42.3951970000001,5751.0,Broadway @ Crescent Ave,0.0,0.0,0.0,0.0,0.0,0.0,0.0,0.0,0.0,0.0,0.0,0.0,0.0,0.0,0.0,0.0,0.0,0.0,1.0,1.0,1.0
35751,117,0.3450000000000001,0.3708616780045353,15.904784580498859,-71.02856,42.3958450000001,35751.0,Broadway @ Cary Ave,0.0,0.0,0.0,0.0,0.0,0.0,0.0,0.0,0.0,0.0,0.0,0.0,0.0,0.0,0.0,1.0,1.0,1.0,1.0,1.0,1.0
5752,117,0.2627947845804988,0.4630102040816327,15.69856859410432,-71.026979,42.3967470000001,5752.0,Broadway @ Parker St,0.0,0.0,0.0,0.0,0.0,0.0,0.0,0.0,0.0,0.0,0.0,0.0,0.0,0.0,0.0,0.0,0.0,1.0,1.0,1.0,1.0
5753,117,0.2117828798185941,0.6081547619047619,15.314160997732428,-71.02537,42.3976430000001,5753.0,Broadway @ Eleanor St,0.0,0.0,0.0,0.0,0.0,0.0,0.0,0.0,0.0,0.0,0.0,0.0,0.0,0.0,0.0,0.0,0.0,0.0,1.0,1.0,1.0
5754,117,0.11043650793650793,0.382562358276644,15.050070861678014,-71.023637,42.398643,5754.0,Broadway @ Green St,0.0,0.0,0.0,0.0,0.0,0.0,0.0,0.0,0.0,0.0,0.0,0.0,0.0,0.0,0.0,0.0,0.0,0.0,1.0,1.0,1.0
5755,117,0.22464569160997744,0.9662471655328797,14.295229591836739,-71.022394,42.3995570000001,5755.0,Broadway @ Webster Ave,1.0,1.0,1.0,0.0,0.0,0.0,0.0,0.0,0.0,0.0,0.0,0.0,0.0,0.0,0.0,0.0,0.0,1.0,1.0,1.0,1.0
5756,117,0.39513605442176875,1.7848554421768708,12.915668934240362,-71.021093,42.400699,5756.0,Broadway @ Stockton St,0.0,0.0,0.0,0.0,0.0,0.0,0.0,0.0,0.0,0.0,0.0,1.0,1.0,1.0,1.0,1.0,1.0,1.0,1.0,1.0,1.0
5757,117,0.3451218820861678,1.3036394557823126,11.951391723356013,-71.019773,42.4018570000001,5757.0,Broadway @ Cabot St,0.0,0.0,0.0,0.0,0.0,0.0,0.0,0.0,0.0,0.0,0.0,0.0,0.0,0.0,1.0,1.0,1.0,1.0,1.0,1.0,1.0
5759,117,0.2309183673469388,0.7247307256235829,11.461476757369619,-71.016173,42.404978,5759.0,Broadway @ Taft St,0.0,0.0,0.0,0.0,0.0,0.0,0.0,0.0,0.0,0.0,0.0,0.0,0.0,0.0,0.0,0.0,0.0,1.0,1.0,1.0,1.0
5760,117,0.22590702947845814,0.6951105442176873,11.005294784580498,-71.014641,42.406418,5760.0,Broadway @ Beach St,0.0,0.0,0.0,0.0,0.0,0.0,0.0,0.0,0.0,0.0,0.0,0.0,0.0,0.0,0.0,0.0,0.0,1.0,1.0,1.0,1.0
5761,117,0.9963803854875292,2.682049319727891,9.312692743764178,-71.013288,42.408443,5761.0,Broadway @ Pleasant St,1.0,1.0,1.0,1.0,1.0,1.0,1.0,1.0,1.0,1.0,1.0,1.0,1.0,1.0,1.0,1.0,1.0,1.0,1.0,1.0,1.0
5790,117,1.1001275510204074,1.3743565759637186,9.060402494331075,-71.010465,42.409605,5790.0,49 Central Ave,0.0,0.0,0.0,0.0,0.0,0.0,0.0,0.0,0.0,0.0,0.0,1.0,1.0,1.0,1.0,1.0,1.0,1.0,1.0,1.0,1.0
5792,117,0.41335600907029457,0.36952380952380953,9.122891156462575,-71.0067759999999,42.40923,5792.0,Beach St @ Eustis St,0.0,0.0,0.0,0.0,0.0,0.0,0.0,0.0,0.0,0.0,0.0,0.0,0.0,0.0,1.0,1.0,1.0,1.0,1.0,1.0,1.0
5794,117,0.44159013605442154,0.47249716553287985,9.079909297052165,-71.0035779999999,42.4089940000001,5794.0,Beach St @ Harris St - Bell Circle,0.0,0.0,0.0,0.0,0.0,0.0,0.0,0.0,0.0,0.0,0.0,0.0,0.0,1.0,0.0,1.0,1.0,1.0,1.0,1.0,1.0
4717,117,0.17760487528344673,1.5773100907029485,7.669674036281177,-70.999403,42.409853,4717.0,Beach St @ Shirley Ave - Bell Circle,0.0,0.0,0.0,0.0,0.0,0.0,0.0,0.0,0.0,0.0,0.0,0.0,0.0,0.0,0.0,0.0,0.0,0.0,0.0,1.0,1.0
5797,117,0.05464002267573696,0.7106746031746026,7.007363945578228,-70.9967599999999,42.409189,5797.0,Beach St @ Walnut Ave,0.0,0.0,0.0,0.0,0.0,0.0,0.0,0.0,0.0,0.0,0.0,0.0,0.0,0.0,0.0,0.0,0.0,0.0,1.0,1.0,1.0
5798,117,0.17927154195011336,2.343421201814059,4.902823129251699,-70.993668,42.4085170000001,5798.0,Beach St @ N Shore Rd,0.0,0.0,0.0,0.0,0.0,0.0,0.0,0.0,0.0,0.0,0.0,0.0,0.0,0.0,0.0,0.0,0.0,1.0,1.0,1.0,1.0
15795,117,0.028571428571428574,4.371680839002271,0.5578061224489796,-70.9968304,42.4135781,15795.0,Wonderland Busway,1.0,1.0,1.0,1.0,1.0,1.0,1.0,1.0,1.0,1.0,1.0,1.0,1.0,1.0,1.0,1.0,1.0,0.0,0.0,1.0,1.0
7094,117,0.0,1.5666666666666664,0.0,-71.017167,42.366635,7094.0,Terminal C - Departures Level,0.0,0.0,0.0,0.0,0.0,0.0,0.0,0.0,0.0,0.0,0.0,0.0,0.0,0.0,0.0,0.0,0.0,0.0,0.0,1.0,1.0
24716,117,0.0,0.06666666666666667,0.9,-70.996415,42.411567,24716.0,VFW Pkwy opp Wonderland Market Place,0.0,0.0,0.0,0.0,0.0,0.0,0.0,0.0,0.0,0.0,0.0,0.0,0.0,0.0,0.0,0.0,0.0,0.0,0.0,0.0,0.0
4733,117,0.0,0.03333333333333333,0.8666666666666667,-71.000379,42.4096970000001,4733.0,Beach St @ Upham St - Bell Circle,0.0,0.0,0.0,0.0,0.0,0.0,0.0,0.0,0.0,0.0,0.0,0.0,0.0,0.0,0.0,0.0,0.0,0.0,0.0,0.0,0.0
4526,117,0.0,0.0,0.8666666666666667,-71.001815,42.409969,4526.0,American Legion Hwy @ Bell Circle,0.0,0.0,0.0,0.0,0.0,0.0,0.0,0.0,0.0,0.0,0.0,0.0,0.0,0.0,0.0,0.0,0.0,0.0,0.0,0.0,0.0
45261,117,0.0,0.0,0.7999999999999999,-71.0028609999999,42.4126460000001,45261.0,133 - 135 American Legion Hwy,0.0,0.0,0.0,0.0,0.0,0.0,0.0,0.0,0.0,0.0,0.0,0.0,0.0,0.0,0.0,0.0,0.0,0.0,0.0,0.0,0.0
4512,117,0.0,0.0,1.0333333333333334,-71.003166,42.4164170000001,4512.0,American Legion Hwy @ Revere St,0.0,0.0,0.0,0.0,0.0,0.0,0.0,0.0,0.0,0.0,0.0,0.0,0.0,0.0,0.0,0.0,0.0,0.0,0.0,0.0,0.0
4513,117,0.0,0.0,1.2666666666666668,-71.001931,42.4188780000001,4513.0,American Legion Hwy @ Hutchinson St,0.0,0.0,0.0,0.0,0.0,0.0,0.0,0.0,0.0,0.0,0.0,0.0,0.0,0.0,0.0,0.0,0.0,0.0,0.0,0.0,0.0
4515,117,0.0,0.06666666666666667,1.2,-71.00354,42.4209500000001,4515.0,Brown Circle Rotary,0.0,0.0,0.0,0.0,0.0,0.0,0.0,0.0,0.0,0.0,0.0,0.0,0.0,0.0,0.0,0.0,0.0,0.0,0.0,0.0,0.0
4516,117,0.0,0.06666666666666667,1.1333333333333335,-70.980563,42.4493560000001,4516.0,Salem Tnpk @ Ballard St,0.0,0.0,0.0,0.0,0.0,0.0,0.0,0.0,0.0,0.0,0.0,0.0,0.0,0.0,0.0,0.0,0.0,0.0,0.0,0.0,0.0
4518,117,0.03333333333333333,0.16666666666666666,1.0333333333333334,-70.975717,42.453688,4518.0,Western Ave opp Cooper St,0.0,0.0,0.0,0.0,0.0,0.0,0.0,0.0,0.0,0.0,0.0,0.0,0.0,0.0,0.0,0.0,0.0,0.0,0.0,0.0,1.0
4520,117,0.0,0.9666666666666667,0.06666666666666667,-70.974024,42.45513,4520.0,Western Ave opp Lynn Garage,1.0,1.0,1.0,1.0,1.0,1.0,1.0,1.0,1.0,1.0,1.0,1.0,1.0,1.0,1.0,1.0,1.0,1.0,1.0,1.0,1.0
