stop_id,route_id,average_ons,average_offs,average_load,X,Y,Stop_ID,Stop_Name
334,24,8.913354978354977,0.013481518481518472,8.913354978354977,-71.0733149,42.2845163,334.0,Ashmont Busway
536,24,0.03794039294039294,0.010058275058275055,8.982176157176157,-71.065378,42.2820770000001,536.0,Dorchester Ave @ Hurlcroft Ave
537,24,0.17751415251415253,0.038751248751248746,9.116318681318681,-71.065961,42.280016,537.0,Dorchester Ave @ Gallivan Blvd
569,24,0.1332051282051282,0.18895271395271387,9.078083583083584,-71.0665069999999,42.2780910000001,569.0,Dorchester Ave @ Valley Rd
10569,24,0.029750249750249747,0.03773726273726274,9.060381285381286,-71.0670289999999,42.276285,10569.0,2165 Dorchester Ave
570,24,0.07400932400932402,0.10903762903762905,9.035677655677656,-71.0672289999999,42.2755940000001,570.0,Dorchester Ave @ St Gregory St
883,24,0.1391991341991342,0.43700466200466204,8.743311688311689,-71.067662,42.273982,883.0,Dorchester Ave @ Richmond St
571,24,0.18319180819180828,0.21143356643356645,8.727342657342657,-71.068076,42.272302,571.0,Dorchester Ave @ Washington St
572,24,0.2843240093240093,0.21082917082917083,8.793215118215118,-71.0695679999999,42.272455,572.0,River St @ Wichita Ter
574,24,0.33992174492174504,0.21199467199467198,8.933180153180153,-71.074869,42.271399,574.0,River St @ Cedar St
575,24,0.6066466866466864,0.5257142857142857,9.007788877788878,-71.078388,42.2717420000001,575.0,River St @ Standard St
576,24,0.2078121878121878,0.19867299367299365,9.02907092907093,-71.0807809999999,42.2714050000001,576.0,River St opp Duxbury Rd
577,24,0.04536963036963036,0.07976689976689978,8.996946386946387,-71.082411,42.27135,577.0,River St opp Leahaven Rd
578,24,0.28133033633033633,0.21940559440559435,9.051663336663337,-71.0844549999999,42.271152,578.0,River St @ Newcroft Circle
579,24,0.061158841158841175,0.14136197136197137,8.981460206460206,-71.0878309999999,42.270226,579.0,River St @ Gladeside Ave
580,24,0.15743423243423244,0.17677322677322674,8.965757575757577,-71.090009,42.270027,580.0,River St @ Fremont St
185,24,2.8040079365079364,1.4987469474969484,3.939050671550671,,,,
6368,24,3.2405616605616605,0.25611568986568983,6.946710927960923,-71.094318,42.267439,6368.0,River St @ Cummings Hwy
16369,24,0.14534188034188034,0.07575702075702079,6.995045787545787,-71.097269,42.266533,16369.0,River St @ Violante St
6369,24,0.17936050061050057,0.2898153235653235,6.922187118437113,-71.099618,42.264916,6369.0,River St @ Caton St
6371,24,0.3097725885225885,1.0627838827838834,6.2003067765567765,-71.102855,42.2636350000001,6371.0,River St opp Wachusett St
6372,24,0.12418803418803415,0.5228327228327228,5.839184981684983,-71.105151,42.2635910000001,6372.0,River St @ Tileston St
6373,24,0.413890415140415,1.119942002442003,5.190848595848596,-71.107674,42.263048,6373.0,River St @ George St
6374,24,0.6887881562881564,1.2533424908424908,4.814984737484738,-71.111146,42.2616570000001,6374.0,River St @ Reddy Ave
6375,24,0.09805402930402934,0.3981227106227107,4.577535103785103,-71.11341,42.261174,6375.0,River St @ Huntington Ave
6376,24,0.4174557387057387,1.6885897435897437,4.017710622710624,-71.115601,42.2604920000001,6376.0,River St @ Metropolitan Ave
6377,24,0.08614774114774111,0.49332112332112343,3.7011324786324793,-71.117983,42.2588180000001,6377.0,River St @ West St
76378,24,0.04292582417582417,0.42987332112332105,3.4092445054945046,-71.1198199999999,42.257442,76378.0,River St @ Webster St
6390,24,0.8079334554334555,2.9692094017094015,2.0350518925518934,-71.1212169999999,42.2557350000001,6390.0,River St @ Fairmount Ave
16391,24,0.07702533577533578,0.26926129426129425,1.9206364468864476,-71.119861,42.2542090000001,16391.0,Fairmount Ave opp Pierce St
6392,24,0.17571275946275944,0.6242735042735044,1.7024923687423692,-71.1179759999999,42.252485,6392.0,Beacon St @ Fairmount Ave
6393,24,0.02039377289377289,0.07332875457875458,1.6821169108669107,-71.115552,42.2538650000001,6393.0,Beacon St @ Albion St
6394,24,0.037898351648351654,0.08687271062271062,1.666475885225885,-71.1124799999999,42.2556480000001,6394.0,Beacon St @ Metropolitan Ave
6396,24,0.08559829059829059,0.12251526251526253,1.6519398656898658,-71.111082,42.2538900000001,6396.0,Metropolitan Ave @ Highland St
6397,24,0.03173840048840049,0.09008852258852258,1.6019230769230768,-71.109476,42.252143,6397.0,Summit St @ Metropolitan Ave
6398,24,0.10205891330891327,0.2472725885225885,1.471292735042735,-71.1116509999999,42.250886,6398.0,Summit St @ Milton Ave
6399,24,0.012297008547008543,0.013867521367521368,1.4697222222222226,-71.113466,42.2525680000001,6399.0,Milton Ave @ Highland St
6400,24,0.0016025641025641001,0.028031135531135523,1.4432936507936507,-71.114406,42.252256,6400.0,Highland St @ Albion St
64001,24,0.0359981684981685,0.05740689865689866,1.4260515873015869,-71.115692,42.2515000000001,64001.0,Highland St @ Warren Ave
6401,24,0.04570970695970696,0.07694139194139193,1.4014865689865683,-71.116815,42.2508750000001,6401.0,Highland St @ Fairmount Ave
6402,24,0.031692612942612934,0.03496794871794872,1.408627899877901,-71.117192,42.2502180000001,6402.0,17 Pond St
6403,24,0.15730769230769234,0.1089789377289377,1.488206654456655,-71.116594,42.2480830000001,6403.0,Williams St @ Summit St
16403,24,0.05567002442002442,0.10295329670329671,1.456756715506715,-71.117607,42.247466,16403.0,Summit St @ Neponset Ave
6405,24,0.047037545787545786,0.10440170940170941,1.4173092185592182,-71.119131,42.2465690000001,6405.0,Washington St @ Dana Ave
6406,24,0.48664987789987796,0.495242673992674,1.5757997557997558,-71.120291,42.2459060000001,6406.0,Washington St @ Garfield Ave
6407,24,0.10143009768009768,0.0954029304029304,1.6089102564102566,-71.121132,42.2454260000001,6407.0,Washington St @ Chittick Rd
6408,24,0.3349358974358974,0.49269078144078143,1.6686553724053725,-71.122396,42.244739,6408.0,Washington St @ Woodglen Rd
6409,24,0.1278235653235653,0.11283577533577534,1.7223336385836383,-71.1236039999999,42.2440590000001,6409.0,Washington St @ Faraday St
6410,24,0.1799435286935287,0.359830586080586,1.5988156288156292,-71.124308,42.2436690000001,6410.0,Washington St @ Needham Rd
6411,24,0.0,1.0053586691086691,1.050070207570208,-71.1261479999999,42.2428110000001,6411.0,Truman Hwy @ Wakefield Ave
