stop_id,route_id,average_ons,average_offs,average_load,X,Y,Stop_ID,Stop_Name
334,240,13.884797464440323,0.0215007215007215,13.884797464440323,-71.0733149,42.2845163,334.0,Ashmont Busway
536,240,0.07466475984333128,0.0031114718614718576,13.957230725623585,-71.065378,42.2820770000001,536.0,Dorchester Ave @ Hurlcroft Ave
537,240,0.26616625438054003,0.036770253555967844,14.357611317254179,-71.065961,42.280016,537.0,Dorchester Ave @ Gallivan Blvd
569,240,0.06992527313955885,0.17220727685013398,14.360576169861881,-71.0665069999999,42.2780910000001,569.0,Dorchester Ave @ Valley Rd
10569,240,0.023571686250257677,0.05939806225520511,14.33196634714492,-71.0670289999999,42.276285,10569.0,2165 Dorchester Ave
570,240,0.027817717996289435,0.11321454339311486,14.25277236652237,-71.0672289999999,42.2755940000001,570.0,Dorchester Ave @ St Gregory St
883,240,0.09646258503401359,0.5230480828695115,13.83736111111111,-71.067662,42.273982,883.0,Dorchester Ave @ Richmond St
571,240,0.07106395588538443,0.21396310039167177,13.704945887445888,-71.068076,42.272302,571.0,Dorchester Ave @ Washington St
572,240,0.09585626674912383,0.202262420119563,13.588075654504227,-71.0695679999999,42.272455,572.0,River St @ Wichita Ter
4134,240,1.2195307668521957,0.19056947021232734,14.610546279117706,-71.073275,42.2700980000001,4134.0,Central Ave @ Central Ave Station
4136,240,0.02890692640692642,0.005176767676767675,14.633399814471241,-71.073741,42.2689310000001,4136.0,Central Ave @ Maple St
4137,240,0.003508297258297252,0.0,14.635997217068642,-71.075912,42.2674870000001,4137.0,Central Ave opp Griggs Ln
4138,240,0.001360544217687076,0.0,14.645691094619668,-71.077174,42.265947,4138.0,Central Ave @ Valley Rd
4139,240,0.0020833333333333333,0.0,14.63770949288806,-71.078289,42.2645270000001,4139.0,Central Ave @ Columbine Rd
4140,240,0.0008116883116883097,0.034559884559884534,14.60846526489384,-71.079584,42.2625090000001,4140.0,Central Ave @ Hinckley Rd
4141,240,0.004265873015873014,0.011244588744588743,14.60408395176253,-71.080725,42.2603260000001,4141.0,Central Ave @ Allerton Rd
4142,240,0.0,0.0022675736961451235,14.597167851989282,-71.080881,42.259704,4142.0,Central Ave @ Rustlewood Rd
4143,240,0.015619202226345066,0.14202071737786026,14.46967326324469,-71.081173,42.2585310000001,4143.0,Central Ave @ Brook Rd
4144,240,0.01588074623788909,0.029554473304473302,14.44758116883116,-71.081128,42.257995,4144.0,Reedsdale Rd @ Central Ave
4145,240,0.0,0.04918856936714078,14.399628427128423,-71.078941,42.255817,4145.0,Reedsdale Rd @ Walnut St
4146,240,0.05274170274170272,0.1358779117707689,14.318898680684397,-71.077679,42.2545940000001,4146.0,Reedsdale Rd @ Canton Ave
4147,240,0.06783627087198517,0.1885655019583591,14.206156204906206,-71.076806,42.2536880000001,4147.0,opp 182 Reedsdale Rd @ MIlton Hospital
4149,240,0.004864976293547719,0.010652958152958152,14.194453720882295,-71.073788,42.250905,4149.0,Reedsdale Rd @ Spafford Rd
4152,240,0.003277674706246133,0.04918650793650794,14.144022881880025,-71.071331,42.248902,4152.0,Reedsdale Rd @ Clifton Rd
4153,240,0.018874716553287978,0.13042285095856523,14.024532570604006,-71.069317,42.24841,4153.0,Randolph Ave @ Reedsdale Rd
4154,240,0.0008116883116883097,0.01096681096681098,14.022645846217276,-71.069445,42.245321,4154.0,Randolph Ave opp Pleasant St
4155,240,0.0008928571428571429,0.005555555555555557,14.020052051123482,-71.0695249999999,42.2429010000001,4155.0,Randolph Ave @ Reed St
4156,240,0.0,0.0,14.01443980622552,-71.069575,42.2404050000001,4156.0,Randolph Ave @ Highland St
4157,240,0.010303545660688519,0.00843640486497629,14.007630643166356,-71.069675,42.23864,4157.0,Randolph Ave @ Hallen Ave
4158,240,0.0,0.007268089053803343,13.999628427128425,-71.069805,42.23589,4158.0,Randolph Ave opp Ridgewood Rd
4159,240,0.0011904761904761906,0.00021645021645021428,13.995834879406308,-71.070002,42.2346210000001,4159.0,Randolph Ave opp Nahanton Ave
4160,240,0.0,0.0029478458049886614,13.989936353329213,-71.070883,42.2320310000001,4160.0,Randolph Ave opp Hilltop St
4161,240,0.0035714285714285718,0.08099129045557618,13.919345753452896,-71.0711469999999,42.231296,4161.0,Randolph Ave @ Hillside St
4162,240,0.0012554112554112532,0.046511904761904733,13.565983766233769,-71.071136,42.2285630000001,4162.0,Randolph Ave opp Eager Rd
4163,240,0.0,0.004906462585034015,13.888058390022676,-71.070983,42.22657,4163.0,Randolph Ave @ Susi Ln
4164,240,0.0005140692640692619,0.043771645021645024,13.845122139764994,-71.0707619999999,42.22429,4164.0,Randolph Ave @ Chickataubut Rd
4165,240,0.2129372809729953,0.8755581323438467,13.181184549577406,-71.06285,42.2012270000001,4165.0,N Main St @ Scanlon Dr
4166,240,0.03832379921665634,0.18812255205112344,13.034598278705424,-71.0616649999999,42.198676,4166.0,N Main St @ Soren St
4167,240,0.10164759843331271,0.3195640074211503,12.813997887033596,-71.061267,42.1973780000001,4167.0,N Main St @ Hills St
4168,240,0.13742398474541334,0.32855055658627086,12.61795609152752,-71.060912,42.1954460000001,4168.0,N Main St @ Stacy St
4169,240,0.13795351473922904,0.3466378066378068,12.410223922902489,-71.060265,42.1935020000001,4169.0,N Main St @ Royal St
4171,240,0.4479854669140384,0.7862997320140175,12.075457637600497,-71.059514,42.191714,4171.0,N Main St @ Reed St
4172,240,0.036002886002886,0.04483482787054215,12.076109822716965,-71.05921,42.1912550000001,4172.0,1034 N Main St
4173,240,0.017594825809111522,0.09890460729746439,12.001306431663568,-71.058144,42.1896340000001,4173.0,N Main St @ Intervale Terr
4174,240,0.045485982271696555,0.08419836116264687,11.962274788703361,-71.057238,42.188296,4174.0,N Main St @ Gordon St
4175,240,0.4851687796330654,1.6410283962069672,10.818414244485675,-71.0552719999999,42.185413,4175.0,N Main St @ Chestnut St
4177,240,0.352533498247784,0.3210923005565863,10.857810245310244,-71.054027,42.183699,4177.0,N Main St opp Francis Dr
4179,240,0.005357142857142857,0.03674654710368998,10.812843743558032,,,,
4180,240,0.21635951350237065,0.3895299938157081,10.636750927643785,-71.050444,42.1780430000001,4180.0,Opp 641 N Main St
4181,240,0.021276540919398058,0.22787595341166766,10.433437693259123,-71.049704,42.176739,4181.0,564 N Main St
4182,240,0.0550038651824366,0.3663159657802515,10.128159142444856,-71.0484729999999,42.1745040000001,4182.0,N Main St @ Grove St
4183,240,0.01117450010307153,0.0817372706658421,10.049037569573281,-71.0478659999999,42.173299,4183.0,N Main St @ Jasper Ln
4184,240,0.0008116883116883097,0.10579803133374564,9.957781642960217,-71.047207,42.1718690000001,4184.0,N Main St @ Wales Ave
4185,240,0.005846732632446914,0.3068328695114409,9.673993248814678,-71.0465639999999,42.1706730000001,4185.0,N Main St opp Roel St
4186,240,0.051105184498041634,1.0070274170274172,8.750180632859204,-71.045626,42.1690970000001,4186.0,N Main St @ West St
4187,240,0.05418186971758401,1.2042841682127394,7.614012574726863,-71.044974,42.168099,4187.0,307 N Main St
4188,240,0.002516233766233762,0.23074391877963304,7.40325396825397,-71.044223,42.1668940000001,4188.0,N Main St @ Depot St
4189,240,0.04064290867862296,1.4416267264481555,6.036505875077304,-71.043483,42.1657480000001,4189.0,N Main St @ Warren St
4190,240,0.015532106782106782,0.7755560709132141,5.319723252937538,-71.042818,42.164677,4190.0,N Main St @ DiAuto Dr
4191,240,0.05916666666666665,1.7688476602762317,3.6799340342197486,-71.042319,42.1638100000001,4191.0,N Main St opp Short St
4214,240,0.2671136363636364,0.4295,4.251590909090909,-71.0425079999999,42.1606140000001,4214.0,Opp 32 S Main St
4215,240,0.0046590909090909,0.14454545454545456,4.108068181818182,-71.042987,42.1597540000001,4215.0,S Main St @ Elgin Court
4216,240,0.0,0.0184090909090909,4.087409090909091,-71.0434999999999,42.15862,4216.0,S Main St @ Woodlawn St
4217,240,0.00181818181818182,0.22065909090909092,3.8983863636363636,-71.044146,42.15705,4217.0,S Main St @ Fairview Ave
4218,240,0.0009090909090909,0.055454545454545444,3.850886363636364,-71.04454,42.1561100000001,4218.0,S Main St @ Fairmount St
4219,240,0.0,0.06536363636363636,3.791931818181818,-71.04504,42.154754,4219.0,S Main St @ Cole Terr
4220,240,0.0,0.18081818181818182,3.6149772727272733,-71.045175,42.153196,4220.0,S Main St @ Fitch Terr
4221,240,0.0,0.05529545454545455,3.573136363636364,-71.044611,42.1518080000001,4221.0,309 S Main opp Rtichard Rd
4222,240,0.0046590909090909,0.1334318181818182,3.4545909090909093,-71.04427,42.150475,4222.0,S Main St @ Stoughton St
4223,240,0.0,0.035136363636363646,3.4192954545454546,-71.043244,42.1479190000001,4223.0,S Main St @ Selwyn Rd
4224,240,0.00045454545454545,0.07086363636363639,3.3557045454545453,-71.0420799999999,42.145807,4224.0,Opp 530 S Main St
4225,240,0.00125,0.29652272727272727,3.10075,-71.041694,42.1446230000001,4225.0,S Main St opp Centre St
14225,240,0.0059772727272727295,0.10711363636363636,3.008022727272727,-71.041416,42.143804,14225.0,S Main St opp Woodlawn Rd
4227,240,0.00375,0.1658409090909091,2.868795454545455,-71.040927,42.1421500000001,4227.0,625 S Main St opp Frederickson Dr
4228,240,0.0,0.06327272727272727,2.816568181818182,-71.040245,42.1385030000001,4228.0,701 S Main St
4229,240,0.022000000000000002,0.18845454545454549,2.6732500000000003,-71.0401919999999,42.137248,4229.0,N Main St @ Langley Rd
4230,240,0.02,0.06131818181818183,2.631931818181818,-71.0399419999999,42.135099,4230.0,47 N Main St
4232,240,0.0,0.8143863636363635,1.9785227272727268,-71.040198,42.131584,4232.0,E Main St @ W Main St
4252,240,0.09444444444444444,0.8597222222222228,3.120833333333332,-71.04038,42.161913,4252.0,Union St @ South St
4253,240,0.0,0.21666666666666667,2.9333333333333336,-71.0334559999999,42.1577810000001,4253.0,Union St opp Prospect Ave
4254,240,0.06666666666666667,0.2541666666666667,2.7777777777777786,-71.029729,42.156078,4254.0,Union St @ Fencourt Ave
4255,240,0.0,1.6194444444444434,1.5555555555555565,,,,
