stop_id,route_id,average_ons,average_offs,average_load,X,Y,Stop_ID,Stop_Name
730,70,2.3032066532258058,0.0,2.5063713837685615,-71.100647,42.361836,730.0,Franklin St @ Sidney St
2755,70,3.5582934747823862,0.04718135560675884,6.020222190220174,-71.103034,42.364128,2755.0,Green St @ Pearl St
1123,70,5.6771400409626205,0.17520497667406265,10.915624651533248,-71.104405,42.3649350000001,1123.0,Green St @ Magazine St
2444,70,3.465804971518177,0.055272465437788014,15.439248079877112,-71.105242,42.3652660000001,2444.0,Western Ave @ Green St
1061,70,0.2346900637196336,0.014092301018376285,14.151153773397054,-71.1089009999999,42.3649520000001,1061.0,Western Ave @ Kinnaird St
1062,70,0.2330023397052967,0.12506440945553848,14.2528298415543,-71.110649,42.3647980000001,1062.0,Western Ave @ Howard St
1064,70,0.4434395445752974,0.5264360456847018,14.177223552085106,-71.114114,42.364492,1064.0,Western Ave @ Putnam Ave
1067,70,0.18083250839164813,0.3501510212209137,14.003120633498325,-71.12231,42.363844,1067.0,Western Ave opp Genzyme
1068,70,0.12473612533424362,0.2695437219093133,13.868510183762872,-71.124624,42.363654,1068.0,125 Western Ave
1070,70,1.9445097215110663,0.5420958568015019,15.28217050691244,-71.129148,42.3632840000001,1070.0,Western Ave @ N Harvard St
1071,70,0.436707814188997,0.2186015247198043,15.492291623997266,-71.132079,42.3632530000001,1071.0,Western Ave opp Riverdale St
1072,70,0.6458792384934858,0.6490699422540821,15.484242660863632,-71.135542,42.3631790000001,1072.0,Western Ave @ Everett St
1074,70,0.26870174802298463,0.45998328070774314,15.3051495917961,-71.138519,42.362807,1074.0,367 Western Ave opp Brighton Mills Mall
1075,70,0.22698187261762529,0.526917868521363,15.01578880070547,-71.139575,42.3626620000001,1075.0,Western Ave opp Litchfield St
1076,70,0.04914784235079933,0.13678420663366908,14.935304332366163,-71.14136,42.3623410000001,1076.0,445 Western Ave
1077,70,1.18716580616715,0.8345757097343123,15.301800691244232,-71.143386,42.361971,1077.0,495 Western Ave
1443,70,0.2536590217329464,1.0035288587358482,14.562981694828467,-71.1533719999999,42.36244,1443.0,Arsenal St @ Arlington St
1444,70,0.2432559737156511,0.901577096489731,13.904401255902599,-71.155659,42.362711,1444.0,Arsenal St @ Elm St
1445,70,1.3096332707515503,1.618168800136542,13.611142771804063,-71.1594499999999,42.3631090000001,1445.0,Arsenal St @ Watertown + Arsenal Mall
1447,70,0.19951680463105192,0.40503204471752846,13.402121330431806,-71.164818,42.363659,1447.0,Arsenal St opp Talcott Ave
1448,70,0.19291326022643224,0.5497764621380214,13.043396121351764,-71.166883,42.363883,1448.0,Arsenal St @ School St
1449,70,0.04155830773169485,0.12395577316948282,12.971224654377883,-71.1712469999999,42.3642600000001,1449.0,Arsenal St opp Louise St
1450,70,0.10823127524606019,0.3034316009557945,12.784765481879733,-71.173414,42.364445,1450.0,Arsenal St opp Beechwood Ave
1451,70,0.0554123001649883,0.31409659640439214,12.541237682767255,-71.175426,42.364626,1451.0,Arsenal St opp Beacon Pk
1452,70,0.15215669625078232,0.3398892444672014,12.347937674233371,-71.1789479999999,42.364856,1452.0,Arsenal St @ Irving St
8815,70,2.115020393305171,1.32167474718382,14.589229102662571,-71.185281,42.3659850000001,8815.0,Main St @ Merchants Row
8816,70,0.2024573012672811,0.238138912890425,14.566535634280598,-71.187294,42.367357,8816.0,Main St @ Thaxter St
88171,70,0.14778279409882228,0.36374577572964667,14.350434643817202,-71.189316,42.3687120000001,88171.0,Main St opp Green St
8818,70,0.1334754624295955,0.4511582021249361,14.046185963901685,-71.1916449999999,42.3699720000001,8818.0,Main St @ Waverley Ave
8819,70,0.1546884200588838,0.8102173899129547,13.390927611367132,-71.194738,42.3707660000001,8819.0,Main St @ Edenfield Ave
8820,70,0.04916315444188429,0.31709024577572964,13.134851910522277,-71.1963489999999,42.371365,8820.0,Main St @ Olney St
8339,70,0.05793277169738865,0.282873567908346,12.921642497119812,-71.19955,42.3721110000001,8339.0,Main St @ Olcott St
8821,70,0.03475304819508449,0.2636846918202766,12.690255264336914,-71.201758,42.3730850000001,8821.0,Main St @ Copeland St
8822,70,0.034714357718894015,0.1796385048643113,12.549500216013826,-71.202912,42.3733500000001,8822.0,Main St @ Wilmot St
8823,70,0.01253682635688684,0.09592733934971832,12.466932867703527,-71.20622,42.373684,8823.0,Main St @ Emerson Rd
8824,70,0.030437171979006656,0.09011903961853557,12.426166922683052,-71.207399,42.373768,8824.0,Main St @ Longfellow Rd
8825,70,0.1191307843701997,0.7554157706093189,11.816770313300047,-71.210156,42.374606,8825.0,Main St @ Warren St - Waltham Line
8826,70,0.025564308115719424,0.11263833685355858,11.729907098054282,-71.212183,42.375525,8826.0,Main St @ Beal Rd
9521,70,0.0050509792626728086,0.11371829397081416,11.626137864823347,-71.214185,42.3760980000001,9521.0,Main St @ Bowker Rd
8828,70,0.04966191436251922,0.36176540098566307,11.319106734831024,-71.21656,42.376669,8828.0,Main St opp Willow St
8830,70,0.015145841333845361,0.15033882968509985,11.190907794098825,-71.220963,42.377832,8830.0,Main St @ Rose Hill Way
8831,70,0.24427435355862773,0.5328698796722989,10.919565740207377,-71.226552,42.377686,8831.0,Main St @ Chamberlain Terr
8832,70,0.0711680427547363,0.38611119911674346,10.614202260944706,-71.2279369999999,42.3775390000001,8832.0,Main St @ Pleasant St
8833,70,0.051009112583205334,0.5545278897849463,10.140258120519713,-71.22907,42.377371,8833.0,Main St @ Craven Cir
88332,70,0.09204609094982079,0.7389675099206349,9.488391217037897,-71.232884,42.3769110000001,88332.0,Main St @ Liberty St
88333,70,1.1819484309852972,4.070198815009876,8.2586155365372,-71.235373,42.3746420000001,88333.0,Carter St opp Commuter Rail Station
88334,70,0.2973565942506035,0.48257450076804903,8.080255650647354,-71.237816,42.376247,88334.0,691 Main St
18335,70,0.27109282422646475,0.6642560895325873,7.68778867676103,-71.241643,42.3763190000001,18335.0,Main St @ Grant St
88336,70,0.24770441079657665,0.883482993197279,7.059923195084484,-71.243712,42.376313,88336.0,Main St @ Fiske St
88337,70,0.18642944919903442,0.983281325433399,6.2604088215931535,-71.246665,42.376355,88337.0,Main St @ Hammond St
8841,70,0.07257230634189156,0.6528345402677198,5.698014702655256,-71.250081,42.3763680000001,8841.0,Main St @ Palmer St
8842,70,0.06343734913320169,0.3828586789554533,5.374128154487602,-71.252353,42.376354,8842.0,Main St @ Prospect Hill Rd
8843,70,0.01425894228659205,0.1830171165240289,5.2100724160632,-71.255206,42.376379,8843.0,Main St @ Lunda St
8844,70,0.0,0.006249067368883028,5.201782532367786,-71.2575009999999,42.3764170000001,8844.0,Main St @ Malone St
8845,70,0.017177529076146586,0.1777335966644722,5.053124423963133,-71.258889,42.3764330000001,8845.0,Main St @ Edgehill Rd
8846,70,0.02025499231950847,0.19944788237875796,4.872801404432741,-71.261024,42.376487,8846.0,Main St @ Hill Rd
8848,70,0.004834101382488479,0.9219032258064518,3.993037524687295,-71.265609,42.3766640000001,8848.0,Main St @ Stow St
9525,70,0.0,4.853802457757296,0.14982611367127496,-71.261895,42.382322,9525.0,Main Shopping Center @ Marshall's
86943,70,0.17861607142857142,3.424419642857143,3.947321428571429,-71.236982,42.3756250000001,86943.0,Moody St @ Main St
86944,70,0.0009375,3.7523958333333334,0.1913095238095238,-71.234544,42.3746870000001,86944.0,Carter St @ Waltham Comm Rail Sta
8849,70,0.0,0.14583333333333326,1.4000000000000001,-71.263004,42.374562,8849.0,Stow St @ Tavern Rd
8850,70,0.0,0.5083333333333333,0.9291666666666676,-71.263594,42.373043,8850.0,Tavern Rd @ Weston St
9522,70,0.0,0.8375,0.054166666666666675,-71.263706,42.372747,9522.0,Weston St @ Cedarwood Ave
8178,70,0.0,0.7666666666666666,0.03333333333333333,-71.185502,42.365436,8178.0,Watertown Sq Terminal
