stop_id,route_id,average_ons,average_offs,average_load,X,Y,Stop_ID,Stop_Name
875,33,2.9749999999999996,0.0,2.9749999999999996,-71.1146607,42.3006397,875.0,Forest Hills Station
6495,33,0.05,0.025,3.0,-71.116225,42.296229,6495.0,Hyde Park Ave opp Walk Hill St
26495,33,0.0,0.07500000000000001,2.9,-71.1177959999999,42.2930490000001,26495.0,Hyde Park Ave opp Eldridge Rd
36495,33,0.0,0.1,2.8,-71.118265,42.290215,36495.0,Hyde Park Ave @ Dellmore Rd
46495,33,0.05,0.0,2.8499999999999996,-71.118752,42.286822,46495.0,Hyde Park Ave opp Florian Street
56495,33,0.0,0.1,2.75,-71.119007,42.2850280000001,56495.0,Hyde Park Ave opp Mt Hope St
76495,33,0.0,0.0,2.75,-71.11903,42.2830910000001,76495.0,515 Hyde Park Ave
6496,33,0.05,0.5,2.275,-71.119028,42.279888,6496.0,Hyde Park Ave @ Cummins Hwy
6498,33,0.0,0.07500000000000001,2.2,-71.1197,42.2768550000001,6498.0,Hyde Park Ave opp Ramsdell Ave
6500,33,0.1,0.1,2.2,-71.1203,42.272702,6500.0,Hyde Park Ave opp American Legion Hwy
16498,33,0.0,0.025,2.175,-71.120666,42.2704680000001,16498.0,Hyde Park Ave @ Metropolitan Ave
6502,33,0.0,0.425,1.8,-71.121011,42.2681910000001,6502.0,Hyde Park Ave @ Willow Ave
6504,33,0.0,0.05,1.7750000000000001,-71.1211719999999,42.265986,6504.0,Hyde Park Ave @ Greenwood Ave
6505,33,0.0,0.025,1.75,-71.12146,42.264119,6505.0,Hyde Park Ave @ Westminster St
6507,33,0.075,0.125,1.7,-71.1222999999999,42.261535,6507.0,Hyde Park Ave @ West St
6508,33,0.025,0.025,1.725,-71.123477,42.258967,6508.0,Hyde Park Ave opp Webster St
6509,33,0.1,0.25,1.5499999999999998,-71.1240109999999,42.256719,6509.0,Hyde Park Ave @ Winthrop St
185,33,8.273317307692308,0.036298076923076926,8.273317307692308,,,,
6368,33,5.6862980769230775,0.11466346153846155,13.896875,-71.094318,42.267439,6368.0,River St @ Cummings Hwy
16369,33,0.47708333333333336,0.026682692307692314,14.431971153846153,-71.097269,42.266533,16369.0,River St @ Violante St
6369,33,0.4095352564102565,0.23549679487179484,14.591346153846153,-71.099618,42.264916,6369.0,River St @ Caton St
6371,33,0.6628205128205127,1.0854166666666667,14.124198717948723,-71.102855,42.2636350000001,6371.0,River St opp Wachusett St
6372,33,0.3063301282051281,0.4928685897435897,13.95953525641026,-71.105151,42.2635910000001,6372.0,River St @ Tileston St
6373,33,0.7518429487179488,1.3240384615384613,13.397435897435894,-71.107674,42.263048,6373.0,River St @ George St
6374,33,1.5838942307692307,2.1728365384615387,12.830208333333337,-71.111146,42.2616570000001,6374.0,River St @ Reddy Ave
6375,33,0.18613782051282052,0.2963141025641026,12.738862179487185,-71.11341,42.261174,6375.0,River St @ Huntington Ave
6376,33,0.5509615384615385,2.244551282051282,11.120192307692307,-71.115601,42.2604920000001,6376.0,River St @ Metropolitan Ave
6377,33,0.09599358974358974,0.39206730769230774,10.828926282051277,-71.117983,42.2588180000001,6377.0,River St @ West St
76378,33,0.029086538461538452,0.5443108974358973,10.350080128205123,-71.1198199999999,42.257442,76378.0,River St @ Webster St
6378,33,0.6332532051282052,2.1413461538461536,8.894871794871795,-71.121213,42.25606,6378.0,River St @ Central Ave
2783,33,0.86875,1.9559294871794874,7.885657051282051,-71.124343,42.2558260000001,2783.0,River St @ Hyde Park Ave
8940,33,0.0,0.0032692307692307604,6.621089743589744,-71.128097,42.255031,8940.0,River St @ Perkins Ave
8941,33,0.26378205128205134,0.40519230769230774,6.479679487179487,-71.1301549999999,42.2529940000001,8941.0,River St @ Winslow St
89410,33,0.0,0.0,1.525,-71.1310769999999,42.252083,89410.0,River St @ Reservation Rd
89411,33,0.0,0.0,1.525,-71.131525,42.248679,89411.0,River St @ Church St
89412,33,0.0,0.0,1.525,-71.134827,42.2474240000001,89412.0,Opposite 1608 River St
89414,33,0.0,0.0,0.0,-71.136228,42.246564,89414.0,River St @ Turtle Pond Pkwy
8942,33,0.058173076923076925,0.37996794871794876,7.4327724358974345,-71.131005,42.2523600000001,8942.0,Reservation Rd @ River St
8943,33,0.0,0.015,2.921538461538462,-71.1320689999999,42.2536200000001,8943.0,229 Reservation Rd opp Thompson St
8944,33,0.0,0.015,2.906538461538462,-71.133823,42.254309,8944.0,Reservation Rd @ Brainard St
8946,33,0.015,0.34884615384615375,2.567692307692308,-71.1401089999999,42.253854,8946.0,Alwin St @ Stonehill Rd
8947,33,0.0,0.08038461538461537,2.4873076923076924,-71.142082,42.2537510000001,8947.0,Alwin St opp Leighton Rd
8948,33,0.0,0.065,2.417307692307692,-71.143432,42.2546360000001,8948.0,Alwin St @ Dedham Pkwy
8949,33,0.0734615384615384,1.441153846153846,1.3246153846153845,-71.143062,42.255436,8949.0,Dedham Pkwy opp Georgetowne Dr
8952,33,0.015,0.034999999999999996,1.3096153846153844,-71.139,42.253941,8952.0,Turtle Pond Pkwy @ Alwin St
8954,33,0.0,0.0226923076923077,1.2819230769230772,-71.138966,42.2487310000001,8954.0,Turtle Pond Pkwy opp Bajko Rink
8955,33,0.0,0.0125,7.315705128205128,-71.136357,42.246401,8955.0,Turtle Pond Pkwy @ Fairview Ave
89413,33,0.0032967032967032997,0.043406593406593405,5.365750915750915,-71.135972,42.244873,89413.0,Neponset Valley Pkwy @ River St
42820,33,0.0,0.1,12.3,-71.1318909999999,42.243524,42820.0,Neponset Valley Pkwy @ Westinghouse Plaza
8959,33,0.014285714285714287,0.15,5.250457875457876,-71.134699,42.242007,8959.0,Readville St @ Norton St
8960,33,0.33150183150183155,1.7826007326007332,3.8910256410256396,-71.135796,42.2401390000001,8960.0,Readville St @ Como Rd
8961,33,0.06538461538461537,0.40375457875457876,3.5917582417582414,-71.135767,42.238279,8961.0,Readville St @ W Milton St
8962,33,0.027289377289377272,0.012728937728937727,3.60989010989011,-71.138246,42.2390960000001,8962.0,W Milton St @ Pine Ave
8963,33,0.03901098901098902,0.01483516483516483,3.6638278388278387,-71.140687,42.2398910000001,8963.0,W Milton St @ W Milton Pl
8964,33,0.0068681318681318715,0.0293956043956044,3.6253663003663,-71.143447,42.240804,8964.0,W Milton St @ Ernest Ave
18974,33,0.0,0.8630036630036626,2.92554945054945,-71.147075,42.242369,18974.0,River St @ Milton St
8970,33,0.08333333333333333,0.575,6.875,-71.136319,42.245115,8970.0,River St opp Neponset Valley Pkwy
8971,33,0.08333333333333333,0.27499999999999997,6.466666666666666,-71.138248,42.2440540000001,8971.0,1799 River St opp Norton St
8973,33,0.0,0.22499999999999998,6.191666666666666,-71.140102,42.2433,8973.0,River St opp Vallaro Rd
8975,33,0.008333333333333333,0.20833333333333334,6.0,-71.143229,42.2430930000001,8975.0,River St @ Solaris Rd
18975,33,0.0,0.6,5.541666666666667,-71.147704,42.2423610000001,18975.0,River St @ Milton St
