stop_id,route_id,average_ons,average_offs,average_load,X,Y,Stop_ID,Stop_Name
900,52,3.031944444444445,0.0,3.0625,-71.1857029999999,42.3643070000001,900.0,Watertown Yard
902,52,0.09999999999999999,0.02916666666666667,3.1319444444444446,-71.185448,42.3600080000001,902.0,Galen St @ Boyd St
1900,52,0.2680555555555555,0.008333333333333333,3.368055555555555,-71.1850259999999,42.358456,1900.0,Centre St @ Pearl St
903,52,0.9527777777777784,0.06527777777777778,4.251388888888888,-71.185943,42.357134,903.0,Washington St @ Bacon St
8517,52,0.3958333333333333,0.03194444444444445,4.620833333333334,-71.186523,42.354287,8517.0,Centre St @ Church St
8518,52,0.04583333333333334,0.011111111111111115,4.651388888888888,-71.186111,42.351591,8518.0,Centre St @ Newtonville Ave
8519,52,0.008333333333333333,0.00555555555555555,4.655555555555555,-71.18683,42.3498260000001,8519.0,Centre St @ Bellevue St
8520,52,0.08888888888888889,0.020833333333333332,4.722222222222221,-71.1880659999999,42.348329,8520.0,Centre St @ Lombard St
8521,52,0.13472222222222216,0.20138888888888884,4.626388888888888,-71.189408,42.3467920000001,8521.0,Centre St @ Cabot St
8522,52,0.37916666666666665,0.1486111111111111,4.851388888888888,-71.190394,42.3442190000001,8522.0,785 Centre St
8523,52,0.008333333333333333,0.2347222222222222,4.6305555555555555,-71.1922309999999,42.3415340000001,8523.0,Centre St @ Cotton St
8524,52,0.059722222222222156,0.004166666666666667,4.677777777777778,-71.192622,42.3408710000001,8524.0,Centre St @ Mill St
8525,52,0.04583333333333334,0.029166666666666664,4.6944444444444455,-71.193068,42.3382110000001,8525.0,Centre St @ Ward St
8526,52,0.05833333333333333,0.041666666666666664,4.701388888888888,-71.193394,42.335852,8526.0,Centre St @ Commonwealth Ave
8527,52,0.0,0.10138888888888885,4.602777777777779,-71.193531,42.3334180000001,8527.0,Centre St @ Bowen St
8528,52,1.05,0.7902777777777779,4.884722222222222,-71.19488,42.32989,8528.0,Centre St @ Beacon St
8529,52,0.3180555555555555,0.14583333333333334,5.058333333333334,-71.194445,42.3280500000001,8529.0,Cypress St @ Braeland Ave
8530,52,0.13888888888888887,0.025000000000000005,5.166666666666667,-71.193994,42.3271270000001,8530.0,Parker St @ Cypress St
8531,52,0.2583333333333333,0.12638888888888886,5.3069444444444445,-71.1941459999999,42.322501,8531.0,Parker St @ Athelstane Rd
8532,52,0.0,0.0,5.302777777777778,-71.19426,42.3210580000001,8532.0,Parker St @ Stearns St
8533,52,0.04583333333333334,0.06944444444444446,5.266666666666667,-71.194398,42.3193130000001,8533.0,Parker St @ Boylston St
8534,52,0.061111111111111116,0.022222222222222216,5.293055555555555,-71.1947729999999,42.317498,8534.0,Parker St @ Parker Ave
8535,52,0.0,0.08472222222222216,5.213888888888889,-71.195139,42.3160720000001,8535.0,Parker St @ Hagen Rd
8536,52,0.004166666666666667,0.1055555555555555,5.109722222222222,-71.195773,42.314087,8536.0,Parker St @ Parker Rd
8537,52,0.0,0.04305555555555555,5.0569444444444445,-71.1966179999999,42.312077,8537.0,Parker St opp Wheeler Rd
85371,52,0.08888888888888886,0.7666666666666666,4.366666666666666,-71.191156,42.3091820000001,85371.0,Wheeler Rd @ Meadowbrook Rd
8540,52,0.0,0.01527777777777778,4.329166666666667,-71.1938709999999,42.305185,8540.0,Dedham St opp Meadowbrook Rd
8541,52,0.0,0.013888888888888883,4.348611111111111,-71.192013,42.303405,8541.0,Dedham St opp Greenwood St
8542,52,0.0,0.0,4.348611111111111,-71.191288,42.302802,8542.0,Dedham St opp Arnold Rd
18542,52,0.0,0.049999999999999996,4.265277777777778,-71.190013,42.302033,18542.0,Dedham St opp Rosalie Rd
8544,52,0.008333333333333333,0.16805555555555554,4.106944444444445,-71.186789,42.299063,8544.0,Dedham St @ Carlson Ave
8545,52,0.012500000000000002,0.023611111111111114,4.105555555555555,-71.185086,42.298139,8545.0,Dedham St @ Wiswall Rd
8546,52,0.013888888888888883,0.048611111111111126,4.052777777777778,-71.185245,42.2973900000001,8546.0,Wiswall Rd @ Indian Ridge Rd
8547,52,0.0,0.20833333333333334,3.858333333333333,-71.186748,42.2962200000001,8547.0,Wiswall Rd opp McCarthy Rd
8548,52,0.016666666666666666,0.0819444444444445,3.7597222222222215,-71.1890549999999,42.294517,8548.0,Wiswall Rd @ O Roadway
8549,52,0.0,0.10138888888888888,3.6875,-71.1904519999999,42.293124,8549.0,Wiswall Rd @ M Roadway
8550,52,0.0,0.024999999999999998,3.6458333333333335,-71.19229,42.2912710000001,8550.0,Wiswall Rd @ Walsh Rd
8552,52,0.04861111111111116,0.2125,3.4875000000000003,-71.191003,42.289904,8552.0,Sawmill Brook Pkwy @ Walsh Rd
85511,52,0.00555555555555555,0.04305555555555549,3.4652777777777786,-71.188248,42.290209,85511.0,Sawmill Brook Pkwy @ Spiers Rd
8553,52,0.004166666666666667,0.023611111111111114,3.4250000000000003,-71.185716,42.2910800000001,8553.0,Sawmill Brook Pkwy @ Keller Path
8554,52,0.0,0.024999999999999998,3.377777777777778,-71.183769,42.2923210000001,8554.0,Sawmill Brook Pkwy @ McCarthy Rd
85551,52,0.012500000000000002,0.023611111111111114,3.3666666666666667,-71.181257,42.2928680000001,85551.0,Fredette Rd @ Spiers Rd
8556,52,0.004166666666666667,0.020833333333333332,3.368055555555555,-71.178978,42.29468,8556.0,Spiers Rd @ Dedham St
85562,52,0.0,0.020833333333333332,3.345833333333333,-71.171822,42.2884480000001,85562.0,Baker St @ VFW Pkwy
85563,52,0.0,0.06388888888888883,3.276388888888888,-71.171457,42.287566,85563.0,Baker St @ VFW Pkwy
85564,52,0.004166666666666667,0.18333333333333335,3.0972222222222214,-71.170734,42.285899,85564.0,Baker St @ Capital St
85565,52,0.03333333333333333,0.17361111111111116,2.954166666666667,-71.169449,42.283398,85565.0,Baker St opp Varick Rd
85566,52,0.012500000000000002,0.0375,2.9291666666666667,-71.168981,42.28175,85566.0,Baker St @ Amesbury St
85567,52,0.00555555555555555,0.0375,2.9097222222222214,-71.168076,42.2804380000001,85567.0,Baker St @ Cutter Rd
85568,52,0.008333333333333333,0.7222222222222222,2.2097222222222217,-71.1669929999999,42.277518,85568.0,Baker St @ Dunwell St
85569,52,0.022222222222222216,0.40416666666666673,1.8541666666666667,-71.167133,42.2762010000001,85569.0,Baker St @ Wycliff Ave
816,52,0.03333333333333333,0.12222222222222222,1.7361111111111116,-71.168808,42.274612,816.0,Spring St @ Moville St
817,52,0.05416666666666667,0.20833333333333334,1.5666666666666667,-71.1709559999999,42.272991,817.0,Spring St @ VA Hospital
818,52,0.01166666666666666,0.015000000000000003,1.675,-71.1721219999999,42.2720320000001,818.0,Spring Street opp Charles River Loop
10835,52,0.17833333333333334,0.7150000000000001,1.1800000000000002,,,,
10833,52,0.0,1.018333333333334,0.1616666666666666,-71.1679379999999,42.2578930000001,10833.0,Dedham Mall @ Stop & Shop
820,52,0.0,0.95,0.0,-71.1719629999999,42.271777,820.0,Charles River Loop
