stop_id,route_id,average_ons,average_offs,average_load,X,Y,Stop_ID,Stop_Name
334,217,5.1000000000000005,0.0,5.325,-71.0733149,42.2845163,334.0,Ashmont Busway
536,217,0.0,0.0,5.35,-71.065378,42.2820770000001,536.0,Dorchester Ave @ Hurlcroft Ave
537,217,0.1,0.05,5.425,-71.065961,42.280016,537.0,Dorchester Ave @ Gallivan Blvd
569,217,0.35000000000000003,0.15000000000000002,5.625,-71.0665069999999,42.2780910000001,569.0,Dorchester Ave @ Valley Rd
10569,217,0.0,0.0,5.625,-71.0670289999999,42.276285,10569.0,2165 Dorchester Ave
570,217,0.0,0.375,5.25,-71.0672289999999,42.2755940000001,570.0,Dorchester Ave @ St Gregory St
883,217,0.05,0.375,4.9750000000000005,-71.067662,42.273982,883.0,Dorchester Ave @ Richmond St
571,217,0.275,0.125,5.1,-71.068076,42.272302,571.0,Dorchester Ave @ Washington St
3477,217,0.125,0.025,5.2,-71.068002,42.270445,3477.0,Adams St @ Eliot St
3478,217,0.0,0.0,5.225,-71.0674299999999,42.268924,3478.0,Adams St @ Canton Ave
3479,217,0.0,0.0,5.25,-71.0660349999999,42.2659990000001,3479.0,191 Adams St
3480,217,0.0,0.025,5.175,-71.0642119999999,42.2646530000001,3480.0,Adams St @ Churchills Ln
3482,217,0.0,1.175,4.05,,,,
3483,217,0.0,0.0,4.05,-71.056322,42.260786,3483.0,321 Adams St
3485,217,0.025,0.075,4.0,-71.050876,42.2602350000001,3485.0,Adams St @ Centre St
3486,217,0.0,0.0,3.975,-71.04777,42.2601960000001,3486.0,Adams St @ Rowe St
3487,217,0.0,0.0,4.025,-71.0463569999999,42.2600130000001,3487.0,Adams St @ Governors Rd
3488,217,0.0,0.0,3.9749999999999996,-71.044202,42.2591830000001,3488.0,Adams St @ Babcock St
3389,217,0.07500000000000001,0.4,3.625,-71.0426679999999,42.2586880000001,3389.0,Adams St @ Hollis St
13400,217,2.4000000000000004,0.175,5.7,-71.0383849999999,42.250367,13400.0,Bryant Ave @ Upton St
3350,217,2.675,0.25,7.3,-71.035971,42.2521550000001,3350.0,Robertson St @ Quarry St
3351,217,2.375,0.025,9.25,-71.0351699999999,42.2530160000001,3351.0,Robertson St @ Connell St
3352,217,0.025,0.0,9.3,-71.034187,42.2541350000001,3352.0,Robertson St opp Ellis St
3353,217,0.7,0.0,9.95,-71.033785,42.2545860000001,3353.0,Robertson St @ Kimball St
3354,217,0.9500000000000001,0.05,10.85,-71.032637,42.2558740000001,3354.0,Robertson St @ Adams St
3355,217,0.2,0.025,11.049999999999999,-71.033465,42.256313,3355.0,Adams St @ Beale St
3489,217,0.125,0.025,11.15,-71.031551,42.2589320000001,3489.0,Beale St @ Forbes Hill Rd
3490,217,0.0,0.0,11.15,-71.030774,42.2595400000001,3490.0,Beale St @ Summit Ave
3491,217,0.0,0.0,11.15,-71.027955,42.260588,3491.0,Beale St @ Pine St
3493,217,0.15,0.05,11.25,-71.024958,42.261731,3493.0,Beale St @ S Central Ave
3106,217,0.55,0.125,11.7,-71.025796,42.2647830000001,3106.0,Highland Ave @ Elmwood Ave
3107,217,0.125,0.0,11.8,-71.027157,42.266065,3107.0,Highland Ave @ N Central Ave
3108,217,0.09999999999999999,0.0,11.925,-71.028405,42.2672250000001,3108.0,Highland Ave @ Hobart Ave
3109,217,0.07500000000000001,0.0,11.925,-71.029685,42.2684350000001,3109.0,Highland Ave @ Wilson Ave
3110,217,0.0,0.0,11.925,-71.0303069999999,42.268246,3110.0,Wilson Ave @ Belmont St
3111,217,0.0,0.0,11.925,-71.031124,42.2677610000001,3111.0,Wilson Ave opp Mascoma St
3113,217,0.025,0.025,11.950000000000001,-71.03309,42.2666380000001,3113.0,Wilson Ave @ Bowdoin Ave
3114,217,0.85,0.075,12.7,-71.034622,42.265788,3114.0,Wilson Ave @ Harvard St
3115,217,0.125,0.0,12.85,-71.035195,42.2662920000001,3115.0,Harvard St @ Hamilton Ave
3116,217,0.0,0.0,12.875,-71.03587,42.266943,3116.0,Harvard St @ Elliot Ave
3117,217,1.075,0.1,13.825,-71.03649,42.267541,3117.0,Harvard St @ Holbrook Rd.
3118,217,0.3,0.025,14.15,-71.0372879999999,42.2684990000001,3118.0,W Squantum St @ Harvard St
3119,217,0.07500000000000001,0.0,14.225,-71.035811,42.2689820000001,3119.0,W Squantum St @ Bowdoin St
3121,217,0.575,0.0,14.75,-71.0335439999999,42.2701720000001,3121.0,W Squantum St opp Harriet Ave
3122,217,0.2,0.0,14.925,-71.032749,42.2708210000001,3122.0,W Squantun St opp Division St
3123,217,0.025,0.0,14.950000000000001,-71.0320129999999,42.2715910000001,3123.0,W Squantum @ Small St
3124,217,0.07500000000000001,0.025,15.049999999999999,-71.0310919999999,42.2730040000001,3124.0,W Squantum St @ Farrington St
3126,217,0.0,0.3,26.0,-71.027749,42.2759350000001,3126.0,E Squantum St @ Hancock St
3128,217,0.1,0.1,25.9,-71.027252,42.2781370000001,3128.0,E Squantum St @ Newbury Ave
3129,217,0.2,0.9,25.2,-71.0249949999999,42.279996,3129.0,E Squantum St @ Faxon Rd.
93129,217,0.3,20.2,5.4,,,,
93130,217,0.0,0.0,5.3,-71.02546,42.276597,93130.0,Hollis Ave @ Newbury Ave
3125,217,0.95,5.25,7.25,-71.0287519999999,42.275585,3125.0,North Quincy
3218,217,0.0,0.125,4.475,-71.027883,42.274248,3218.0,Holmes St opp Moscow St
3219,217,0.025,0.19999999999999998,4.3,-71.026403,42.272996,3219.0,Holmes St @ Billings Rd
3221,217,0.025,0.07500000000000001,4.25,-71.0235959999999,42.2744230000001,3221.0,Billings Rd @ Lunt St
3222,217,0.025,0.025,4.175,-71.022219,42.275243,3222.0,Billings Rd @ Tyler St
3223,217,0.1,0.05,4.3,-71.021532,42.275654,3223.0,Billings Rd @ Freeman St
3224,217,0.0,0.125,4.2,-71.020136,42.276463,3224.0,Billings Rd @ Royal St
3225,217,0.1,0.07500000000000001,4.225,-71.0183739999999,42.276961,3225.0,Billings Rd @ Calumet St
3226,217,0.15,0.025,4.35,-71.01616,42.276548,3226.0,Billings Rd @ Vassal St
3227,217,0.125,0.0,4.45,-71.014087,42.276081,3227.0,Billings Rd @ Beach St
3228,217,0.1,0.1,4.5,-71.011825,42.2755970000001,3228.0,Billings Rd @ W Elm Ave
3229,217,0.0,0.025,4.475,-71.012177,42.274528,3229.0,W Elm Ave opp Franklin Ave
3230,217,0.125,0.0,4.6,-71.012354,42.2741260000001,3230.0,W Elm Ave @ Mason St
3231,217,0.025,0.0,4.6,-71.013165,42.272005,3231.0,W Elm Ave @ Gould St
3232,217,0.25,0.0,4.825,-71.013404,42.271098,3232.0,Elm Ave @ Staunton St
3234,217,0.05,0.0,4.875,-71.013731,42.269052,3234.0,Elm Ave @ Marlboro St
3235,217,0.8250000000000001,0.0,5.675,-71.0140979999999,42.267835,3235.0,Elm Ave opp Greene St
3236,217,0.025,0.0,5.6499999999999995,-71.014428,42.266736,3236.0,Elm Ave @ Hancock St
3027,217,0.125,0.025,5.8,-71.014316,42.266379,3027.0,Hancock St @ Wentworth Rd
3028,217,0.0,0.0,5.8,-71.0138899999999,42.26565,3028.0,757 Hancock St
3029,217,0.0,0.0,5.775,-71.013047,42.2642080000001,3029.0,Hancock St @ Clay St
3031,217,0.05,0.925,4.9,-71.0112559999999,42.2612290000001,3031.0,Hancock St @ Saint Anns Rd
3032,217,0.07500000000000001,0.075,4.925,-71.009528,42.2592270000001,3032.0,Hancock St @ Carruth St
3033,217,0.0,0.0,4.925,-71.008775,42.2582150000001,3033.0,Hancock St @ Furnace Brook Pkwy
3034,217,0.325,0.025,5.2,-71.0081939999999,42.2574450000001,3034.0,Hancock St opp Butler Rd
3035,217,0.1,0.175,5.15,-71.0071839999999,42.256168,3035.0,Hancock St opp Merrymount Rd
3036,217,0.0,0.0,5.15,-71.0064379999999,42.255179,3036.0,Hancock St opp Greenleaf St
32001,217,0.0,5.05,0.07500000000000001,,,,
