stop_id,route_id,average_ons,average_offs,average_load,X,Y,Stop_ID,Stop_Name
32002,216,7.652046897546901,0.0,7.667499278499282,,,,
3515,216,0.2557142857142858,0.03130952380952383,9.248571428571426,-71.00047,42.2508260000001,3515.0,Washington St @ Foster St
3426,216,1.2176190476190483,1.2104761904761907,9.269761904761907,-70.9969359999999,42.2521550000001,3426.0,McGrath Hwy @ Brackett St
3237,216,0.5099330972058245,0.030842188114915382,7.71084317197954,-71.0022079999999,42.251487,3237.0,Coddington St @ Washington St
3239,216,4.658939393939394,0.2628778860028859,11.481415043290042,-70.9999579999999,42.2530140000001,3239.0,Coddington St @ Quincy YMCA
3425,216,0.48221951659451623,0.30683261183261185,11.701219336219337,-70.996877,42.2553160000001,3425.0,Coddington St @ Southern Artery
3240,216,0.12456033549783554,0.11216653138528139,11.106544237012987,-70.9960829999999,42.25626,3240.0,55 Sea St
3241,216,0.031110660173160175,0.22928097943722936,10.882491206709952,-70.995269,42.259604,3241.0,Sea St opp Overlook Rd
3242,216,0.03481263528138529,0.1674012445887446,10.788586309523811,-70.9929729999999,42.2612290000001,3242.0,Sea St opp Samoset Ave
3243,216,0.016436011904761905,0.144880275974026,10.679056412337662,-70.990156,42.2620370000001,3243.0,227 Sea St
3244,216,0.009069940476190474,0.14668966450216447,10.543872429653673,-70.988374,42.2621560000001,3244.0,Sea St @ Barbour Terr
13245,216,2.0101629389129387,0.28025132275132275,11.114455868205871,-70.9865159999999,42.262079,13245.0,Sea St @ Moffat Rd
3245,216,0.08288840788840791,0.1858676046176046,11.014417989417986,-70.984997,42.26225,3245.0,405 Sea St
3246,216,0.010330687830687834,0.17516534391534389,10.848751803751805,-70.9824869999999,42.261918,3246.0,455 Sea St
3247,216,0.02132996632996635,0.24764670514670512,10.630506253006253,-70.98025,42.261337,3247.0,Sea St @ Braintree Ave
3248,216,0.1,0.0,24.7,,,,
3292,216,0.06716450216450216,0.3150744843391902,9.57884899414311,-70.978651,42.260737,3292.0,Palmer St @ Sea St
3295,216,0.1191233766233766,0.2899369747899159,9.418075502928449,-70.97527,42.258581,3295.0,Palmer St @ Oakwood Rd
3298,216,0.018994143111790165,0.2079411764705882,9.308746498599438,-70.972187,42.258002,3298.0,Palmer St @ Forbush Ave
3299,216,0.06144130379424499,0.2394003055767761,9.163815253374077,-70.970922,42.2572930000001,3299.0,Palmer St opp Brockton Ave
3300,216,0.05921886936592819,0.11936529157117391,9.11668449197861,-70.9698069999999,42.2563910000001,3300.0,Palmer St opp Roach St
3301,216,0.04191367456073341,0.11034059078176728,9.048232111026225,-70.968562,42.255458,3301.0,Palmer St opp Bowes Ave
3303,216,0.9892023172905527,3.3286618283677107,6.934660045836517,-70.9664529999999,42.2535740000001,3303.0,375 Palmer St
3304,216,0.4104023427552837,0.9850598421186656,6.56675388337153,-70.966686,42.2514370000001,3304.0,Palmer St @ Taffrail Rd
3305,216,0.320593328240387,1.059864400305577,5.839725617519735,-70.965313,42.251137,3305.0,26 Taffrail Rd
3306,216,0.2277317290552585,0.4549433409727528,5.63869111280876,-70.964262,42.251585,3306.0,Taffrail Rd @ Bicknell St
3307,216,0.05396167557932262,0.04606951871657755,5.661103259485611,-70.963228,42.2511630000001,3307.0,Bicknell St @ O'Brien Towers Driveway
3308,216,1.2346772345301762,2.3532117392411505,4.998600076394194,-70.9637079999999,42.2504190000001,3308.0,O'Brien Towers
3309,216,0.007455357142857137,0.011528003246753245,5.315501217532468,-70.963094,42.251048,3309.0,O'Brien Towers Driveway @ Bicknell St
3310,216,0.16460227272727274,0.03538825757575757,5.438708062770563,-70.964106,42.251677,3310.0,Bicknell St @ Binnacle Lane
3311,216,0.470875946969697,0.22552489177489182,5.7006567911255415,-70.965367,42.2528170000001,3311.0,Bicknell St @ Yardarm Ln
3312,216,1.0192985660173157,0.149084145021645,6.6009124729437225,-70.9662949999999,42.253545,3312.0,Palmer St @ Shed St
3314,216,0.05908820346320348,0.04790719696969697,6.748988095238095,-70.968285,42.2554700000001,3314.0,Palmer St @ Bowes Ave
3315,216,0.052103625541125555,0.08672619047619046,6.621178300865801,-70.969556,42.2563240000001,3315.0,Palmer St @ Roach St
3316,216,0.1045427489177489,0.06425798160173159,6.663222402597403,-70.9706639999999,42.2572260000001,3316.0,Palmer St @ Brockton Ave
3317,216,0.09993641774891772,0.008236607142857138,6.7418391504329005,-70.9718329999999,42.2579640000001,3317.0,Palmer St @ Empire St
3320,216,0.05067708333333336,0.023616747835497817,6.767371482683983,-70.9750079999999,42.258635,3320.0,Palmer St opp Oakwood Rd
3321,216,0.06272389069264069,0.036806006493506495,6.785561417748918,-70.975882,42.2587730000001,3321.0,Palmer St opp Wilgus Rd
3322,216,0.0034970238095238127,0.15876488095238095,6.632173295454545,-70.978089,42.2598780000001,3322.0,Palmer St opp Utica St
3323,216,0.024204545454545458,0.2971212121212121,6.361898674242425,-70.978562,42.2608270000001,3323.0,Palmer St @ Sea St
3249,216,0.009206773618538323,0.026902852049910872,7.432032085561497,-70.9776869999999,42.260768,3249.0,565 Sea St
3250,216,0.035959383753501405,0.16000763941940413,7.26776483320601,-70.973875,42.262071,3250.0,Sea St @ Lee St
3251,216,0.006925770308123253,0.05501718869365929,7.228104787369493,-70.971917,42.2633460000001,3251.0,Opp 700 Sea St
3252,216,0.00024509803921568237,0.016636745607333848,7.215623249299719,-70.970523,42.26478,3252.0,749 Sea St
3253,216,0.001330532212885153,0.095958110516934,7.1233976317799845,-70.968781,42.266353,3253.0,Sea St @ Babcock St
3254,216,0.007570028011204481,0.17752610134963073,6.949265979118919,-70.9670819999999,42.2662710000001,3254.0,Sea St opp Manet Ave
3255,216,0.05996753246753251,0.3213980137509548,6.710503565062388,-70.96421,42.265991,3255.0,Sea St opp Newton St
3256,216,0.029026610644257697,0.2617462439521263,6.480395976572446,-70.961911,42.265772,3256.0,Sea St opp Malvern St
3257,216,0.08839444868856638,1.055627069009422,5.52461038961039,-70.960342,42.26563,3257.0,Sea St @ Rockland St
3258,216,0.02650560224089635,0.1816138273491214,5.380539215686275,-70.959414,42.2656840000001,3258.0,Sea St @ Darrow St
3259,216,0.10584606569900686,0.8060204991087344,4.687454163483575,-70.957347,42.267567,3259.0,Sea St @ Manet Ave
3260,216,0.08823338426279603,1.0585962566844918,3.705803412274001,-70.954436,42.268418,3260.0,Sea St @ Wall St
3261,216,0.16290488922841856,0.4848249299719888,3.414793735676089,-70.952573,42.268991,3261.0,Sea St @ Bell St
3262,216,0.018487394957983194,0.3335771581359816,3.110981028775146,-70.951803,42.269956,3262.0,Sea St @ Thomas St
3265,216,0.0,1.2292825311942956,1.8810122230710469,-70.950969,42.272024,3265.0,Sea St @ Fensmere Ave
