stop_id,route_id,average_ons,average_offs,average_load,X,Y,Stop_ID,Stop_Name
10642,34E,17.694884373289543,0.0,17.760673918992886,-71.1146607,42.3006397,10642.0,Forest Hills Station
596,34E,0.11626231527093593,0.015237411056376573,17.852113437328956,-71.117515,42.296502,596.0,3867 Washington St opp Tollgate Way
597,34E,0.1454549808429118,0.16090243568691845,17.845376299945265,-71.11976,42.2943770000001,597.0,Washington St @ Lochdale Rd
598,34E,0.3585385878489327,0.36161672140120416,17.8275513136289,-71.121366,42.292857,598.0,Washington St @ Archdale Rd
599,34E,0.057230432402846185,0.0854919266557198,17.799889846743287,-71.122671,42.2916200000001,599.0,Washington St @ Mosgrove Ave
600,34E,0.19800971538040502,0.25342706622879035,17.747134646962227,-71.124116,42.290289,600.0,Washington St opp Granfield Ave
601,34E,0.39058908045977014,0.3555630815544609,17.765371510673237,-71.125793,42.288708,601.0,Washington St @ South St
6022,34E,2.247958401751506,0.9981533935413245,19.011544198139024,-71.1289439999999,42.2857660000001,6022.0,Poplar St @ South St
603,34E,0.189168035030104,0.2953030925013683,18.90104748221128,-71.131363,42.283507,603.0,Washington St @ Albano St
10603,34E,0.12448549534756435,0.10960454296661193,18.893698002189385,-71.132671,42.282287,10603.0,Washington St @ Durnell Ave
604,34E,0.13465790914066778,0.21041050903119868,18.81451902025177,-71.1335139999999,42.2814940000001,604.0,Washington St @ Metropolitan Ave
605,34E,0.2064737274220033,0.4984776956759715,18.539161877394637,-71.1355129999999,42.279637,605.0,Washington St @ Cornell St
606,34E,0.27095443349753695,0.8051382047071703,18.001176792556105,-71.136949,42.278442,606.0,Washington St @ Walworth St
607,34E,0.392006020799124,1.1723330596606458,17.22510125889436,-71.138618,42.276985,607.0,Washington St @ Liszt St
608,34E,0.13008415435139578,0.32238779419813895,17.038217706622877,-71.140573,42.275418,608.0,Washington St @ W Roxbury Pkwy
609,34E,0.04257389162561576,0.20438697318007665,16.87597632731253,-71.143932,42.2728720000001,609.0,Washington St @ Lagrange St
610,34E,0.022008757525998908,0.13954570333880678,16.776440202517794,-71.145305,42.2718,610.0,Washington St @ Cowing St
611,34E,0.06433429118773946,0.2645415982484948,16.58159003831418,-71.1473579999999,42.2701440000001,611.0,Washington St @ Maplewood St
612,34E,0.03696018062397373,0.2168233442802409,16.403805418719212,-71.1490019999999,42.2687690000001,612.0,Washington St @ Heron St
10612,34E,0.19825875752599892,0.3932977558839627,16.209152983032293,-71.149996,42.2679200000001,10612.0,Washington St opp W Boundary Rd
613,34E,0.06493021346469623,0.44288998357963877,15.8358394909688,-71.151819,42.2662980000001,613.0,Washington St @ Weymouth Ave
614,34E,0.04221332785987958,0.6074466338259442,15.283903256704978,-71.154641,42.263789,614.0,Washington St @ Rockingham Ave
615,34E,0.3056301313628899,0.9113444170771757,14.673053503010399,-71.1554619999999,42.263045,615.0,Washington St opp Desoto Rd
616,34E,0.20133004926108372,0.5121722769567597,14.36087506841817,-71.157252,42.2612330000001,616.0,Washington St @ Grove St
618,34E,0.2527387794198139,0.5817665571975917,14.03287219485495,-71.16126,42.258017,618.0,Washington St opp Rockland Towers
10618,34E,0.06623221127531473,0.1544937055281883,13.945594553913514,-71.163235,42.2564110000001,10618.0,Washington St @ Sumner St
24619,34E,0.25828680897646417,0.8522502736726871,13.3524048987411,-71.1664299999999,42.2538920000001,24619.0,Washington St @ Incinerator Rd
99832,34E,0.15763273125342087,0.2850711548987411,13.21795908593322,-71.168849,42.251984,99832.0,245 Washington St
12618,34E,0.13998289545703343,0.5954686644772852,12.765249726327314,-71.172161,42.2492330000001,12618.0,Washington St opp Harris St
13618,34E,0.22189039408866992,0.485081417624521,12.506653667214014,-71.1739239999999,42.24757,13618.0,Washington St @ School St
14618,34E,0.09794471811713193,0.04357416529830322,12.56185755336618,-71.175302,42.2454690000001,14618.0,Opp 450 Washington St
15618,34E,0.0002976190476190428,0.002627257799671586,12.560658866995071,-71.176684,42.2438890000001,15618.0,525 Washington St opp Marion St
16618,34E,0.004202928297755879,0.013182813355227143,12.547123700054742,-71.177137,42.2433580000001,16618.0,Washington St @ Richards St
22628,34E,0.14129036672140113,0.8534612753147232,11.826691981390256,-71.178422,42.2418880000001,22628.0,Washington St opp Dedham Plaza
18618,34E,0.02080459770114942,0.18630131362889985,11.678647372742203,-71.1809969999999,42.23886,18618.0,Washington St @ Sylvia Ln
19618,34E,0.28458880678708265,2.075686234263821,9.886903393541326,-71.183304,42.234627,19618.0,Washington St @ Harmony Hill Way
20618,34E,0.09292898193760264,0.2233039135194308,9.766839080459773,-71.1849589999999,42.2315090000001,20618.0,Washington St opp Holiday Inn
21618,34E,0.010019841269841264,0.11807676518883416,9.656310207991243,-71.1858359999999,42.2296180000001,21618.0,Washington St @ Chickering Rd
20619,34E,0.0002976190476190428,0.019343185550082107,9.636332101806238,-71.186133,42.228642,20619.0,Washington St @ Gay St
30619,34E,0.0,0.051527093596059115,9.58212643678161,-71.186615,42.2266260000001,30619.0,Washington St @ Croft Regis Rd
40619,34E,0.0,0.005059523809523807,9.57805897646415,-71.186975,42.224851,40619.0,Washington St @ Hooper St
20620,34E,0.0005952380952380929,0.01267857142857143,9.55383278598796,-71.1875259999999,42.222293,20620.0,Washington St opp Waldo Way
30620,34E,0.005357142857142857,0.0072188013136289,9.545225095785439,-71.187765,42.2211540000001,30620.0,Washington St @ Dean St
90620,34E,0.1457348111658456,0.327318691844554,9.36585522714833,-71.188252,42.2188780000001,90620.0,Washington St @ School St
90621,34E,0.060480295566502466,0.8112582101806239,8.625264094143402,-71.190031,42.2144020000001,90621.0,Washington St @ Marshall St
31619,34E,0.17593527640941437,0.12971401204159827,8.671330049261083,-71.1905839999999,42.213736,31619.0,Opp 20 Washington St - Norwood Line
32619,34E,0.0139675697865353,0.09457580733442804,8.603749315818279,-71.1913529999999,42.2104590000001,32619.0,83 Washington St opp Ellis Ave
33619,34E,0.016325944170771756,0.09323549534756434,8.523188970990692,-71.193323,42.2078080000001,33619.0,169 Washington St opp Neponset St
34619,34E,0.059200875752599864,0.07559865900383142,8.510949644225509,-71.195418,42.205067,34619.0,Washington St opp Hill St
22618,34E,0.03520457033388065,0.18574917898193766,8.380345511767924,-71.196657,42.2035940000001,22618.0,Washington St @ Fulton St
23618,34E,0.0048029556650246285,0.06369594964422551,8.320905172413791,-71.197276,42.201598,23618.0,361 Washington St @ Aldaen Pk
24628,34E,0.024786535303776686,0.13415093048713736,8.21834633278599,-71.1982849999999,42.1988670000001,24628.0,Washington St @ George St
25618,34E,0.07403188286808977,0.7694909688013137,7.530177203065132,-71.1996149999999,42.1962390000001,25618.0,Washington St @ Railroad Ave
26618,34E,0.543234126984127,1.0973727422003285,6.968404488232072,-71.20104,42.193899,26618.0,Washington St @ Cottage St
27618,34E,0.21647577996715928,0.43705322933771207,6.745628078817737,-71.202528,42.191284,27618.0,Washington St @ Guild St
28618,34E,0.03316091954022988,0.062050492610837435,6.7170593869731805,-71.2026989999999,42.189527,28618.0,785 Washington St @ Norwood Hospital
29618,34E,0.10282703886152163,0.29552408319649703,6.540787493158185,-71.2030329999999,42.1868220000001,29618.0,Washington St @ Douglas Ave
30618,34E,0.05724958949096881,0.4170491242474001,6.185901751505199,-71.2033309999999,42.184559,30618.0,Washington St @ Walnut St
31618,34E,0.02076354679802955,0.43240079365079387,5.7754050355774496,-71.203361,42.1835560000001,31618.0,Washington St opp Lenox St
31628,34E,0.019197454844006565,0.7565229885057472,5.049665435139573,-71.204508,42.180702,31628.0,Washington St opp Dean St
32628,34E,0.05749110563765738,0.5004166666666666,4.608097290640394,-71.205344,42.179418,32628.0,Washington St @ Oolah Ave
32638,34E,0.05224069512862616,0.2528509852216749,4.423472222222222,-71.2060099999999,42.1781080000001,32638.0,Washington St @ Weld Ave
33618,34E,0.02502463054187192,0.3227976190476193,4.135378352490421,-71.206624,42.176908,33618.0,Washington St @ Austin St
34618,34E,0.02229474548440066,0.2363984674329502,3.91671113847838,-71.207265,42.1756280000001,34618.0,Washington St @ Concord Ave
35618,34E,0.07758894362342637,0.5892508210180624,3.4178913519430765,-71.2078339999999,42.1745790000001,35618.0,Washington St @ Alandale Pkwy
36618,34E,0.004254241926655715,0.30055213464696223,3.1214463601532563,-71.2094969999999,42.17152,36618.0,1297 Washington St opp Morse St
37618,34E,0.023134920634920637,0.09141351943076081,3.0546756978653535,-71.2113879999999,42.168575,37618.0,Washington St @ Rockhill St
40618,34E,0.00595238095238095,0.06152025177887247,3.001131636562671,-71.2138439999999,42.164816,40618.0,67 Washington St
41618,34E,0.0002976190476190428,0.03231937602627258,2.9724350027367263,-71.215454,42.162628,41618.0,Washington St @ Mansion Dr
61842,34E,0.002678571428571429,0.38521004378762996,2.6100868910782706,-71.215948,42.161968,61842.0,Washington St @ Riverwalk Ln
73618,34E,0.011190476190476193,0.19661603721948553,2.4140544608648047,-71.216467,42.161327,73618.0,Washington St @ East St
73619,34E,0.007857142857142858,0.4323036398467435,1.9876600985221669,-71.21835,42.159136,73619.0,205 Washington St @ East Walpole Loop
75618,34E,0.0086111111111111,0.0087962962962963,3.0317901234567888,-71.219774,42.1574380000001,75618.0,Washington St @ Washington Green
76618,34E,0.044722222222222226,0.15472222222222212,2.9335185185185177,-71.221976,42.154957,76618.0,Washington St @ Short St
77618,34E,0.0009259259259259223,0.033641975308641964,2.8931790123456778,,,,
79618,34E,0.018055555555555557,0.29055555555555557,2.6294444444444443,-71.230117,42.1458060000001,79618.0,625 Washington St
81618,34E,0.001388888888888889,0.07361111111111111,2.5556790123456787,-71.2397569999999,42.147387,81618.0,East St @ Kendall St
82618,34E,0.0,0.034567901234567905,2.5191975308641967,-71.2428409999999,42.147276,82618.0,East St @ Pennington Dr
83618,34E,0.0,0.12885802469135801,2.3851851851851844,-71.246425,42.1471990000001,83618.0,East St @ Hartshorn Ave
84618,34E,0.0,0.129537037037037,2.26858024691358,-71.248723,42.147135,84618.0,East St @ School St
85618,34E,0.0033950617283950556,0.4894135802469136,1.786018518518519,-71.251994,42.147068,85618.0,935 East St
86618,34E,0.0,1.7354938271604934,0.03827160493827161,-71.252416,42.146709,86618.0,Main St @ Glenwood Ave
