route_id,stop_id,average_ons,average_offs,average_load,time_period_id,X,Y,Stop_ID,Stop_Name
22,407,22.1,0.0,22.1,time_period_05,-71.0830319999999,42.316227,407.0,Warren St @ Townsend St
22,410,0.0,0.0,22.2,time_period_05,-71.083653,42.3132620000001,410.0,Warren St @ Waumbeck St
22,411,0.0,0.1,22.1,time_period_05,-71.082984,42.3117050000001,411.0,Warren St @ Brunswick St
22,412,0.2,0.2,22.1,time_period_05,-71.0832619999999,42.3104210000001,412.0,Warren St @ Crawford St
22,413,0.1,0.0,22.2,time_period_05,-71.08442,42.3068880000001,413.0,Blue Hill Ave @ Wayne St
22,414,0.0,0.0,22.2,time_period_05,-71.084754,42.3056490000001,414.0,Blue Hill Ave @ Seaver St
22,11780,5.0,0.0,5.0,time_period_05,-71.102233,42.338443,11780.0,Ave Louis Pasteur @ Longwood Ave
22,11781,14.3,1.6,18.6,time_period_05,-71.100839,42.3402330000001,11781.0,Ave Louis Pasteur @ The Fenway
22,1784,0.1,0.2,19.1,time_period_05,-71.0950789999999,42.3374160000001,1784.0,Ruggles St @ Huntington Ave
22,1785,0.4,0.3,18.9,time_period_05,-71.093223,42.336729,1785.0,Ruggles St @ Annunciation Rd
22,11148,1.2,0.0,1.2,time_period_05,-71.090062,42.3311390000001,11148.0,Malcolm X Blvd @ Madison Park HS
22,21148,0.9,0.0,2.1,time_period_05,-71.093318,42.331345,21148.0,Malcolm X Blvd @ Tremont St
22,17862,1.15,0.0,1.2,time_period_01,-71.0918606,42.3366446,17862.0,Ruggles Lower Busway
22,17862,2.77142857142857,0.0,2.81428571428571,time_period_02,-71.0918606,42.3366446,17862.0,Ruggles Lower Busway
22,17862,4.40833333333333,0.0,4.40833333333333,time_period_03,-71.0918606,42.3366446,17862.0,Ruggles Lower Busway
22,17862,4.2952380952381,0.0,4.35238095238095,time_period_04,-71.0918606,42.3366446,17862.0,Ruggles Lower Busway
22,17862,9.65625,0.0,9.70625,time_period_05,-71.0918606,42.3366446,17862.0,Ruggles Lower Busway
22,17862,12.175,0.0,12.19375,time_period_06,-71.0918606,42.3366446,17862.0,Ruggles Lower Busway
22,17862,8.24,0.0,8.27333333333333,time_period_07,-71.0918606,42.3366446,17862.0,Ruggles Lower Busway
22,17862,8.3,0.0,8.31666666666667,time_period_08,-71.0918606,42.3366446,17862.0,Ruggles Lower Busway
22,17862,3.2,0.0,3.2,time_period_09,-71.0918606,42.3366446,17862.0,Ruggles Lower Busway
22,17862,4.96091954022989,0.0,4.99540229885057,time_period_10,-71.0918606,42.3366446,17862.0,Ruggles Lower Busway
22,17862,5.75737704918033,0.0,5.77213114754098,time_period_11,-71.0918606,42.3366446,17862.0,Ruggles Lower Busway
22,1257,0.05,0.0,1.25,time_period_01,-71.0923779999999,42.3330710000001,1257.0,Tremont St @ Prentiss St
22,1257,0.371428571428571,0.0142857142857143,3.15714285714286,time_period_02,-71.0923779999999,42.3330710000001,1257.0,Tremont St @ Prentiss St
22,1257,0.541666666666667,0.225,4.74166666666667,time_period_03,-71.0923779999999,42.3330710000001,1257.0,Tremont St @ Prentiss St
22,1257,0.695238095238095,0.123809523809524,4.98571428571429,time_period_04,-71.0923779999999,42.3330710000001,1257.0,Tremont St @ Prentiss St
22,1257,0.60625,0.09375,10.24375,time_period_05,-71.0923779999999,42.3330710000001,1257.0,Tremont St @ Prentiss St
22,1257,0.3,0.1,19.4,time_period_05,-71.0923779999999,42.3330710000001,1257.0,Tremont St @ Prentiss St
22,1257,0.6875,0.05625,12.84375,time_period_06,-71.0923779999999,42.3330710000001,1257.0,Tremont St @ Prentiss St
22,1257,0.42,0.02,8.7,time_period_07,-71.0923779999999,42.3330710000001,1257.0,Tremont St @ Prentiss St
22,1257,0.2,0.0166666666666667,8.45,time_period_08,-71.0923779999999,42.3330710000001,1257.0,Tremont St @ Prentiss St
22,1257,0.1,0.0,3.3,time_period_09,-71.0923779999999,42.3330710000001,1257.0,Tremont St @ Prentiss St
22,1257,0.171264367816092,0.0172413793103448,5.15862068965517,time_period_10,-71.0923779999999,42.3330710000001,1257.0,Tremont St @ Prentiss St
22,1257,0.167213114754098,0.0245901639344262,5.91803278688525,time_period_11,-71.0923779999999,42.3330710000001,1257.0,Tremont St @ Prentiss St
22,1258,0.375,0.05,1.6,time_period_01,-71.0948309999999,42.331311,1258.0,Tremont St @ Roxbury Crossing Station
22,1258,1.01428571428571,0.128571428571429,4.07142857142857,time_period_02,-71.0948309999999,42.331311,1258.0,Tremont St @ Roxbury Crossing Station
22,1258,2.04166666666667,0.283333333333333,6.48333333333333,time_period_03,-71.0948309999999,42.331311,1258.0,Tremont St @ Roxbury Crossing Station
22,1258,3.08571428571429,0.233333333333333,7.83333333333333,time_period_04,-71.0948309999999,42.331311,1258.0,Tremont St @ Roxbury Crossing Station
22,1258,7.5875,0.33125,17.51875,time_period_05,-71.0948309999999,42.331311,1258.0,Tremont St @ Roxbury Crossing Station
22,1258,6.7,0.5,25.7,time_period_05,-71.0948309999999,42.331311,1258.0,Tremont St @ Roxbury Crossing Station
22,1258,7.3,0.3,8.4,time_period_05,-71.0948309999999,42.331311,1258.0,Tremont St @ Roxbury Crossing Station
22,1258,6.325,0.375,18.8625,time_period_06,-71.0948309999999,42.331311,1258.0,Tremont St @ Roxbury Crossing Station
22,1258,2.96,0.146666666666667,11.5066666666667,time_period_07,-71.0948309999999,42.331311,1258.0,Tremont St @ Roxbury Crossing Station
22,1258,2.45,0.0666666666666667,10.8333333333333,time_period_08,-71.0948309999999,42.331311,1258.0,Tremont St @ Roxbury Crossing Station
22,1258,0.633333333333333,0.0333333333333333,3.9,time_period_09,-71.0948309999999,42.331311,1258.0,Tremont St @ Roxbury Crossing Station
22,1258,2.04137931034483,0.126436781609195,7.09770114942529,time_period_10,-71.0948309999999,42.331311,1258.0,Tremont St @ Roxbury Crossing Station
22,1258,2.37377049180328,0.10983606557377,8.17213114754098,time_period_11,-71.0948309999999,42.331311,1258.0,Tremont St @ Roxbury Crossing Station
22,1260,0.025,0.0,1.625,time_period_01,-71.0973099999999,42.328067,1260.0,Columbus Ave @ New Cedar St
22,1260,0.0285714285714286,0.0142857142857143,4.1,time_period_02,-71.0973099999999,42.328067,1260.0,Columbus Ave @ New Cedar St
22,1260,0.05,0.0666666666666667,6.53333333333333,time_period_03,-71.0973099999999,42.328067,1260.0,Columbus Ave @ New Cedar St
22,1260,0.2,0.0857142857142857,7.92380952380952,time_period_04,-71.0973099999999,42.328067,1260.0,Columbus Ave @ New Cedar St
22,1260,0.225,0.15,17.6375,time_period_05,-71.0973099999999,42.328067,1260.0,Columbus Ave @ New Cedar St
22,1260,0.0,0.1,25.7,time_period_05,-71.0973099999999,42.328067,1260.0,Columbus Ave @ New Cedar St
22,1260,0.1,0.0,8.4,time_period_05,-71.0973099999999,42.328067,1260.0,Columbus Ave @ New Cedar St
22,1260,0.1375,0.21875,18.80625,time_period_06,-71.0973099999999,42.328067,1260.0,Columbus Ave @ New Cedar St
22,1260,0.14,0.24,11.42,time_period_07,-71.0973099999999,42.328067,1260.0,Columbus Ave @ New Cedar St
22,1260,0.05,0.2,10.6666666666667,time_period_08,-71.0973099999999,42.328067,1260.0,Columbus Ave @ New Cedar St
22,1260,0.0333333333333333,0.0666666666666667,3.9,time_period_09,-71.0973099999999,42.328067,1260.0,Columbus Ave @ New Cedar St
22,1260,0.0758620689655172,0.064367816091954,7.10459770114943,time_period_10,-71.0973099999999,42.328067,1260.0,Columbus Ave @ New Cedar St
22,1260,0.0704918032786885,0.0754098360655738,8.1655737704918,time_period_11,-71.0973099999999,42.328067,1260.0,Columbus Ave @ New Cedar St
22,1262,0.0,0.0,1.65,time_period_01,-71.098483,42.325028,1262.0,Columbus Ave @ Heath St
22,1262,0.0142857142857143,0.0,4.05714285714286,time_period_02,-71.098483,42.325028,1262.0,Columbus Ave @ Heath St
22,1262,0.0666666666666667,0.0833333333333333,6.50833333333333,time_period_03,-71.098483,42.325028,1262.0,Columbus Ave @ Heath St
22,1262,0.0523809523809524,0.128571428571429,7.85714285714286,time_period_04,-71.098483,42.325028,1262.0,Columbus Ave @ Heath St
22,1262,0.58125,0.36875,17.85625,time_period_05,-71.098483,42.325028,1262.0,Columbus Ave @ Heath St
22,1262,0.1,0.3,25.5,time_period_05,-71.098483,42.325028,1262.0,Columbus Ave @ Heath St
22,1262,0.0,0.1,8.3,time_period_05,-71.098483,42.325028,1262.0,Columbus Ave @ Heath St
22,1262,0.30625,0.575,18.55,time_period_06,-71.098483,42.325028,1262.0,Columbus Ave @ Heath St
22,1262,0.0466666666666667,0.38,11.1266666666667,time_period_07,-71.098483,42.325028,1262.0,Columbus Ave @ Heath St
22,1262,0.0,0.366666666666667,10.3666666666667,time_period_08,-71.098483,42.325028,1262.0,Columbus Ave @ Heath St
22,1262,0.0,0.166666666666667,3.73333333333333,time_period_09,-71.098483,42.325028,1262.0,Columbus Ave @ Heath St
22,1262,0.0310344827586207,0.103448275862069,7.02413793103448,time_period_10,-71.098483,42.325028,1262.0,Columbus Ave @ Heath St
22,1262,0.0459016393442623,0.167213114754098,8.05901639344262,time_period_11,-71.098483,42.325028,1262.0,Columbus Ave @ Heath St
22,11531,2.0,0.375,3.275,time_period_01,-71.1016747,42.3234514,11531.0,Jackson Square Busway
22,11531,3.05714285714286,0.285714285714286,6.92857142857143,time_period_02,-71.1016747,42.3234514,11531.0,Jackson Square Busway
22,11531,4.73333333333333,0.741666666666667,10.5083333333333,time_period_03,-71.1016747,42.3234514,11531.0,Jackson Square Busway
22,11531,6.23809523809524,1.06190476190476,13.0428571428571,time_period_04,-71.1016747,42.3234514,11531.0,Jackson Square Busway
22,11531,7.98125,1.35625,24.46875,time_period_05,-71.1016747,42.3234514,11531.0,Jackson Square Busway
22,11531,7.1,1.6,31.0,time_period_05,-71.1016747,42.3234514,11531.0,Jackson Square Busway
22,11531,6.2,0.9,13.7,time_period_05,-71.1016747,42.3234514,11531.0,Jackson Square Busway
22,11531,8.8375,1.49375,25.90625,time_period_06,-71.1016747,42.3234514,11531.0,Jackson Square Busway
22,11531,7.12666666666667,0.893333333333333,17.38,time_period_07,-71.1016747,42.3234514,11531.0,Jackson Square Busway
22,11531,5.86666666666667,0.6,15.6666666666667,time_period_08,-71.1016747,42.3234514,11531.0,Jackson Square Busway
22,11531,2.2,0.166666666666667,5.8,time_period_09,-71.1016747,42.3234514,11531.0,Jackson Square Busway
22,11531,5.91379310344828,0.714942528735632,12.2494252873563,time_period_10,-71.1016747,42.3234514,11531.0,Jackson Square Busway
22,11531,6.21311475409836,0.704918032786885,13.5770491803279,time_period_11,-71.1016747,42.3234514,11531.0,Jackson Square Busway
22,1265,0.4,0.1,3.6,time_period_01,-71.09854,42.319662,1265.0,Columbus Ave @ Dimock St
22,1265,1.32857142857143,0.4,7.81428571428571,time_period_02,-71.09854,42.319662,1265.0,Columbus Ave @ Dimock St
22,1265,1.05833333333333,1.49166666666667,10.0833333333333,time_period_03,-71.09854,42.319662,1265.0,Columbus Ave @ Dimock St
22,1265,1.44285714285714,1.15714285714286,13.3428571428571,time_period_04,-71.09854,42.319662,1265.0,Columbus Ave @ Dimock St
22,1265,1.5125,1.2875,24.69375,time_period_05,-71.09854,42.319662,1265.0,Columbus Ave @ Dimock St
22,1265,1.0,0.9,31.1,time_period_05,-71.09854,42.319662,1265.0,Columbus Ave @ Dimock St
22,1265,1.3,0.8,14.1,time_period_05,-71.09854,42.319662,1265.0,Columbus Ave @ Dimock St
22,1265,1.30625,1.00625,26.2,time_period_06,-71.09854,42.319662,1265.0,Columbus Ave @ Dimock St
22,1265,0.613333333333333,0.446666666666667,17.56,time_period_07,-71.09854,42.319662,1265.0,Columbus Ave @ Dimock St
22,1265,0.15,0.266666666666667,15.5333333333333,time_period_08,-71.09854,42.319662,1265.0,Columbus Ave @ Dimock St
22,1265,0.2,0.166666666666667,5.83333333333333,time_period_09,-71.09854,42.319662,1265.0,Columbus Ave @ Dimock St
22,1265,0.657471264367816,0.352873563218391,12.5574712643678,time_period_10,-71.09854,42.319662,1265.0,Columbus Ave @ Dimock St
22,1265,0.678688524590164,0.339344262295082,13.9196721311475,time_period_11,-71.09854,42.319662,1265.0,Columbus Ave @ Dimock St
22,1266,0.425,0.05,4.025,time_period_01,-71.0984339999999,42.3170660000001,1266.0,Columbus Ave opp Bray St
22,1266,1.11428571428571,0.185714285714286,8.72857142857143,time_period_02,-71.0984339999999,42.3170660000001,1266.0,Columbus Ave opp Bray St
22,1266,1.04166666666667,0.5,10.5666666666667,time_period_03,-71.0984339999999,42.3170660000001,1266.0,Columbus Ave opp Bray St
22,1266,0.90952380952381,0.919047619047619,13.2714285714286,time_period_04,-71.0984339999999,42.3170660000001,1266.0,Columbus Ave opp Bray St
22,1266,0.69375,1.18125,24.2375,time_period_05,-71.0984339999999,42.3170660000001,1266.0,Columbus Ave opp Bray St
22,1266,0.4,0.9,30.6,time_period_05,-71.0984339999999,42.3170660000001,1266.0,Columbus Ave opp Bray St
22,1266,0.8,0.5,14.4,time_period_05,-71.0984339999999,42.3170660000001,1266.0,Columbus Ave opp Bray St
22,1266,0.58125,1.375,25.39375,time_period_06,-71.0984339999999,42.3170660000001,1266.0,Columbus Ave opp Bray St
22,1266,0.686666666666667,1.08,17.1933333333333,time_period_07,-71.0984339999999,42.3170660000001,1266.0,Columbus Ave opp Bray St
22,1266,0.266666666666667,0.916666666666667,14.8166666666667,time_period_08,-71.0984339999999,42.3170660000001,1266.0,Columbus Ave opp Bray St
22,1266,0.1,0.233333333333333,5.7,time_period_09,-71.0984339999999,42.3170660000001,1266.0,Columbus Ave opp Bray St
22,1266,0.696551724137931,0.725287356321839,12.5252873563218,time_period_10,-71.0984339999999,42.3170660000001,1266.0,Columbus Ave opp Bray St
22,1266,0.675409836065574,0.816393442622951,13.7737704918033,time_period_11,-71.0984339999999,42.3170660000001,1266.0,Columbus Ave opp Bray St
22,10413,0.275,0.025,4.2,time_period_01,-71.097752,42.315067,10413.0,Columbus Ave @ Weld Ave
22,10413,1.02857142857143,0.328571428571429,9.41428571428572,time_period_02,-71.097752,42.315067,10413.0,Columbus Ave @ Weld Ave
22,10413,1.11666666666667,0.85,10.8666666666667,time_period_03,-71.097752,42.315067,10413.0,Columbus Ave @ Weld Ave
22,10413,2.22857142857143,1.38571428571429,14.1333333333333,time_period_04,-71.097752,42.315067,10413.0,Columbus Ave @ Weld Ave
22,10413,2.21875,1.5875,24.88125,time_period_05,-71.097752,42.315067,10413.0,Columbus Ave @ Weld Ave
22,10413,1.8,1.4,14.9,time_period_05,-71.097752,42.315067,10413.0,Columbus Ave @ Weld Ave
22,10413,2.2,1.1,31.8,time_period_05,-71.097752,42.315067,10413.0,Columbus Ave @ Weld Ave
22,10413,1.88125,1.79375,25.4625,time_period_06,-71.097752,42.315067,10413.0,Columbus Ave @ Weld Ave
22,10413,1.68,1.18,17.6666666666667,time_period_07,-71.097752,42.315067,10413.0,Columbus Ave @ Weld Ave
22,10413,0.666666666666667,0.816666666666667,14.6833333333333,time_period_08,-71.097752,42.315067,10413.0,Columbus Ave @ Weld Ave
22,10413,0.166666666666667,0.433333333333333,5.43333333333333,time_period_09,-71.097752,42.315067,10413.0,Columbus Ave @ Weld Ave
22,10413,1.7264367816092,1.08850574712644,13.1666666666667,time_period_10,-71.097752,42.315067,10413.0,Columbus Ave @ Weld Ave
22,10413,1.75901639344262,1.17868852459016,14.3622950819672,time_period_11,-71.097752,42.315067,10413.0,Columbus Ave @ Weld Ave
22,11413,1.075,0.2,5.15,time_period_01,-71.0953259999999,42.3132830000001,11413.0,Columbus Ave @ Walnut Ave
22,11413,1.82857142857143,0.242857142857143,10.9857142857143,time_period_02,-71.0953259999999,42.3132830000001,11413.0,Columbus Ave @ Walnut Ave
22,11413,1.71666666666667,0.816666666666667,11.75,time_period_03,-71.0953259999999,42.3132830000001,11413.0,Columbus Ave @ Walnut Ave
22,11413,1.28571428571429,1.65238095238095,13.7714285714286,time_period_04,-71.0953259999999,42.3132830000001,11413.0,Columbus Ave @ Walnut Ave
22,11413,1.225,2.525,23.61875,time_period_05,-71.0953259999999,42.3132830000001,11413.0,Columbus Ave @ Walnut Ave
22,11413,1.3,1.4,14.8,time_period_05,-71.0953259999999,42.3132830000001,11413.0,Columbus Ave @ Walnut Ave
22,11413,0.6,1.9,30.5,time_period_05,-71.0953259999999,42.3132830000001,11413.0,Columbus Ave @ Walnut Ave
22,11413,1.1625,2.86875,23.76875,time_period_06,-71.0953259999999,42.3132830000001,11413.0,Columbus Ave @ Walnut Ave
22,11413,0.546666666666667,2.69333333333333,15.54,time_period_07,-71.0953259999999,42.3132830000001,11413.0,Columbus Ave @ Walnut Ave
22,11413,0.316666666666667,1.65,13.3333333333333,time_period_08,-71.0953259999999,42.3132830000001,11413.0,Columbus Ave @ Walnut Ave
22,11413,0.166666666666667,0.9,4.7,time_period_09,-71.0953259999999,42.3132830000001,11413.0,Columbus Ave @ Walnut Ave
22,11413,1.0,1.61149425287356,12.5701149425287,time_period_10,-71.0953259999999,42.3132830000001,11413.0,Columbus Ave @ Walnut Ave
22,11413,1.12950819672131,2.12950819672131,13.372131147541,time_period_11,-71.0953259999999,42.3132830000001,11413.0,Columbus Ave @ Walnut Ave
22,17411,0.85,0.3,5.725,time_period_01,-71.092111,42.3096820000001,17411.0,Seaver St opp Humboldt Ave
22,17411,1.12857142857143,0.371428571428571,11.8,time_period_02,-71.092111,42.3096820000001,17411.0,Seaver St opp Humboldt Ave
22,17411,0.716666666666667,0.416666666666667,12.0416666666667,time_period_03,-71.092111,42.3096820000001,17411.0,Seaver St opp Humboldt Ave
22,17411,0.704761904761905,0.79047619047619,13.7,time_period_04,-71.092111,42.3096820000001,17411.0,Seaver St opp Humboldt Ave
22,17411,0.51875,1.175,22.95625,time_period_05,-71.092111,42.3096820000001,17411.0,Seaver St opp Humboldt Ave
22,17411,0.6,1.1,14.4,time_period_05,-71.092111,42.3096820000001,17411.0,Seaver St opp Humboldt Ave
22,17411,0.5,0.7,30.3,time_period_05,-71.092111,42.3096820000001,17411.0,Seaver St opp Humboldt Ave
22,17411,0.6375,1.08125,23.31875,time_period_06,-71.092111,42.3096820000001,17411.0,Seaver St opp Humboldt Ave
22,17411,0.366666666666667,1.06666666666667,14.8533333333333,time_period_07,-71.092111,42.3096820000001,17411.0,Seaver St opp Humboldt Ave
22,17411,0.0833333333333333,0.833333333333333,12.6,time_period_08,-71.092111,42.3096820000001,17411.0,Seaver St opp Humboldt Ave
22,17411,0.0333333333333333,0.366666666666667,4.36666666666667,time_period_09,-71.092111,42.3096820000001,17411.0,Seaver St opp Humboldt Ave
22,17411,0.566666666666667,0.828735632183908,12.2885057471264,time_period_10,-71.092111,42.3096820000001,17411.0,Seaver St opp Humboldt Ave
22,17411,0.483606557377049,1.11311475409836,12.7508196721311,time_period_11,-71.092111,42.3096820000001,17411.0,Seaver St opp Humboldt Ave
22,17401,0.275,0.05,5.925,time_period_01,-71.089263,42.3075150000001,17401.0,Seaver St opp Elm Hill Ave
22,17401,1.0,0.171428571428571,12.6857142857143,time_period_02,-71.089263,42.3075150000001,17401.0,Seaver St opp Elm Hill Ave
22,17401,0.616666666666667,0.5,12.1666666666667,time_period_03,-71.089263,42.3075150000001,17401.0,Seaver St opp Elm Hill Ave
22,17401,0.428571428571429,0.885714285714286,13.2285714285714,time_period_04,-71.089263,42.3075150000001,17401.0,Seaver St opp Elm Hill Ave
22,17401,0.39375,1.28125,22.05625,time_period_05,-71.089263,42.3075150000001,17401.0,Seaver St opp Elm Hill Ave
22,17401,0.2,1.1,13.5,time_period_05,-71.089263,42.3075150000001,17401.0,Seaver St opp Elm Hill Ave
22,17401,0.4,1.1,29.6,time_period_05,-71.089263,42.3075150000001,17401.0,Seaver St opp Elm Hill Ave
22,17401,0.31875,1.325,22.3,time_period_06,-71.089263,42.3075150000001,17401.0,Seaver St opp Elm Hill Ave
22,17401,0.173333333333333,1.17333333333333,13.8533333333333,time_period_07,-71.089263,42.3075150000001,17401.0,Seaver St opp Elm Hill Ave
22,17401,0.133333333333333,1.15,11.5666666666667,time_period_08,-71.089263,42.3075150000001,17401.0,Seaver St opp Elm Hill Ave
22,17401,0.0,0.266666666666667,4.16666666666667,time_period_09,-71.089263,42.3075150000001,17401.0,Seaver St opp Elm Hill Ave
22,17401,0.333333333333333,0.885057471264368,11.7287356321839,time_period_10,-71.089263,42.3075150000001,17401.0,Seaver St opp Elm Hill Ave
22,17401,0.342622950819672,1.05737704918033,12.0377049180328,time_period_11,-71.089263,42.3075150000001,17401.0,Seaver St opp Elm Hill Ave
22,17391,0.225,0.225,5.925,time_period_01,-71.087686,42.3066370000001,17391.0,Seaver St opp Maple St
22,17391,0.471428571428571,0.428571428571429,12.7142857142857,time_period_02,-71.087686,42.3066370000001,17391.0,Seaver St opp Maple St
22,17391,0.383333333333333,0.525,11.975,time_period_03,-71.087686,42.3066370000001,17391.0,Seaver St opp Maple St
22,17391,0.285714285714286,0.995238095238095,12.5047619047619,time_period_04,-71.087686,42.3066370000001,17391.0,Seaver St opp Maple St
22,17391,0.2625,1.53125,20.85,time_period_05,-71.087686,42.3066370000001,17391.0,Seaver St opp Maple St
22,17391,0.2,1.3,12.3,time_period_05,-71.087686,42.3066370000001,17391.0,Seaver St opp Maple St
22,17391,0.2,0.8,28.9,time_period_05,-71.087686,42.3066370000001,17391.0,Seaver St opp Maple St
22,17391,0.2375,1.59375,20.91875,time_period_06,-71.087686,42.3066370000001,17391.0,Seaver St opp Maple St
22,17391,0.133333333333333,1.32,12.6666666666667,time_period_07,-71.087686,42.3066370000001,17391.0,Seaver St opp Maple St
22,17391,0.0666666666666667,1.1,10.55,time_period_08,-71.087686,42.3066370000001,17391.0,Seaver St opp Maple St
22,17391,0.0,0.3,3.9,time_period_09,-71.087686,42.3066370000001,17391.0,Seaver St opp Maple St
22,17391,0.208045977011494,0.796551724137931,11.135632183908,time_period_10,-71.087686,42.3066370000001,17391.0,Seaver St opp Maple St
22,17391,0.19016393442623,1.01311475409836,11.216393442623,time_period_11,-71.087686,42.3066370000001,17391.0,Seaver St opp Maple St
22,415,0.65,1.5,5.1,time_period_01,-71.08537,42.303293,415.0,Blue Hill Ave @ Franklin Park Rd
22,415,1.18571428571429,1.74285714285714,12.1285714285714,time_period_02,-71.08537,42.303293,415.0,Blue Hill Ave @ Franklin Park Rd
22,415,0.766666666666667,1.925,10.8083333333333,time_period_03,-71.08537,42.303293,415.0,Blue Hill Ave @ Franklin Park Rd
22,415,0.80952380952381,2.63333333333333,10.6809523809524,time_period_04,-71.08537,42.303293,415.0,Blue Hill Ave @ Franklin Park Rd
22,415,1.54375,2.4875,19.9125,time_period_05,-71.08537,42.303293,415.0,Blue Hill Ave @ Franklin Park Rd
22,415,1.3,0.6,23.0,time_period_05,-71.08537,42.303293,415.0,Blue Hill Ave @ Franklin Park Rd
22,415,1.1,1.7,11.7,time_period_05,-71.08537,42.303293,415.0,Blue Hill Ave @ Franklin Park Rd
22,415,1.0,1.7,28.1,time_period_05,-71.08537,42.303293,415.0,Blue Hill Ave @ Franklin Park Rd
22,415,1.11875,2.1875,19.85625,time_period_06,-71.08537,42.303293,415.0,Blue Hill Ave @ Franklin Park Rd
22,415,0.58,1.61333333333333,11.6466666666667,time_period_07,-71.08537,42.303293,415.0,Blue Hill Ave @ Franklin Park Rd
22,415,0.433333333333333,1.41666666666667,9.58333333333333,time_period_08,-71.08537,42.303293,415.0,Blue Hill Ave @ Franklin Park Rd
22,415,0.133333333333333,0.666666666666667,3.33333333333333,time_period_09,-71.08537,42.303293,415.0,Blue Hill Ave @ Franklin Park Rd
22,415,0.722988505747126,2.02068965517241,9.83103448275862,time_period_10,-71.08537,42.303293,415.0,Blue Hill Ave @ Franklin Park Rd
22,415,0.595081967213115,2.02459016393443,9.80327868852459,time_period_11,-71.08537,42.303293,415.0,Blue Hill Ave @ Franklin Park Rd
22,416,0.425,0.025,5.45,time_period_01,-71.085877,42.301829,416.0,Blue Hill Ave opp McLellan St
22,416,1.08571428571429,0.3,12.9142857142857,time_period_02,-71.085877,42.301829,416.0,Blue Hill Ave opp McLellan St
22,416,0.966666666666667,0.3,11.4916666666667,time_period_03,-71.085877,42.301829,416.0,Blue Hill Ave opp McLellan St
22,416,0.376190476190476,0.509523809523809,10.547619047619,time_period_04,-71.085877,42.301829,416.0,Blue Hill Ave opp McLellan St
22,416,0.68125,1.08125,19.4625,time_period_05,-71.085877,42.301829,416.0,Blue Hill Ave opp McLellan St
22,416,0.4,1.5,22.0,time_period_05,-71.085877,42.301829,416.0,Blue Hill Ave opp McLellan St
22,416,0.5,0.5,11.7,time_period_05,-71.085877,42.301829,416.0,Blue Hill Ave opp McLellan St
22,416,0.5,1.4,27.3,time_period_05,-71.085877,42.301829,416.0,Blue Hill Ave opp McLellan St
22,416,0.44375,1.1,19.2,time_period_06,-71.085877,42.301829,416.0,Blue Hill Ave opp McLellan St
22,416,0.366666666666667,0.873333333333333,11.1133333333333,time_period_07,-71.085877,42.301829,416.0,Blue Hill Ave opp McLellan St
22,416,0.116666666666667,0.7,9.0,time_period_08,-71.085877,42.301829,416.0,Blue Hill Ave opp McLellan St
22,416,0.0666666666666667,0.133333333333333,3.26666666666667,time_period_09,-71.085877,42.301829,416.0,Blue Hill Ave opp McLellan St
22,416,0.350574712643678,0.488505747126437,9.68275862068966,time_period_10,-71.085877,42.301829,416.0,Blue Hill Ave opp McLellan St
22,416,0.267213114754098,0.437704918032787,9.6327868852459,time_period_11,-71.085877,42.301829,416.0,Blue Hill Ave opp McLellan St
22,417,0.775,0.275,5.95,time_period_01,-71.087228,42.2977490000001,417.0,Blue Hill Ave @ American Legion Hwy
22,417,1.31428571428571,0.357142857142857,13.9,time_period_02,-71.087228,42.2977490000001,417.0,Blue Hill Ave @ American Legion Hwy
22,417,0.875,0.35,12.0083333333333,time_period_03,-71.087228,42.2977490000001,417.0,Blue Hill Ave @ American Legion Hwy
22,417,0.419047619047619,0.566666666666667,10.4142857142857,time_period_04,-71.087228,42.2977490000001,417.0,Blue Hill Ave @ American Legion Hwy
22,417,0.51875,1.15625,18.825,time_period_05,-71.087228,42.2977490000001,417.0,Blue Hill Ave @ American Legion Hwy
22,417,0.4,0.3,22.1,time_period_05,-71.087228,42.2977490000001,417.0,Blue Hill Ave @ American Legion Hwy
22,417,0.5,0.4,11.7,time_period_05,-71.087228,42.2977490000001,417.0,Blue Hill Ave @ American Legion Hwy
22,417,0.2,0.5,27.0,time_period_05,-71.087228,42.2977490000001,417.0,Blue Hill Ave @ American Legion Hwy
22,417,0.4125,1.025,18.56875,time_period_06,-71.087228,42.2977490000001,417.0,Blue Hill Ave @ American Legion Hwy
22,417,0.266666666666667,0.733333333333333,10.6266666666667,time_period_07,-71.087228,42.2977490000001,417.0,Blue Hill Ave @ American Legion Hwy
22,417,0.133333333333333,0.95,8.21666666666667,time_period_08,-71.087228,42.2977490000001,417.0,Blue Hill Ave @ American Legion Hwy
22,417,0.1,0.233333333333333,3.16666666666667,time_period_09,-71.087228,42.2977490000001,417.0,Blue Hill Ave @ American Legion Hwy
22,417,0.345977011494253,0.689655172413793,9.3367816091954,time_period_10,-71.087228,42.2977490000001,417.0,Blue Hill Ave @ American Legion Hwy
22,417,0.298360655737705,0.665573770491803,9.2655737704918,time_period_11,-71.087228,42.2977490000001,417.0,Blue Hill Ave @ American Legion Hwy
22,419,1.05,0.075,6.875,time_period_01,-71.087913,42.295595,419.0,Blue Hill Ave @ Angell St
22,419,1.2,0.357142857142857,14.7571428571429,time_period_02,-71.087913,42.295595,419.0,Blue Hill Ave @ Angell St
22,419,1.59166666666667,0.9,12.7083333333333,time_period_03,-71.087913,42.295595,419.0,Blue Hill Ave @ Angell St
22,419,0.9,1.12857142857143,10.1571428571429,time_period_04,-71.087913,42.295595,419.0,Blue Hill Ave @ Angell St
22,419,0.7875,1.9,17.74375,time_period_05,-71.087913,42.295595,419.0,Blue Hill Ave @ Angell St
22,419,1.1,0.4,22.8,time_period_05,-71.087913,42.295595,419.0,Blue Hill Ave @ Angell St
22,419,0.5,1.0,11.2,time_period_05,-71.087913,42.295595,419.0,Blue Hill Ave @ Angell St
22,419,0.2,0.8,26.4,time_period_05,-71.087913,42.295595,419.0,Blue Hill Ave @ Angell St
22,419,0.75625,1.65625,17.68125,time_period_06,-71.087913,42.295595,419.0,Blue Hill Ave @ Angell St
22,419,0.533333333333333,1.16,10.0,time_period_07,-71.087913,42.295595,419.0,Blue Hill Ave @ Angell St
22,419,0.25,0.7,7.75,time_period_08,-71.087913,42.295595,419.0,Blue Hill Ave @ Angell St
22,419,0.0666666666666667,0.266666666666667,2.96666666666667,time_period_09,-71.087913,42.295595,419.0,Blue Hill Ave @ Angell St
22,419,0.545977011494253,0.986206896551724,8.89195402298851,time_period_10,-71.087913,42.295595,419.0,Blue Hill Ave @ Angell St
22,419,0.49672131147541,1.35081967213115,8.40819672131147,time_period_11,-71.087913,42.295595,419.0,Blue Hill Ave @ Angell St
22,420,1.35,0.05,8.2,time_period_01,-71.085853,42.2942160000001,420.0,Talbot Ave opp Nightingale St
22,420,2.14285714285714,0.171428571428571,16.7,time_period_02,-71.085853,42.2942160000001,420.0,Talbot Ave opp Nightingale St
22,420,1.625,0.233333333333333,14.1333333333333,time_period_03,-71.085853,42.2942160000001,420.0,Talbot Ave opp Nightingale St
22,420,1.36190476190476,0.69047619047619,10.8761904761905,time_period_04,-71.085853,42.2942160000001,420.0,Talbot Ave opp Nightingale St
22,420,2.06875,1.4125,18.38125,time_period_05,-71.085853,42.2942160000001,420.0,Talbot Ave opp Nightingale St
22,420,1.4,3.5,20.7,time_period_05,-71.085853,42.2942160000001,420.0,Talbot Ave opp Nightingale St
22,420,1.3,0.6,11.9,time_period_05,-71.085853,42.2942160000001,420.0,Talbot Ave opp Nightingale St
22,420,1.3,0.8,26.8,time_period_05,-71.085853,42.2942160000001,420.0,Talbot Ave opp Nightingale St
22,420,2.25625,1.1625,18.7875,time_period_06,-71.085853,42.2942160000001,420.0,Talbot Ave opp Nightingale St
22,420,0.873333333333333,0.54,10.36,time_period_07,-71.085853,42.2942160000001,420.0,Talbot Ave opp Nightingale St
22,420,0.383333333333333,0.616666666666667,7.53333333333333,time_period_08,-71.085853,42.2942160000001,420.0,Talbot Ave opp Nightingale St
22,420,0.1,0.0666666666666667,3.0,time_period_09,-71.085853,42.2942160000001,420.0,Talbot Ave opp Nightingale St
22,420,1.05057471264368,0.598850574712644,9.33448275862069,time_period_10,-71.085853,42.2942160000001,420.0,Talbot Ave opp Nightingale St
22,420,1.02459016393443,0.60983606557377,8.82786885245902,time_period_11,-71.085853,42.2942160000001,420.0,Talbot Ave opp Nightingale St
22,421,0.325,0.05,8.475,time_period_01,-71.0823149999999,42.2931770000001,421.0,Talbot Ave opp Kerwin St
22,421,0.857142857142857,0.214285714285714,17.3428571428571,time_period_02,-71.0823149999999,42.2931770000001,421.0,Talbot Ave opp Kerwin St
22,421,0.816666666666667,0.15,14.8583333333333,time_period_03,-71.0823149999999,42.2931770000001,421.0,Talbot Ave opp Kerwin St
22,421,0.452380952380952,0.371428571428571,10.9619047619048,time_period_04,-71.0823149999999,42.2931770000001,421.0,Talbot Ave opp Kerwin St
22,421,0.54375,0.98125,17.95,time_period_05,-71.0823149999999,42.2931770000001,421.0,Talbot Ave opp Kerwin St
22,421,0.9,0.6,21.0,time_period_05,-71.0823149999999,42.2931770000001,421.0,Talbot Ave opp Kerwin St
22,421,0.5,0.6,11.9,time_period_05,-71.0823149999999,42.2931770000001,421.0,Talbot Ave opp Kerwin St
22,421,0.5,0.7,26.5,time_period_05,-71.0823149999999,42.2931770000001,421.0,Talbot Ave opp Kerwin St
22,421,0.3375,1.1,17.975,time_period_06,-71.0823149999999,42.2931770000001,421.0,Talbot Ave opp Kerwin St
22,421,0.3,0.62,9.97333333333333,time_period_07,-71.0823149999999,42.2931770000001,421.0,Talbot Ave opp Kerwin St
22,421,0.116666666666667,0.85,6.86666666666667,time_period_08,-71.0823149999999,42.2931770000001,421.0,Talbot Ave opp Kerwin St
22,421,0.0,0.266666666666667,2.73333333333333,time_period_09,-71.0823149999999,42.2931770000001,421.0,Talbot Ave opp Kerwin St
22,421,0.316091954022989,0.413793103448276,9.21724137931034,time_period_10,-71.0823149999999,42.2931770000001,421.0,Talbot Ave opp Kerwin St
22,421,0.377049180327869,0.411475409836066,8.7983606557377,time_period_11,-71.0823149999999,42.2931770000001,421.0,Talbot Ave opp Kerwin St
22,422,1.25,0.225,9.45,time_period_01,-71.079788,42.292446,422.0,Talbot Ave @ Bernard St
22,422,1.55714285714286,1.18571428571429,17.7428571428571,time_period_02,-71.079788,42.292446,422.0,Talbot Ave @ Bernard St
22,422,0.883333333333333,0.325,15.4333333333333,time_period_03,-71.079788,42.292446,422.0,Talbot Ave @ Bernard St
22,422,0.576190476190476,0.323809523809524,11.2142857142857,time_period_04,-71.079788,42.292446,422.0,Talbot Ave @ Bernard St
22,422,1.0875,1.01875,18.025,time_period_05,-71.079788,42.292446,422.0,Talbot Ave @ Bernard St
22,422,1.7,1.3,21.3,time_period_05,-71.079788,42.292446,422.0,Talbot Ave @ Bernard St
22,422,1.2,0.4,12.6,time_period_05,-71.079788,42.292446,422.0,Talbot Ave @ Bernard St
22,422,0.5,0.9,26.1,time_period_05,-71.079788,42.292446,422.0,Talbot Ave @ Bernard St
22,422,0.45,1.0625,17.36875,time_period_06,-71.079788,42.292446,422.0,Talbot Ave @ Bernard St
22,422,0.386666666666667,0.433333333333333,9.9,time_period_07,-71.079788,42.292446,422.0,Talbot Ave @ Bernard St
22,422,0.0833333333333333,0.35,6.6,time_period_08,-71.079788,42.292446,422.0,Talbot Ave @ Bernard St
22,422,0.0,0.1,2.66666666666667,time_period_09,-71.079788,42.292446,422.0,Talbot Ave @ Bernard St
22,422,0.366666666666667,0.301149425287356,9.2816091954023,time_period_10,-71.079788,42.292446,422.0,Talbot Ave @ Bernard St
22,422,0.329508196721311,0.30655737704918,8.82950819672131,time_period_11,-71.079788,42.292446,422.0,Talbot Ave @ Bernard St
22,423,1.3,0.075,10.7,time_period_01,-71.0779919999999,42.291903,423.0,Talbot Ave @ Talbot Station
22,423,0.685714285714286,0.9,17.5285714285714,time_period_02,-71.0779919999999,42.291903,423.0,Talbot Ave @ Talbot Station
22,423,0.483333333333333,0.458333333333333,15.4666666666667,time_period_03,-71.0779919999999,42.291903,423.0,Talbot Ave @ Talbot Station
22,423,0.433333333333333,0.580952380952381,11.0857142857143,time_period_04,-71.0779919999999,42.291903,423.0,Talbot Ave @ Talbot Station
22,423,0.48125,1.525,16.975,time_period_05,-71.0779919999999,42.291903,423.0,Talbot Ave @ Talbot Station
22,423,0.4,0.4,21.4,time_period_05,-71.0779919999999,42.291903,423.0,Talbot Ave @ Talbot Station
22,423,0.4,0.7,12.2,time_period_05,-71.0779919999999,42.291903,423.0,Talbot Ave @ Talbot Station
22,423,0.5,1.4,25.1,time_period_05,-71.0779919999999,42.291903,423.0,Talbot Ave @ Talbot Station
22,423,0.4375,1.6125,16.2,time_period_06,-71.0779919999999,42.291903,423.0,Talbot Ave @ Talbot Station
22,423,0.26,1.16,9.02666666666667,time_period_07,-71.0779919999999,42.291903,423.0,Talbot Ave @ Talbot Station
22,423,0.15,1.13333333333333,5.56666666666667,time_period_08,-71.0779919999999,42.291903,423.0,Talbot Ave @ Talbot Station
22,423,0.0,0.266666666666667,2.43333333333333,time_period_09,-71.0779919999999,42.291903,423.0,Talbot Ave @ Talbot Station
22,423,0.262068965517241,0.659770114942529,8.86781609195402,time_period_10,-71.0779919999999,42.291903,423.0,Talbot Ave @ Talbot Station
22,423,0.273770491803279,0.60327868852459,8.50819672131148,time_period_11,-71.0779919999999,42.291903,423.0,Talbot Ave @ Talbot Station
22,424,1.025,0.125,11.6,time_period_01,-71.074625,42.290919,424.0,Talbot Ave @ Colonial Ave
22,424,1.72857142857143,1.42857142857143,17.8428571428571,time_period_02,-71.074625,42.290919,424.0,Talbot Ave @ Colonial Ave
22,424,0.783333333333333,0.666666666666667,15.6083333333333,time_period_03,-71.074625,42.290919,424.0,Talbot Ave @ Colonial Ave
22,424,0.357142857142857,0.7,10.7047619047619,time_period_04,-71.074625,42.290919,424.0,Talbot Ave @ Colonial Ave
22,424,0.3375,1.59375,15.7125,time_period_05,-71.074625,42.290919,424.0,Talbot Ave @ Colonial Ave
22,424,0.6,0.7,21.3,time_period_05,-71.074625,42.290919,424.0,Talbot Ave @ Colonial Ave
22,424,0.3,0.9,11.6,time_period_05,-71.074625,42.290919,424.0,Talbot Ave @ Colonial Ave
22,424,0.4,1.6,23.9,time_period_05,-71.074625,42.290919,424.0,Talbot Ave @ Colonial Ave
22,424,0.125,1.4375,14.85625,time_period_06,-71.074625,42.290919,424.0,Talbot Ave @ Colonial Ave
22,424,0.153333333333333,1.17333333333333,8.01333333333333,time_period_07,-71.074625,42.290919,424.0,Talbot Ave @ Colonial Ave
22,424,0.1,0.866666666666667,4.85,time_period_08,-71.074625,42.290919,424.0,Talbot Ave @ Colonial Ave
22,424,0.0666666666666667,0.5,2.03333333333333,time_period_09,-71.074625,42.290919,424.0,Talbot Ave @ Colonial Ave
22,424,0.258620689655172,0.704597701149425,8.41954022988506,time_period_10,-71.074625,42.290919,424.0,Talbot Ave @ Colonial Ave
22,424,0.29016393442623,0.729508196721312,8.07540983606557,time_period_11,-71.074625,42.290919,424.0,Talbot Ave @ Colonial Ave
22,425,0.275,0.35,11.525,time_period_01,-71.072141,42.2901840000001,425.0,Talbot Ave @ Norfolk St
22,425,0.7,2.92857142857143,15.6428571428571,time_period_02,-71.072141,42.2901840000001,425.0,Talbot Ave @ Norfolk St
22,425,0.508333333333333,3.14166666666667,12.9583333333333,time_period_03,-71.072141,42.2901840000001,425.0,Talbot Ave @ Norfolk St
22,425,0.361904761904762,2.6,8.45714285714286,time_period_04,-71.072141,42.2901840000001,425.0,Talbot Ave @ Norfolk St
22,425,0.43125,3.0625,13.06875,time_period_05,-71.072141,42.2901840000001,425.0,Talbot Ave @ Norfolk St
22,425,0.4,1.6,20.1,time_period_05,-71.072141,42.2901840000001,425.0,Talbot Ave @ Norfolk St
22,425,0.5,2.6,9.4,time_period_05,-71.072141,42.2901840000001,425.0,Talbot Ave @ Norfolk St
22,425,0.5,1.6,22.7,time_period_05,-71.072141,42.2901840000001,425.0,Talbot Ave @ Norfolk St
22,425,0.28125,2.8875,12.21875,time_period_06,-71.072141,42.2901840000001,425.0,Talbot Ave @ Norfolk St
22,425,0.166666666666667,1.29333333333333,6.88,time_period_07,-71.072141,42.2901840000001,425.0,Talbot Ave @ Norfolk St
22,425,0.116666666666667,0.466666666666667,4.48333333333333,time_period_08,-71.072141,42.2901840000001,425.0,Talbot Ave @ Norfolk St
22,425,0.0333333333333333,0.4,1.63333333333333,time_period_09,-71.072141,42.2901840000001,425.0,Talbot Ave @ Norfolk St
22,425,0.24367816091954,1.63103448275862,7.01149425287356,time_period_10,-71.072141,42.2901840000001,425.0,Talbot Ave @ Norfolk St
22,425,0.254098360655738,1.31475409836066,7.0016393442623,time_period_11,-71.072141,42.2901840000001,425.0,Talbot Ave @ Norfolk St
22,426,0.45,0.075,11.925,time_period_01,-71.0699749999999,42.2899430000001,426.0,Talbot Ave @ Lithgow St
22,426,1.02857142857143,0.7,15.9571428571429,time_period_02,-71.0699749999999,42.2899430000001,426.0,Talbot Ave @ Lithgow St
22,426,0.641666666666667,1.15833333333333,12.4333333333333,time_period_03,-71.0699749999999,42.2899430000001,426.0,Talbot Ave @ Lithgow St
22,426,1.03809523809524,0.652380952380952,8.85714285714286,time_period_04,-71.0699749999999,42.2899430000001,426.0,Talbot Ave @ Lithgow St
22,426,1.24375,1.3,13.025,time_period_05,-71.0699749999999,42.2899430000001,426.0,Talbot Ave @ Lithgow St
22,426,0.5,0.5,20.2,time_period_05,-71.0699749999999,42.2899430000001,426.0,Talbot Ave @ Lithgow St
22,426,1.1,0.8,9.8,time_period_05,-71.0699749999999,42.2899430000001,426.0,Talbot Ave @ Lithgow St
22,426,1.0,0.7,23.1,time_period_05,-71.0699749999999,42.2899430000001,426.0,Talbot Ave @ Lithgow St
22,426,0.60625,1.1,11.7375,time_period_06,-71.0699749999999,42.2899430000001,426.0,Talbot Ave @ Lithgow St
22,426,0.273333333333333,0.54,6.56,time_period_07,-71.0699749999999,42.2899430000001,426.0,Talbot Ave @ Lithgow St
22,426,0.15,0.416666666666667,4.23333333333333,time_period_08,-71.0699749999999,42.2899430000001,426.0,Talbot Ave @ Lithgow St
22,426,0.0,0.2,1.46666666666667,time_period_09,-71.0699749999999,42.2899430000001,426.0,Talbot Ave @ Lithgow St
22,426,0.497701149425287,0.533333333333333,6.98390804597701,time_period_10,-71.0699749999999,42.2899430000001,426.0,Talbot Ave @ Lithgow St
22,426,0.488524590163934,0.534426229508197,6.96393442622951,time_period_11,-71.0699749999999,42.2899430000001,426.0,Talbot Ave @ Lithgow St
22,428,0.025,0.15,11.85,time_period_01,-71.066969,42.288962,428.0,Talbot Ave @ Welles Ave
22,428,0.228571428571429,0.285714285714286,15.8857142857143,time_period_02,-71.066969,42.288962,428.0,Talbot Ave @ Welles Ave
22,428,0.116666666666667,0.775,11.7416666666667,time_period_03,-71.066969,42.288962,428.0,Talbot Ave @ Welles Ave
22,428,0.0571428571428571,0.442857142857143,8.4952380952381,time_period_04,-71.066969,42.288962,428.0,Talbot Ave @ Welles Ave
22,428,0.10625,1.09375,12.0625,time_period_05,-71.066969,42.288962,428.0,Talbot Ave @ Welles Ave
22,428,0.0,1.3,18.9,time_period_05,-71.066969,42.288962,428.0,Talbot Ave @ Welles Ave
22,428,0.1,0.5,9.2,time_period_05,-71.066969,42.288962,428.0,Talbot Ave @ Welles Ave
22,428,0.3,2.6,20.6,time_period_05,-71.066969,42.288962,428.0,Talbot Ave @ Welles Ave
22,428,0.0375,1.08125,10.7,time_period_06,-71.066969,42.288962,428.0,Talbot Ave @ Welles Ave
22,428,0.02,0.773333333333333,5.83333333333333,time_period_07,-71.066969,42.288962,428.0,Talbot Ave @ Welles Ave
22,428,0.0,0.516666666666667,3.75,time_period_08,-71.066969,42.288962,428.0,Talbot Ave @ Welles Ave
22,428,0.0,0.2,1.23333333333333,time_period_09,-71.066969,42.288962,428.0,Talbot Ave @ Welles Ave
22,428,0.0482758620689655,0.414942528735632,6.60459770114943,time_period_10,-71.066969,42.288962,428.0,Talbot Ave @ Welles Ave
22,428,0.0278688524590164,0.486885245901639,6.51311475409836,time_period_11,-71.066969,42.288962,428.0,Talbot Ave @ Welles Ave
22,430,0.05,0.4,11.475,time_period_01,-71.064496,42.2860380000001,430.0,Talbot Ave @ Dorchester Ave
22,430,0.0428571428571429,1.07142857142857,14.9,time_period_02,-71.064496,42.2860380000001,430.0,Talbot Ave @ Dorchester Ave
22,430,0.0,0.883333333333333,10.8666666666667,time_period_03,-71.064496,42.2860380000001,430.0,Talbot Ave @ Dorchester Ave
22,430,0.0047619047619047,1.02380952380952,7.46666666666667,time_period_04,-71.064496,42.2860380000001,430.0,Talbot Ave @ Dorchester Ave
22,430,0.01875,1.83125,10.26875,time_period_05,-71.064496,42.2860380000001,430.0,Talbot Ave @ Dorchester Ave
22,430,0.1,1.3,17.5,time_period_05,-71.064496,42.2860380000001,430.0,Talbot Ave @ Dorchester Ave
22,430,0.0,1.4,7.9,time_period_05,-71.064496,42.2860380000001,430.0,Talbot Ave @ Dorchester Ave
22,430,0.1,1.0,19.7,time_period_05,-71.064496,42.2860380000001,430.0,Talbot Ave @ Dorchester Ave
22,430,0.0,1.8875,8.79375,time_period_06,-71.064496,42.2860380000001,430.0,Talbot Ave @ Dorchester Ave
22,430,0.0,1.02666666666667,4.80666666666667,time_period_07,-71.064496,42.2860380000001,430.0,Talbot Ave @ Dorchester Ave
22,430,0.0,0.516666666666667,3.25,time_period_08,-71.064496,42.2860380000001,430.0,Talbot Ave @ Dorchester Ave
22,430,0.0,0.233333333333333,1.03333333333333,time_period_09,-71.064496,42.2860380000001,430.0,Talbot Ave @ Dorchester Ave
22,430,0.0172413793103448,0.962068965517241,5.65402298850575,time_period_10,-71.064496,42.2860380000001,430.0,Talbot Ave @ Dorchester Ave
22,430,0.0213114754098361,0.901639344262295,5.63934426229508,time_period_11,-71.064496,42.2860380000001,430.0,Talbot Ave @ Dorchester Ave
22,334,0.0,11.075,0.425,time_period_01,-71.0733149,42.2845163,334.0,Ashmont Busway
22,334,0.0,14.6142857142857,0.271428571428571,time_period_02,-71.0733149,42.2845163,334.0,Ashmont Busway
22,334,0.0,10.65,0.233333333333333,time_period_03,-71.0733149,42.2845163,334.0,Ashmont Busway
22,334,0.0,7.25238095238095,0.233333333333333,time_period_04,-71.0733149,42.2845163,334.0,Ashmont Busway
22,334,0.0,10.06875,0.19375,time_period_05,-71.0733149,42.2845163,334.0,Ashmont Busway
22,334,0.0,17.4,0.2,time_period_05,-71.0733149,42.2845163,334.0,Ashmont Busway
22,334,0.0,7.5,0.3,time_period_05,-71.0733149,42.2845163,334.0,Ashmont Busway
22,334,0.0,18.1,1.6,time_period_05,-71.0733149,42.2845163,334.0,Ashmont Busway
22,334,0.0,8.6875,0.14375,time_period_06,-71.0733149,42.2845163,334.0,Ashmont Busway
22,334,0.0,4.73333333333333,0.08,time_period_07,-71.0733149,42.2845163,334.0,Ashmont Busway
22,334,0.0,3.21666666666667,0.0333333333333333,time_period_08,-71.0733149,42.2845163,334.0,Ashmont Busway
22,334,0.0,1.0,0.0333333333333333,time_period_09,-71.0733149,42.2845163,334.0,Ashmont Busway
22,334,0.0,5.45632183908046,0.208045977011494,time_period_10,-71.0733149,42.2845163,334.0,Ashmont Busway
22,334,0.0,5.51803278688525,0.118032786885246,time_period_11,-71.0733149,42.2845163,334.0,Ashmont Busway
