route_id,stop_id,average_ons,average_offs,average_load,time_period_id,X,Y,Stop_ID,Stop_Name
450,15795,12.40625,0.0,13.61875,time_period_10,-70.9968304,42.4135781,15795.0,Wonderland Busway
450,15795,12.56875,0.0,13.28125,time_period_11,-70.9968304,42.4135781,15795.0,Wonderland Busway
450,24716,0.125,0.04375,13.7375,time_period_10,-70.996415,42.411567,24716.0,VFW Pkwy opp Wonderland Market Place
450,24716,0.0375,0.04375,13.29375,time_period_11,-70.996415,42.411567,24716.0,VFW Pkwy opp Wonderland Market Place
450,4733,0.625,0.0625,14.56875,time_period_10,-71.000379,42.4096970000001,4733.0,Beach St @ Upham St - Bell Circle
450,4733,0.8375,0.06875,14.18125,time_period_11,-71.000379,42.4096970000001,4733.0,Beach St @ Upham St - Bell Circle
450,117,9.2,0.0,9.2,time_period_02,-71.057724,42.3618470000001,117.0,Congress St @ Haymarket Sta
450,117,7.275,0.0,7.275,time_period_03,-71.057724,42.3618470000001,117.0,Congress St @ Haymarket Sta
450,117,6.2875,0.0,6.2875,time_period_04,-71.057724,42.3618470000001,117.0,Congress St @ Haymarket Sta
450,117,14.76,0.0,14.76,time_period_05,-71.057724,42.3618470000001,117.0,Congress St @ Haymarket Sta
450,117,16.6,0.0,16.94,time_period_06,-71.057724,42.3618470000001,117.0,Congress St @ Haymarket Sta
450,117,12.35,0.0,12.35,time_period_07,-71.057724,42.3618470000001,117.0,Congress St @ Haymarket Sta
450,117,15.6,0.0,15.6,time_period_08,-71.057724,42.3618470000001,117.0,Congress St @ Haymarket Sta
450,4727,1.1,0.1,10.1,time_period_02,-71.019171,42.3861420000001,4727.0,McClellan Highway @ Addison St
450,4727,0.275,0.15,7.325,time_period_03,-71.019171,42.3861420000001,4727.0,McClellan Highway @ Addison St
450,4727,0.175,0.15,6.325,time_period_04,-71.019171,42.3861420000001,4727.0,McClellan Highway @ Addison St
450,4727,0.32,0.12,15.0,time_period_05,-71.019171,42.3861420000001,4727.0,McClellan Highway @ Addison St
450,4727,0.28,0.22,16.96,time_period_06,-71.019171,42.3861420000001,4727.0,McClellan Highway @ Addison St
450,4727,0.125,0.05,12.4,time_period_07,-71.019171,42.3861420000001,4727.0,McClellan Highway @ Addison St
450,4727,0.05,0.0,16.0,time_period_08,-71.019171,42.3861420000001,4727.0,McClellan Highway @ Addison St
450,4728,0.8,0.5,10.4,time_period_02,-71.012888,42.3915620000001,4728.0,McClellan Highway @ Boardman St
450,4728,0.25,0.5,7.15,time_period_03,-71.012888,42.3915620000001,4728.0,McClellan Highway @ Boardman St
450,4728,0.2875,0.1875,6.425,time_period_04,-71.012888,42.3915620000001,4728.0,McClellan Highway @ Boardman St
450,4728,0.66,0.22,15.42,time_period_05,-71.012888,42.3915620000001,4728.0,McClellan Highway @ Boardman St
450,4728,0.52,0.08,17.3,time_period_06,-71.012888,42.3915620000001,4728.0,McClellan Highway @ Boardman St
450,4728,0.3,0.075,12.65,time_period_07,-71.012888,42.3915620000001,4728.0,McClellan Highway @ Boardman St
450,4728,0.3,0.2,16.1,time_period_08,-71.012888,42.3915620000001,4728.0,McClellan Highway @ Boardman St
450,4730,0.0,0.1,10.3,time_period_02,-71.009349,42.3959350000001,4730.0,Burbank Hwy @ Suffolk Downs
450,4730,0.0,0.0,7.125,time_period_03,-71.009349,42.3959350000001,4730.0,Burbank Hwy @ Suffolk Downs
450,4730,0.0,0.0,6.4125,time_period_04,-71.009349,42.3959350000001,4730.0,Burbank Hwy @ Suffolk Downs
450,4730,0.0,0.0,15.42,time_period_05,-71.009349,42.3959350000001,4730.0,Burbank Hwy @ Suffolk Downs
450,4730,0.0,0.0,17.4,time_period_06,-71.009349,42.3959350000001,4730.0,Burbank Hwy @ Suffolk Downs
450,4730,0.0,0.0,12.625,time_period_07,-71.009349,42.3959350000001,4730.0,Burbank Hwy @ Suffolk Downs
450,4730,0.0,0.0,16.1,time_period_08,-71.009349,42.3959350000001,4730.0,Burbank Hwy @ Suffolk Downs
450,4731,0.0,0.0,10.3,time_period_02,-71.008321,42.3972150000001,4731.0,Opp 40 Burbank Hwy
450,4731,0.0,0.075,7.1,time_period_03,-71.008321,42.3972150000001,4731.0,Opp 40 Burbank Hwy
450,4731,0.0,0.0,6.3875,time_period_04,-71.008321,42.3972150000001,4731.0,Opp 40 Burbank Hwy
450,4731,0.06,0.0,15.46,time_period_05,-71.008321,42.3972150000001,4731.0,Opp 40 Burbank Hwy
450,4731,0.0,0.02,17.38,time_period_06,-71.008321,42.3972150000001,4731.0,Opp 40 Burbank Hwy
450,4731,0.0,0.0,12.625,time_period_07,-71.008321,42.3972150000001,4731.0,Opp 40 Burbank Hwy
450,4731,0.0,0.0,16.1,time_period_08,-71.008321,42.3972150000001,4731.0,Opp 40 Burbank Hwy
450,4732,0.0,0.0,10.3,time_period_02,-71.004828,42.4016120000001,4732.0,281 Burbank Hwy
450,4732,0.025,0.0,7.1,time_period_03,-71.004828,42.4016120000001,4732.0,281 Burbank Hwy
450,4732,0.05,0.0125,6.45,time_period_04,-71.004828,42.4016120000001,4732.0,281 Burbank Hwy
450,4732,0.2,0.08,15.56,time_period_05,-71.004828,42.4016120000001,4732.0,281 Burbank Hwy
450,4732,0.22,0.08,17.5,time_period_06,-71.004828,42.4016120000001,4732.0,281 Burbank Hwy
450,4732,0.05,0.125,12.525,time_period_07,-71.004828,42.4016120000001,4732.0,281 Burbank Hwy
450,4732,0.0,0.1,15.65,time_period_08,-71.004828,42.4016120000001,4732.0,281 Burbank Hwy
450,4526,2.7,0.0,12.9,time_period_02,-71.001815,42.409969,4526.0,American Legion Hwy @ Bell Circle
450,4526,1.55,0.3,8.375,time_period_03,-71.001815,42.409969,4526.0,American Legion Hwy @ Bell Circle
450,4526,1.0375,0.4,7.0875,time_period_04,-71.001815,42.409969,4526.0,American Legion Hwy @ Bell Circle
450,4526,1.5,0.44,16.6,time_period_05,-71.001815,42.409969,4526.0,American Legion Hwy @ Bell Circle
450,4526,1.06,0.34,18.2,time_period_06,-71.001815,42.409969,4526.0,American Legion Hwy @ Bell Circle
450,4526,1.35,0.175,13.725,time_period_07,-71.001815,42.409969,4526.0,American Legion Hwy @ Bell Circle
450,4526,1.75,0.45,16.95,time_period_08,-71.001815,42.409969,4526.0,American Legion Hwy @ Bell Circle
450,4526,0.65,0.01875,15.1875,time_period_10,-71.001815,42.409969,4526.0,American Legion Hwy @ Bell Circle
450,4526,0.33125,0.0125,14.5,time_period_11,-71.001815,42.409969,4526.0,American Legion Hwy @ Bell Circle
450,45261,0.0,0.0,12.9,time_period_02,-71.0028609999999,42.4126460000001,45261.0,133 - 135 American Legion Hwy
450,45261,0.05,0.1,8.325,time_period_03,-71.0028609999999,42.4126460000001,45261.0,133 - 135 American Legion Hwy
450,45261,0.1375,0.125,7.15,time_period_04,-71.0028609999999,42.4126460000001,45261.0,133 - 135 American Legion Hwy
450,45261,0.06,0.02,16.6,time_period_05,-71.0028609999999,42.4126460000001,45261.0,133 - 135 American Legion Hwy
450,45261,0.04,0.1,18.16,time_period_06,-71.0028609999999,42.4126460000001,45261.0,133 - 135 American Legion Hwy
450,45261,0.05,0.025,13.75,time_period_07,-71.0028609999999,42.4126460000001,45261.0,133 - 135 American Legion Hwy
450,45261,0.0,0.25,16.7,time_period_08,-71.0028609999999,42.4126460000001,45261.0,133 - 135 American Legion Hwy
450,45261,0.11875,0.04375,15.25625,time_period_10,-71.0028609999999,42.4126460000001,45261.0,133 - 135 American Legion Hwy
450,45261,0.13125,0.01875,14.63125,time_period_11,-71.0028609999999,42.4126460000001,45261.0,133 - 135 American Legion Hwy
450,4512,2.0,0.3,14.7,time_period_02,-71.003166,42.4164170000001,4512.0,American Legion Hwy @ Revere St
450,4512,0.575,0.075,8.825,time_period_03,-71.003166,42.4164170000001,4512.0,American Legion Hwy @ Revere St
450,4512,0.3,0.1125,7.3375,time_period_04,-71.003166,42.4164170000001,4512.0,American Legion Hwy @ Revere St
450,4512,0.6,0.3,16.94,time_period_05,-71.003166,42.4164170000001,4512.0,American Legion Hwy @ Revere St
450,4512,0.38,0.22,18.32,time_period_06,-71.003166,42.4164170000001,4512.0,American Legion Hwy @ Revere St
450,4512,0.15,0.125,13.75,time_period_07,-71.003166,42.4164170000001,4512.0,American Legion Hwy @ Revere St
450,4512,0.15,0.25,16.55,time_period_08,-71.003166,42.4164170000001,4512.0,American Legion Hwy @ Revere St
450,4512,0.28125,0.40625,15.1375,time_period_10,-71.003166,42.4164170000001,4512.0,American Legion Hwy @ Revere St
450,4512,0.275,0.4625,14.43125,time_period_11,-71.003166,42.4164170000001,4512.0,American Legion Hwy @ Revere St
450,4513,0.0,0.2,14.5,time_period_02,-71.001931,42.4188780000001,4513.0,American Legion Hwy @ Hutchinson St
450,4513,0.025,0.05,8.825,time_period_03,-71.001931,42.4188780000001,4513.0,American Legion Hwy @ Hutchinson St
450,4513,0.0375,0.025,7.375,time_period_04,-71.001931,42.4188780000001,4513.0,American Legion Hwy @ Hutchinson St
450,4513,0.04,0.08,16.88,time_period_05,-71.001931,42.4188780000001,4513.0,American Legion Hwy @ Hutchinson St
450,4513,0.0,0.04,18.32,time_period_06,-71.001931,42.4188780000001,4513.0,American Legion Hwy @ Hutchinson St
450,4513,0.0,0.075,13.725,time_period_07,-71.001931,42.4188780000001,4513.0,American Legion Hwy @ Hutchinson St
450,4513,0.0,0.05,16.55,time_period_08,-71.001931,42.4188780000001,4513.0,American Legion Hwy @ Hutchinson St
450,4513,0.075,0.0875,15.0875,time_period_10,-71.001931,42.4188780000001,4513.0,American Legion Hwy @ Hutchinson St
450,4513,0.0,0.11875,14.31875,time_period_11,-71.001931,42.4188780000001,4513.0,American Legion Hwy @ Hutchinson St
450,4515,0.4,0.0,14.9,time_period_02,-71.00354,42.4209500000001,4515.0,Brown Circle Rotary
450,4515,0.275,0.1,9.0,time_period_03,-71.00354,42.4209500000001,4515.0,Brown Circle Rotary
450,4515,0.35,0.1,7.6125,time_period_04,-71.00354,42.4209500000001,4515.0,Brown Circle Rotary
450,4515,1.48,0.34,18.06,time_period_05,-71.00354,42.4209500000001,4515.0,Brown Circle Rotary
450,4515,0.54,0.32,18.52,time_period_06,-71.00354,42.4209500000001,4515.0,Brown Circle Rotary
450,4515,0.325,0.275,13.775,time_period_07,-71.00354,42.4209500000001,4515.0,Brown Circle Rotary
450,4515,0.5,0.45,16.55,time_period_08,-71.00354,42.4209500000001,4515.0,Brown Circle Rotary
450,4515,0.65,0.3,15.425,time_period_10,-71.00354,42.4209500000001,4515.0,Brown Circle Rotary
450,4515,0.58125,0.49375,14.4,time_period_11,-71.00354,42.4209500000001,4515.0,Brown Circle Rotary
450,4516,0.0,0.0,14.8,time_period_02,-70.980563,42.4493560000001,4516.0,Salem Tnpk @ Ballard St
450,4516,0.0,0.025,8.95,time_period_03,-70.980563,42.4493560000001,4516.0,Salem Tnpk @ Ballard St
450,4516,0.0,0.05,7.575,time_period_04,-70.980563,42.4493560000001,4516.0,Salem Tnpk @ Ballard St
450,4516,0.06,0.22,17.88,time_period_05,-70.980563,42.4493560000001,4516.0,Salem Tnpk @ Ballard St
450,4516,0.02,0.18,18.38,time_period_06,-70.980563,42.4493560000001,4516.0,Salem Tnpk @ Ballard St
450,4516,0.0,0.075,13.725,time_period_07,-70.980563,42.4493560000001,4516.0,Salem Tnpk @ Ballard St
450,4516,0.0,0.2,16.3,time_period_08,-70.980563,42.4493560000001,4516.0,Salem Tnpk @ Ballard St
450,4516,0.03125,0.15,15.05,time_period_10,-70.980563,42.4493560000001,4516.0,Salem Tnpk @ Ballard St
450,4516,0.025,0.09375,14.3375,time_period_11,-70.980563,42.4493560000001,4516.0,Salem Tnpk @ Ballard St
450,4518,1.0,1.8,14.0,time_period_02,-70.975717,42.453688,4518.0,Western Ave opp Cooper St
450,4518,0.025,0.325,8.675,time_period_03,-70.975717,42.453688,4518.0,Western Ave opp Cooper St
450,4518,0.0625,0.0625,7.575,time_period_04,-70.975717,42.453688,4518.0,Western Ave opp Cooper St
450,4518,0.24,0.2,17.9,time_period_05,-70.975717,42.453688,4518.0,Western Ave opp Cooper St
450,4518,0.1,0.16,18.34,time_period_06,-70.975717,42.453688,4518.0,Western Ave opp Cooper St
450,4518,0.175,0.1,13.8,time_period_07,-70.975717,42.453688,4518.0,Western Ave opp Cooper St
450,4518,0.1,0.1,16.35,time_period_08,-70.975717,42.453688,4518.0,Western Ave opp Cooper St
450,4518,0.15,0.15,15.05625,time_period_10,-70.975717,42.453688,4518.0,Western Ave opp Cooper St
450,4518,0.04375,0.13125,14.23125,time_period_11,-70.975717,42.453688,4518.0,Western Ave opp Cooper St
450,4520,1.86666666666667,0.0,1.93333333333333,time_period_01,-70.974024,42.45513,4520.0,Western Ave opp Lynn Garage
450,4520,0.0,0.5,13.5,time_period_02,-70.974024,42.45513,4520.0,Western Ave opp Lynn Garage
450,4520,3.15,0.0,3.25,time_period_02,-70.974024,42.45513,4520.0,Western Ave opp Lynn Garage
450,4520,0.35,0.35,8.675,time_period_03,-70.974024,42.45513,4520.0,Western Ave opp Lynn Garage
450,4520,0.7,0.65,7.65,time_period_04,-70.974024,42.45513,4520.0,Western Ave opp Lynn Garage
450,4520,0.1,0.14,17.84,time_period_05,-70.974024,42.45513,4520.0,Western Ave opp Lynn Garage
450,4520,0.14,0.18,18.3,time_period_06,-70.974024,42.45513,4520.0,Western Ave opp Lynn Garage
450,4520,0.05,0.125,13.725,time_period_07,-70.974024,42.45513,4520.0,Western Ave opp Lynn Garage
450,4520,0.05,0.1,16.35,time_period_08,-70.974024,42.45513,4520.0,Western Ave opp Lynn Garage
450,4520,0.425,0.55625,14.90625,time_period_10,-70.974024,42.45513,4520.0,Western Ave opp Lynn Garage
450,4520,2.5,0.0,2.6,time_period_10,-70.974024,42.45513,4520.0,Western Ave opp Lynn Garage
450,4520,0.38125,0.5875,14.03125,time_period_11,-70.974024,42.45513,4520.0,Western Ave opp Lynn Garage
450,45211,0.8,0.533333333333333,2.33333333333333,time_period_01,-70.9730479999999,42.456007,45211.0,Western Ave opp Ida St
450,45211,0.0,0.1,13.4,time_period_02,-70.9730479999999,42.456007,45211.0,Western Ave opp Ida St
450,45211,2.9,1.0,5.35,time_period_02,-70.9730479999999,42.456007,45211.0,Western Ave opp Ida St
450,45211,0.125,0.35,8.45,time_period_03,-70.9730479999999,42.456007,45211.0,Western Ave opp Ida St
450,45211,0.05,0.0375,7.65,time_period_04,-70.9730479999999,42.456007,45211.0,Western Ave opp Ida St
450,45211,0.28,0.06,18.04,time_period_05,-70.9730479999999,42.456007,45211.0,Western Ave opp Ida St
450,45211,0.04,0.14,18.22,time_period_06,-70.9730479999999,42.456007,45211.0,Western Ave opp Ida St
450,45211,0.025,0.1,13.7,time_period_07,-70.9730479999999,42.456007,45211.0,Western Ave opp Ida St
450,45211,0.0,0.05,16.2,time_period_08,-70.9730479999999,42.456007,45211.0,Western Ave opp Ida St
450,45211,0.11875,0.10625,14.94375,time_period_10,-70.9730479999999,42.456007,45211.0,Western Ave opp Ida St
450,45211,0.8,0.45,3.15,time_period_10,-70.9730479999999,42.456007,45211.0,Western Ave opp Ida St
450,45211,0.08125,0.06875,14.05,time_period_11,-70.9730479999999,42.456007,45211.0,Western Ave opp Ida St
450,4521,0.266666666666667,0.0,2.63333333333333,time_period_01,-70.9712749999999,42.457568,4521.0,Western Ave @ Minot St
450,4521,0.6,0.1,13.9,time_period_02,-70.9712749999999,42.457568,4521.0,Western Ave @ Minot St
450,4521,0.25,0.0,5.65,time_period_02,-70.9712749999999,42.457568,4521.0,Western Ave @ Minot St
450,4521,0.275,0.375,8.325,time_period_03,-70.9712749999999,42.457568,4521.0,Western Ave @ Minot St
450,4521,0.125,0.2,7.55,time_period_04,-70.9712749999999,42.457568,4521.0,Western Ave @ Minot St
450,4521,0.16,0.46,17.76,time_period_05,-70.9712749999999,42.457568,4521.0,Western Ave @ Minot St
450,4521,0.12,0.54,17.8,time_period_06,-70.9712749999999,42.457568,4521.0,Western Ave @ Minot St
450,4521,0.025,0.35,13.375,time_period_07,-70.9712749999999,42.457568,4521.0,Western Ave @ Minot St
450,4521,0.05,0.2,16.05,time_period_08,-70.9712749999999,42.457568,4521.0,Western Ave @ Minot St
450,4521,0.19375,0.4375,14.69375,time_period_10,-70.9712749999999,42.457568,4521.0,Western Ave @ Minot St
450,4521,0.35,0.05,3.5,time_period_10,-70.9712749999999,42.457568,4521.0,Western Ave @ Minot St
450,4521,0.08125,0.5125,13.6125,time_period_11,-70.9712749999999,42.457568,4521.0,Western Ave @ Minot St
450,4522,1.06666666666667,0.0,3.7,time_period_01,-70.969956,42.458675,4522.0,Western Ave @ Summer St
450,4522,1.0,0.0,14.9,time_period_02,-70.969956,42.458675,4522.0,Western Ave @ Summer St
450,4522,1.55,0.0,7.25,time_period_02,-70.969956,42.458675,4522.0,Western Ave @ Summer St
450,4522,1.175,0.15,9.4,time_period_03,-70.969956,42.458675,4522.0,Western Ave @ Summer St
450,4522,0.575,0.4125,7.7125,time_period_04,-70.969956,42.458675,4522.0,Western Ave @ Summer St
450,4522,0.88,0.84,17.82,time_period_05,-70.969956,42.458675,4522.0,Western Ave @ Summer St
450,4522,0.42,1.16,17.08,time_period_06,-70.969956,42.458675,4522.0,Western Ave @ Summer St
450,4522,0.425,1.175,12.675,time_period_07,-70.969956,42.458675,4522.0,Western Ave @ Summer St
450,4522,0.3,0.6,15.75,time_period_08,-70.969956,42.458675,4522.0,Western Ave @ Summer St
450,4522,0.89375,1.1,14.4875,time_period_10,-70.969956,42.458675,4522.0,Western Ave @ Summer St
450,4522,1.55,0.05,4.9,time_period_10,-70.969956,42.458675,4522.0,Western Ave @ Summer St
450,4522,0.69375,1.05,13.24375,time_period_11,-70.969956,42.458675,4522.0,Western Ave @ Summer St
450,4523,0.233333333333333,0.0,3.93333333333333,time_period_01,-70.967777,42.460699,4523.0,Western Ave @ Walden St
450,4523,0.6,0.0,15.5,time_period_02,-70.967777,42.460699,4523.0,Western Ave @ Walden St
450,4523,0.05,0.0,7.3,time_period_02,-70.967777,42.460699,4523.0,Western Ave @ Walden St
450,4523,0.8,0.2,9.975,time_period_03,-70.967777,42.460699,4523.0,Western Ave @ Walden St
450,4523,0.35,0.225,7.8375,time_period_04,-70.967777,42.460699,4523.0,Western Ave @ Walden St
450,4523,0.42,0.46,17.74,time_period_05,-70.967777,42.460699,4523.0,Western Ave @ Walden St
450,4523,0.18,0.34,16.92,time_period_06,-70.967777,42.460699,4523.0,Western Ave @ Walden St
450,4523,0.025,0.45,12.275,time_period_07,-70.967777,42.460699,4523.0,Western Ave @ Walden St
450,4523,0.0,0.1,15.7,time_period_08,-70.967777,42.460699,4523.0,Western Ave @ Walden St
450,4523,0.4375,0.53125,14.4,time_period_10,-70.967777,42.460699,4523.0,Western Ave @ Walden St
450,4523,0.5,0.05,5.4,time_period_10,-70.967777,42.460699,4523.0,Western Ave @ Walden St
450,4523,0.40625,0.5375,13.1,time_period_11,-70.967777,42.460699,4523.0,Western Ave @ Walden St
450,4524,0.0333333333333333,0.0,3.96666666666667,time_period_01,-70.966197,42.462157,4524.0,760 Western Ave
450,4524,0.2,0.0,15.6,time_period_02,-70.966197,42.462157,4524.0,760 Western Ave
450,4524,0.1,0.0,7.4,time_period_02,-70.966197,42.462157,4524.0,760 Western Ave
450,4524,0.4,0.125,10.275,time_period_03,-70.966197,42.462157,4524.0,760 Western Ave
450,4524,0.2,0.15,7.875,time_period_04,-70.966197,42.462157,4524.0,760 Western Ave
450,4524,0.38,0.44,17.68,time_period_05,-70.966197,42.462157,4524.0,760 Western Ave
450,4524,0.12,0.22,16.8,time_period_06,-70.966197,42.462157,4524.0,760 Western Ave
450,4524,0.05,0.15,12.175,time_period_07,-70.966197,42.462157,4524.0,760 Western Ave
450,4524,0.0,0.0,15.7,time_period_08,-70.966197,42.462157,4524.0,760 Western Ave
450,4524,0.26875,0.23125,14.45,time_period_10,-70.966197,42.462157,4524.0,760 Western Ave
450,4524,0.15,0.0,5.55,time_period_10,-70.966197,42.462157,4524.0,760 Western Ave
450,4524,0.275,0.3,13.0875,time_period_11,-70.966197,42.462157,4524.0,760 Western Ave
450,4527,1.06666666666667,0.0,5.03333333333333,time_period_01,-70.964687,42.4632320000001,4527.0,Western Ave @ Market Square
450,4527,4.0,1.0,18.6,time_period_02,-70.964687,42.4632320000001,4527.0,Western Ave @ Market Square
450,4527,2.4,0.0,9.8,time_period_02,-70.964687,42.4632320000001,4527.0,Western Ave @ Market Square
450,4527,2.225,0.75,12.025,time_period_03,-70.964687,42.4632320000001,4527.0,Western Ave @ Market Square
450,4527,1.3125,0.5875,8.6,time_period_04,-70.964687,42.4632320000001,4527.0,Western Ave @ Market Square
450,4527,2.16,1.86,17.94,time_period_05,-70.964687,42.4632320000001,4527.0,Western Ave @ Market Square
450,4527,0.86,1.82,15.86,time_period_06,-70.964687,42.4632320000001,4527.0,Western Ave @ Market Square
450,4527,0.525,0.775,11.95,time_period_07,-70.964687,42.4632320000001,4527.0,Western Ave @ Market Square
450,4527,0.4,0.9,15.25,time_period_08,-70.964687,42.4632320000001,4527.0,Western Ave @ Market Square
450,4527,1.45,1.2375,14.66875,time_period_10,-70.964687,42.4632320000001,4527.0,Western Ave @ Market Square
450,4527,2.5,0.0,8.0,time_period_10,-70.964687,42.4632320000001,4527.0,Western Ave @ Market Square
450,4527,1.2875,1.4125,12.98125,time_period_11,-70.964687,42.4632320000001,4527.0,Western Ave @ Market Square
450,4528,0.2,0.0,5.23333333333333,time_period_01,-70.962324,42.465172,4528.0,Western Ave opp Barrett St
450,4528,1.0,0.3,19.3,time_period_02,-70.962324,42.465172,4528.0,Western Ave opp Barrett St
450,4528,0.8,0.0,10.6,time_period_02,-70.962324,42.465172,4528.0,Western Ave opp Barrett St
450,4528,1.0,0.125,12.9,time_period_03,-70.962324,42.465172,4528.0,Western Ave opp Barrett St
450,4528,0.375,0.1875,8.8,time_period_04,-70.962324,42.465172,4528.0,Western Ave opp Barrett St
450,4528,0.76,0.66,18.04,time_period_05,-70.962324,42.465172,4528.0,Western Ave opp Barrett St
450,4528,0.1,0.96,14.96,time_period_06,-70.962324,42.465172,4528.0,Western Ave opp Barrett St
450,4528,0.075,0.6,11.425,time_period_07,-70.962324,42.465172,4528.0,Western Ave opp Barrett St
450,4528,0.05,0.5,14.8,time_period_08,-70.962324,42.465172,4528.0,Western Ave opp Barrett St
450,4528,0.68125,0.34375,15.0,time_period_10,-70.962324,42.465172,4528.0,Western Ave opp Barrett St
450,4528,1.0,0.0,9.0,time_period_10,-70.962324,42.465172,4528.0,Western Ave opp Barrett St
450,4528,0.49375,0.3875,13.09375,time_period_11,-70.962324,42.465172,4528.0,Western Ave opp Barrett St
450,4529,0.0333333333333333,0.0,5.26666666666667,time_period_01,-70.961686,42.465737,4529.0,Western Ave @ Park St
450,4529,0.7,0.0,20.0,time_period_02,-70.961686,42.465737,4529.0,Western Ave @ Park St
450,4529,0.2,0.0,10.8,time_period_02,-70.961686,42.465737,4529.0,Western Ave @ Park St
450,4529,0.275,0.025,13.125,time_period_03,-70.961686,42.465737,4529.0,Western Ave @ Park St
450,4529,0.0625,0.0375,8.7625,time_period_04,-70.961686,42.465737,4529.0,Western Ave @ Park St
450,4529,0.02,0.06,18.02,time_period_05,-70.961686,42.465737,4529.0,Western Ave @ Park St
450,4529,0.0,0.22,14.74,time_period_06,-70.961686,42.465737,4529.0,Western Ave @ Park St
450,4529,0.125,0.15,11.375,time_period_07,-70.961686,42.465737,4529.0,Western Ave @ Park St
450,4529,0.0,0.1,14.8,time_period_08,-70.961686,42.465737,4529.0,Western Ave @ Park St
450,4529,0.125,0.0875,15.0375,time_period_10,-70.961686,42.465737,4529.0,Western Ave @ Park St
450,4529,0.2,0.0,9.2,time_period_10,-70.961686,42.465737,4529.0,Western Ave @ Park St
450,4529,0.10625,0.125,13.0875,time_period_11,-70.961686,42.465737,4529.0,Western Ave @ Park St
450,4530,0.0333333333333333,0.0,5.3,time_period_01,-70.9599719999999,42.467158,4530.0,Western Ave @ Brimblecom St
450,4530,3.4,0.0,23.4,time_period_02,-70.9599719999999,42.467158,4530.0,Western Ave @ Brimblecom St
450,4530,0.85,0.0,11.6,time_period_02,-70.9599719999999,42.467158,4530.0,Western Ave @ Brimblecom St
450,4530,1.175,0.175,14.1,time_period_03,-70.9599719999999,42.467158,4530.0,Western Ave @ Brimblecom St
450,4530,0.3875,0.225,8.9375,time_period_04,-70.9599719999999,42.467158,4530.0,Western Ave @ Brimblecom St
450,4530,0.76,0.92,17.88,time_period_05,-70.9599719999999,42.467158,4530.0,Western Ave @ Brimblecom St
450,4530,0.18,0.54,14.38,time_period_06,-70.9599719999999,42.467158,4530.0,Western Ave @ Brimblecom St
450,4530,0.075,0.3,11.2,time_period_07,-70.9599719999999,42.467158,4530.0,Western Ave @ Brimblecom St
450,4530,0.1,0.55,14.35,time_period_08,-70.9599719999999,42.467158,4530.0,Western Ave @ Brimblecom St
450,4530,0.75625,0.675,15.14375,time_period_10,-70.9599719999999,42.467158,4530.0,Western Ave @ Brimblecom St
450,4530,0.35,0.0,9.55,time_period_10,-70.9599719999999,42.467158,4530.0,Western Ave @ Brimblecom St
450,4530,0.525,0.54375,13.05625,time_period_11,-70.9599719999999,42.467158,4530.0,Western Ave @ Brimblecom St
450,4531,0.533333333333333,0.0,5.83333333333333,time_period_01,-70.958405,42.468438,4531.0,Western Ave @ Franklin St
450,4531,1.7,0.8,24.3,time_period_02,-70.958405,42.468438,4531.0,Western Ave @ Franklin St
450,4531,0.65,0.4,11.9,time_period_02,-70.958405,42.468438,4531.0,Western Ave @ Franklin St
450,4531,1.425,0.375,15.125,time_period_03,-70.958405,42.468438,4531.0,Western Ave @ Franklin St
450,4531,0.45,0.3875,9.0125,time_period_04,-70.958405,42.468438,4531.0,Western Ave @ Franklin St
450,4531,0.78,0.92,17.72,time_period_05,-70.958405,42.468438,4531.0,Western Ave @ Franklin St
450,4531,0.28,1.2,13.46,time_period_06,-70.958405,42.468438,4531.0,Western Ave @ Franklin St
450,4531,0.25,0.575,10.825,time_period_07,-70.958405,42.468438,4531.0,Western Ave @ Franklin St
450,4531,0.1,0.5,13.9,time_period_08,-70.958405,42.468438,4531.0,Western Ave @ Franklin St
450,4531,0.5875,0.73125,14.98125,time_period_10,-70.958405,42.468438,4531.0,Western Ave @ Franklin St
450,4531,0.55,0.0,10.1,time_period_10,-70.958405,42.468438,4531.0,Western Ave @ Franklin St
450,4531,0.58125,0.66875,12.99375,time_period_11,-70.958405,42.468438,4531.0,Western Ave @ Franklin St
450,4532,0.766666666666667,0.266666666666667,6.3,time_period_01,-70.956926,42.4696680000001,4532.0,Western Ave @ Washington St
450,4532,2.2,0.2,26.3,time_period_02,-70.956926,42.4696680000001,4532.0,Western Ave @ Washington St
450,4532,1.05,0.05,12.85,time_period_02,-70.956926,42.4696680000001,4532.0,Western Ave @ Washington St
450,4532,1.5,0.45,16.175,time_period_03,-70.956926,42.4696680000001,4532.0,Western Ave @ Washington St
450,4532,0.925,0.6125,9.325,time_period_04,-70.956926,42.4696680000001,4532.0,Western Ave @ Washington St
450,4532,1.5,1.4,17.82,time_period_05,-70.956926,42.4696680000001,4532.0,Western Ave @ Washington St
450,4532,0.56,0.96,13.04,time_period_06,-70.956926,42.4696680000001,4532.0,Western Ave @ Washington St
450,4532,0.4,0.625,10.625,time_period_07,-70.956926,42.4696680000001,4532.0,Western Ave @ Washington St
450,4532,0.7,1.75,12.85,time_period_08,-70.956926,42.4696680000001,4532.0,Western Ave @ Washington St
450,4532,1.25625,1.125,15.1125,time_period_10,-70.956926,42.4696680000001,4532.0,Western Ave @ Washington St
450,4532,1.3,0.15,11.35,time_period_10,-70.956926,42.4696680000001,4532.0,Western Ave @ Washington St
450,4532,1.2875,0.98125,13.28125,time_period_11,-70.956926,42.4696680000001,4532.0,Western Ave @ Washington St
450,7246,0.633333333333333,0.0,6.93333333333333,time_period_01,-70.955235,42.471057,7246.0,Western Ave @ Lawton Ave
450,7246,2.6,0.1,28.9,time_period_02,-70.955235,42.471057,7246.0,Western Ave @ Lawton Ave
450,7246,2.0,0.0,14.85,time_period_02,-70.955235,42.471057,7246.0,Western Ave @ Lawton Ave
450,7246,1.025,0.075,17.125,time_period_03,-70.955235,42.471057,7246.0,Western Ave @ Lawton Ave
450,7246,0.325,0.2,9.4625,time_period_04,-70.955235,42.471057,7246.0,Western Ave @ Lawton Ave
450,7246,0.76,0.56,18.0,time_period_05,-70.955235,42.471057,7246.0,Western Ave @ Lawton Ave
450,7246,0.18,0.74,12.46,time_period_06,-70.955235,42.471057,7246.0,Western Ave @ Lawton Ave
450,7246,0.05,0.325,10.325,time_period_07,-70.955235,42.471057,7246.0,Western Ave @ Lawton Ave
450,7246,0.0,0.4,12.4,time_period_08,-70.955235,42.471057,7246.0,Western Ave @ Lawton Ave
450,7246,0.66875,0.34375,15.4375,time_period_10,-70.955235,42.471057,7246.0,Western Ave @ Lawton Ave
450,7246,2.0,0.0,13.35,time_period_10,-70.955235,42.471057,7246.0,Western Ave @ Lawton Ave
450,7246,0.49375,0.2375,13.54375,time_period_11,-70.955235,42.471057,7246.0,Western Ave @ Lawton Ave
450,7247,0.0,0.0,6.93333333333333,time_period_01,-70.954444,42.4717180000001,7247.0,Western Ave @ Bellair St
450,7247,2.1,0.1,30.9,time_period_02,-70.954444,42.4717180000001,7247.0,Western Ave @ Bellair St
450,7247,0.0,0.0,14.85,time_period_02,-70.954444,42.4717180000001,7247.0,Western Ave @ Bellair St
450,7247,0.075,0.025,17.2,time_period_03,-70.954444,42.4717180000001,7247.0,Western Ave @ Bellair St
450,7247,0.075,0.05,9.4875,time_period_04,-70.954444,42.4717180000001,7247.0,Western Ave @ Bellair St
450,7247,0.1,0.22,17.88,time_period_05,-70.954444,42.4717180000001,7247.0,Western Ave @ Bellair St
450,7247,0.04,0.34,12.2,time_period_06,-70.954444,42.4717180000001,7247.0,Western Ave @ Bellair St
450,7247,0.05,0.325,10.05,time_period_07,-70.954444,42.4717180000001,7247.0,Western Ave @ Bellair St
450,7247,0.0,0.2,12.2,time_period_08,-70.954444,42.4717180000001,7247.0,Western Ave @ Bellair St
450,7247,0.05625,0.15,15.35625,time_period_10,-70.954444,42.4717180000001,7247.0,Western Ave @ Bellair St
450,7247,0.1,0.1,13.35,time_period_10,-70.954444,42.4717180000001,7247.0,Western Ave @ Bellair St
450,7247,0.0875,0.04375,13.59375,time_period_11,-70.954444,42.4717180000001,7247.0,Western Ave @ Bellair St
450,7248,0.0,0.0,6.93333333333333,time_period_01,-70.95363,42.4723890000001,7248.0,Western Ave @ Nichols Ave
450,7248,0.0,0.0,30.9,time_period_02,-70.95363,42.4723890000001,7248.0,Western Ave @ Nichols Ave
450,7248,0.0,0.0,14.85,time_period_02,-70.95363,42.4723890000001,7248.0,Western Ave @ Nichols Ave
450,7248,0.0,0.0,17.2,time_period_03,-70.95363,42.4723890000001,7248.0,Western Ave @ Nichols Ave
450,7248,0.0,0.0,9.4875,time_period_04,-70.95363,42.4723890000001,7248.0,Western Ave @ Nichols Ave
450,7248,0.02,0.0,17.88,time_period_05,-70.95363,42.4723890000001,7248.0,Western Ave @ Nichols Ave
450,7248,0.0,0.0,12.2,time_period_06,-70.95363,42.4723890000001,7248.0,Western Ave @ Nichols Ave
450,7248,0.0,0.0,10.05,time_period_07,-70.95363,42.4723890000001,7248.0,Western Ave @ Nichols Ave
450,7248,0.0,0.0,12.2,time_period_08,-70.95363,42.4723890000001,7248.0,Western Ave @ Nichols Ave
450,7248,0.0,0.0125,15.34375,time_period_10,-70.95363,42.4723890000001,7248.0,Western Ave @ Nichols Ave
450,7248,0.0,0.0,13.35,time_period_10,-70.95363,42.4723890000001,7248.0,Western Ave @ Nichols Ave
450,7248,0.0,0.0,13.59375,time_period_11,-70.95363,42.4723890000001,7248.0,Western Ave @ Nichols Ave
450,7249,0.266666666666667,0.0666666666666667,7.16666666666667,time_period_01,-70.952218,42.473666,7249.0,Western Ave @ Bayview Ave
450,7249,0.5,0.1,31.3,time_period_02,-70.952218,42.473666,7249.0,Western Ave @ Bayview Ave
450,7249,0.85,0.0,15.75,time_period_02,-70.952218,42.473666,7249.0,Western Ave @ Bayview Ave
450,7249,0.35,0.15,17.4,time_period_03,-70.952218,42.473666,7249.0,Western Ave @ Bayview Ave
450,7249,0.125,0.3625,9.2625,time_period_04,-70.952218,42.473666,7249.0,Western Ave @ Bayview Ave
450,7249,0.42,0.62,17.64,time_period_05,-70.952218,42.473666,7249.0,Western Ave @ Bayview Ave
450,7249,0.02,0.48,11.76,time_period_06,-70.952218,42.473666,7249.0,Western Ave @ Bayview Ave
450,7249,0.1,0.425,9.675,time_period_07,-70.952218,42.473666,7249.0,Western Ave @ Bayview Ave
450,7249,0.0,0.55,11.65,time_period_08,-70.952218,42.473666,7249.0,Western Ave @ Bayview Ave
450,7249,0.28125,0.4875,15.14375,time_period_10,-70.952218,42.473666,7249.0,Western Ave @ Bayview Ave
450,7249,0.25,0.05,13.55,time_period_10,-70.952218,42.473666,7249.0,Western Ave @ Bayview Ave
450,7249,0.2875,0.5,13.3625,time_period_11,-70.952218,42.473666,7249.0,Western Ave @ Bayview Ave
450,7250,0.0,0.0,7.16666666666667,time_period_01,-70.9508939999999,42.475043,7250.0,Western Ave @ Linden Terr
450,7250,0.0,0.0,31.3,time_period_02,-70.9508939999999,42.475043,7250.0,Western Ave @ Linden Terr
450,7250,0.0,0.0,15.75,time_period_02,-70.9508939999999,42.475043,7250.0,Western Ave @ Linden Terr
450,7250,0.2,0.15,17.425,time_period_03,-70.9508939999999,42.475043,7250.0,Western Ave @ Linden Terr
450,7250,0.025,0.0375,9.25,time_period_04,-70.9508939999999,42.475043,7250.0,Western Ave @ Linden Terr
450,7250,0.18,0.46,17.38,time_period_05,-70.9508939999999,42.475043,7250.0,Western Ave @ Linden Terr
450,7250,0.02,0.14,11.66,time_period_06,-70.9508939999999,42.475043,7250.0,Western Ave @ Linden Terr
450,7250,0.0,0.075,9.625,time_period_07,-70.9508939999999,42.475043,7250.0,Western Ave @ Linden Terr
450,7250,0.0,0.05,11.6,time_period_08,-70.9508939999999,42.475043,7250.0,Western Ave @ Linden Terr
450,7250,0.06875,0.10625,15.10625,time_period_10,-70.9508939999999,42.475043,7250.0,Western Ave @ Linden Terr
450,7250,0.0,0.05,13.5,time_period_10,-70.9508939999999,42.475043,7250.0,Western Ave @ Linden Terr
450,7250,0.0625,0.1125,13.3375,time_period_11,-70.9508939999999,42.475043,7250.0,Western Ave @ Linden Terr
450,7251,0.0666666666666667,0.0,7.23333333333333,time_period_01,-70.9500889999999,42.475895,7251.0,Western Ave @ Rockingham St
450,7251,0.6,0.0,31.9,time_period_02,-70.9500889999999,42.475895,7251.0,Western Ave @ Rockingham St
450,7251,0.05,0.0,15.75,time_period_02,-70.9500889999999,42.475895,7251.0,Western Ave @ Rockingham St
450,7251,0.025,0.05,17.4,time_period_03,-70.9500889999999,42.475895,7251.0,Western Ave @ Rockingham St
450,7251,0.0375,0.175,9.0875,time_period_04,-70.9500889999999,42.475895,7251.0,Western Ave @ Rockingham St
450,7251,0.14,0.34,17.16,time_period_05,-70.9500889999999,42.475895,7251.0,Western Ave @ Rockingham St
450,7251,0.0,0.36,11.3,time_period_06,-70.9500889999999,42.475895,7251.0,Western Ave @ Rockingham St
450,7251,0.025,0.4,9.225,time_period_07,-70.9500889999999,42.475895,7251.0,Western Ave @ Rockingham St
450,7251,0.0,0.1,11.55,time_period_08,-70.9500889999999,42.475895,7251.0,Western Ave @ Rockingham St
450,7251,0.1375,0.21875,15.025,time_period_10,-70.9500889999999,42.475895,7251.0,Western Ave @ Rockingham St
450,7251,0.05,0.05,13.5,time_period_10,-70.9500889999999,42.475895,7251.0,Western Ave @ Rockingham St
450,7251,0.11875,0.2375,13.19375,time_period_11,-70.9500889999999,42.475895,7251.0,Western Ave @ Rockingham St
450,7252,0.4,0.233333333333333,7.4,time_period_01,-70.9489599999999,42.477064,7252.0,Western Ave @ Chestnut St
450,7252,1.6,3.9,29.6,time_period_02,-70.9489599999999,42.477064,7252.0,Western Ave @ Chestnut St
450,7252,1.5,0.25,17.0,time_period_02,-70.9489599999999,42.477064,7252.0,Western Ave @ Chestnut St
450,7252,0.7,0.775,17.35,time_period_03,-70.9489599999999,42.477064,7252.0,Western Ave @ Chestnut St
450,7252,0.425,0.8875,8.625,time_period_04,-70.9489599999999,42.477064,7252.0,Western Ave @ Chestnut St
450,7252,0.8,1.88,16.08,time_period_05,-70.9489599999999,42.477064,7252.0,Western Ave @ Chestnut St
450,7252,0.3,1.2,10.4,time_period_06,-70.9489599999999,42.477064,7252.0,Western Ave @ Chestnut St
450,7252,0.525,1.025,8.725,time_period_07,-70.9489599999999,42.477064,7252.0,Western Ave @ Chestnut St
450,7252,0.1,1.5,10.15,time_period_08,-70.9489599999999,42.477064,7252.0,Western Ave @ Chestnut St
450,7252,0.55625,0.74375,14.825,time_period_10,-70.9489599999999,42.477064,7252.0,Western Ave @ Chestnut St
450,7252,0.7,0.25,13.95,time_period_10,-70.9489599999999,42.477064,7252.0,Western Ave @ Chestnut St
450,7252,0.325,0.63125,12.875,time_period_11,-70.9489599999999,42.477064,7252.0,Western Ave @ Chestnut St
450,4533,0.0,0.0,7.4,time_period_01,-70.947107,42.479026,4533.0,Western Ave @ West Colony Rd
450,4533,0.9,3.9,26.6,time_period_02,-70.947107,42.479026,4533.0,Western Ave @ West Colony Rd
450,4533,0.3,0.15,17.1,time_period_02,-70.947107,42.479026,4533.0,Western Ave @ West Colony Rd
450,4533,0.45,1.525,16.25,time_period_03,-70.947107,42.479026,4533.0,Western Ave @ West Colony Rd
450,4533,0.175,0.1125,8.6875,time_period_04,-70.947107,42.479026,4533.0,Western Ave @ West Colony Rd
450,4533,0.12,0.68,15.56,time_period_05,-70.947107,42.479026,4533.0,Western Ave @ West Colony Rd
450,4533,0.02,0.24,10.18,time_period_06,-70.947107,42.479026,4533.0,Western Ave @ West Colony Rd
450,4533,0.0,0.675,8.05,time_period_07,-70.947107,42.479026,4533.0,Western Ave @ West Colony Rd
450,4533,0.0,0.75,9.35,time_period_08,-70.947107,42.479026,4533.0,Western Ave @ West Colony Rd
450,4533,0.14375,0.3,14.66875,time_period_10,-70.947107,42.479026,4533.0,Western Ave @ West Colony Rd
450,4533,0.4,0.05,14.25,time_period_10,-70.947107,42.479026,4533.0,Western Ave @ West Colony Rd
450,4533,0.0875,0.23125,12.71875,time_period_11,-70.947107,42.479026,4533.0,Western Ave @ West Colony Rd
450,4534,0.0333333333333333,0.0,7.4,time_period_01,-70.946292,42.4798750000001,4534.0,Western Ave @ Tracy Ave
450,4534,0.1,0.3,26.5,time_period_02,-70.946292,42.4798750000001,4534.0,Western Ave @ Tracy Ave
450,4534,0.0,0.0,17.15,time_period_02,-70.946292,42.4798750000001,4534.0,Western Ave @ Tracy Ave
450,4534,0.15,0.05,16.325,time_period_03,-70.946292,42.4798750000001,4534.0,Western Ave @ Tracy Ave
450,4534,0.075,0.1,8.675,time_period_04,-70.946292,42.4798750000001,4534.0,Western Ave @ Tracy Ave
450,4534,0.34,0.4,15.46,time_period_05,-70.946292,42.4798750000001,4534.0,Western Ave @ Tracy Ave
450,4534,0.02,0.52,9.72,time_period_06,-70.946292,42.4798750000001,4534.0,Western Ave @ Tracy Ave
450,4534,0.0,0.425,7.65,time_period_07,-70.946292,42.4798750000001,4534.0,Western Ave @ Tracy Ave
450,4534,0.0,0.3,9.1,time_period_08,-70.946292,42.4798750000001,4534.0,Western Ave @ Tracy Ave
450,4534,0.1375,0.26875,14.5375,time_period_10,-70.946292,42.4798750000001,4534.0,Western Ave @ Tracy Ave
450,4534,0.3,0.0,14.55,time_period_10,-70.946292,42.4798750000001,4534.0,Western Ave @ Tracy Ave
450,4534,0.20625,0.19375,12.725,time_period_11,-70.946292,42.4798750000001,4534.0,Western Ave @ Tracy Ave
450,4535,0.1,0.0333333333333333,7.5,time_period_01,-70.9452219999999,42.4810140000001,4535.0,Western Ave @ Chatham St
450,4535,0.2,0.2,26.5,time_period_02,-70.9452219999999,42.4810140000001,4535.0,Western Ave @ Chatham St
450,4535,0.35,0.1,17.4,time_period_02,-70.9452219999999,42.4810140000001,4535.0,Western Ave @ Chatham St
450,4535,0.525,0.575,16.275,time_period_03,-70.9452219999999,42.4810140000001,4535.0,Western Ave @ Chatham St
450,4535,0.3,0.4875,8.5,time_period_04,-70.9452219999999,42.4810140000001,4535.0,Western Ave @ Chatham St
450,4535,0.46,1.62,14.3,time_period_05,-70.9452219999999,42.4810140000001,4535.0,Western Ave @ Chatham St
450,4535,0.18,0.92,8.96,time_period_06,-70.9452219999999,42.4810140000001,4535.0,Western Ave @ Chatham St
450,4535,0.1,1.3,6.425,time_period_07,-70.9452219999999,42.4810140000001,4535.0,Western Ave @ Chatham St
450,4535,0.0,1.05,8.1,time_period_08,-70.9452219999999,42.4810140000001,4535.0,Western Ave @ Chatham St
450,4535,0.53125,0.75625,14.31875,time_period_10,-70.9452219999999,42.4810140000001,4535.0,Western Ave @ Chatham St
450,4535,0.2,0.2,14.55,time_period_10,-70.9452219999999,42.4810140000001,4535.0,Western Ave @ Chatham St
450,4535,0.3875,0.6875,12.4,time_period_11,-70.9452219999999,42.4810140000001,4535.0,Western Ave @ Chatham St
450,4537,0.0,0.0,7.5,time_period_01,-70.94221,42.4841500000001,4537.0,Western Ave @ Waitt Ave
450,4537,0.0,0.3,26.2,time_period_02,-70.94221,42.4841500000001,4537.0,Western Ave @ Waitt Ave
450,4537,0.0,0.0,17.4,time_period_02,-70.94221,42.4841500000001,4537.0,Western Ave @ Waitt Ave
450,4537,0.0,0.325,15.975,time_period_03,-70.94221,42.4841500000001,4537.0,Western Ave @ Waitt Ave
450,4537,0.0,0.1,8.4,time_period_04,-70.94221,42.4841500000001,4537.0,Western Ave @ Waitt Ave
450,4537,0.02,0.48,13.84,time_period_05,-70.94221,42.4841500000001,4537.0,Western Ave @ Waitt Ave
450,4537,0.02,0.22,8.8,time_period_06,-70.94221,42.4841500000001,4537.0,Western Ave @ Waitt Ave
450,4537,0.025,0.25,6.25,time_period_07,-70.94221,42.4841500000001,4537.0,Western Ave @ Waitt Ave
450,4537,0.0,0.65,7.4,time_period_08,-70.94221,42.4841500000001,4537.0,Western Ave @ Waitt Ave
450,4537,0.0125,0.3625,13.96875,time_period_10,-70.94221,42.4841500000001,4537.0,Western Ave @ Waitt Ave
450,4537,0.0,0.1,14.45,time_period_10,-70.94221,42.4841500000001,4537.0,Western Ave @ Waitt Ave
450,4537,0.0125,0.2875,12.13125,time_period_11,-70.94221,42.4841500000001,4537.0,Western Ave @ Waitt Ave
450,4538,0.433333333333333,0.0333333333333333,7.9,time_period_01,-70.941406,42.48492,4538.0,Western Ave @ Eastern Ave
450,4538,0.8,0.9,26.1,time_period_02,-70.941406,42.48492,4538.0,Western Ave @ Eastern Ave
450,4538,0.85,0.05,18.15,time_period_02,-70.941406,42.48492,4538.0,Western Ave @ Eastern Ave
450,4538,0.825,0.5,16.3,time_period_03,-70.941406,42.48492,4538.0,Western Ave @ Eastern Ave
450,4538,0.2,0.25,8.35,time_period_04,-70.941406,42.48492,4538.0,Western Ave @ Eastern Ave
450,4538,0.26,0.34,13.78,time_period_05,-70.941406,42.48492,4538.0,Western Ave @ Eastern Ave
450,4538,0.08,0.34,8.52,time_period_06,-70.941406,42.48492,4538.0,Western Ave @ Eastern Ave
450,4538,0.025,0.35,5.875,time_period_07,-70.941406,42.48492,4538.0,Western Ave @ Eastern Ave
450,4538,0.45,0.1,7.7,time_period_08,-70.941406,42.48492,4538.0,Western Ave @ Eastern Ave
450,4538,0.34375,0.4375,13.875,time_period_10,-70.941406,42.48492,4538.0,Western Ave @ Eastern Ave
450,4538,0.7,0.15,15.05,time_period_10,-70.941406,42.48492,4538.0,Western Ave @ Eastern Ave
450,4538,0.24375,0.3125,12.06875,time_period_11,-70.941406,42.48492,4538.0,Western Ave @ Eastern Ave
450,4539,0.0,0.0,7.9,time_period_01,-70.939825,42.486388,4539.0,Western Ave @ Victory Rd
450,4539,0.0,0.0,26.1,time_period_02,-70.939825,42.486388,4539.0,Western Ave @ Victory Rd
450,4539,0.0,0.0,18.15,time_period_02,-70.939825,42.486388,4539.0,Western Ave @ Victory Rd
450,4539,0.0,0.025,16.275,time_period_03,-70.939825,42.486388,4539.0,Western Ave @ Victory Rd
450,4539,0.0,0.0,8.375,time_period_04,-70.939825,42.486388,4539.0,Western Ave @ Victory Rd
450,4539,0.02,0.02,13.8,time_period_05,-70.939825,42.486388,4539.0,Western Ave @ Victory Rd
450,4539,0.0,0.14,8.4,time_period_06,-70.939825,42.486388,4539.0,Western Ave @ Victory Rd
450,4539,0.0,0.0,5.875,time_period_07,-70.939825,42.486388,4539.0,Western Ave @ Victory Rd
450,4539,0.0,0.0,7.7,time_period_08,-70.939825,42.486388,4539.0,Western Ave @ Victory Rd
450,4539,0.025,0.0,13.88125,time_period_10,-70.939825,42.486388,4539.0,Western Ave @ Victory Rd
450,4539,0.0,0.0,15.05,time_period_10,-70.939825,42.486388,4539.0,Western Ave @ Victory Rd
450,4539,0.025,0.01875,12.075,time_period_11,-70.939825,42.486388,4539.0,Western Ave @ Victory Rd
450,4540,0.0,0.0,7.9,time_period_01,-70.938569,42.487557,4540.0,Western Ave @ Fays Ave
450,4540,0.1,0.0,26.1,time_period_02,-70.938569,42.487557,4540.0,Western Ave @ Fays Ave
450,4540,0.05,0.0,18.25,time_period_02,-70.938569,42.487557,4540.0,Western Ave @ Fays Ave
450,4540,0.125,0.525,15.9,time_period_03,-70.938569,42.487557,4540.0,Western Ave @ Fays Ave
450,4540,0.05,0.0625,8.425,time_period_04,-70.938569,42.487557,4540.0,Western Ave @ Fays Ave
450,4540,0.18,0.34,13.62,time_period_05,-70.938569,42.487557,4540.0,Western Ave @ Fays Ave
450,4540,0.06,0.18,8.28,time_period_06,-70.938569,42.487557,4540.0,Western Ave @ Fays Ave
450,4540,0.0,0.15,5.725,time_period_07,-70.938569,42.487557,4540.0,Western Ave @ Fays Ave
450,4540,0.0,0.5,7.25,time_period_08,-70.938569,42.487557,4540.0,Western Ave @ Fays Ave
450,4540,0.13125,0.075,13.93125,time_period_10,-70.938569,42.487557,4540.0,Western Ave @ Fays Ave
450,4540,0.05,0.0,15.1,time_period_10,-70.938569,42.487557,4540.0,Western Ave @ Fays Ave
450,4540,0.08125,0.0625,12.0875,time_period_11,-70.938569,42.487557,4540.0,Western Ave @ Fays Ave
450,4541,0.0,0.0,7.9,time_period_01,-70.937107,42.488927,4541.0,Western Ave @ Buchanan Circle
450,4541,0.0,0.0,26.1,time_period_02,-70.937107,42.488927,4541.0,Western Ave @ Buchanan Circle
450,4541,0.0,0.0,18.25,time_period_02,-70.937107,42.488927,4541.0,Western Ave @ Buchanan Circle
450,4541,0.0,0.1,15.8,time_period_03,-70.937107,42.488927,4541.0,Western Ave @ Buchanan Circle
450,4541,0.0,0.025,8.3875,time_period_04,-70.937107,42.488927,4541.0,Western Ave @ Buchanan Circle
450,4541,0.04,0.24,13.38,time_period_05,-70.937107,42.488927,4541.0,Western Ave @ Buchanan Circle
450,4541,0.0,0.2,8.1,time_period_06,-70.937107,42.488927,4541.0,Western Ave @ Buchanan Circle
450,4541,0.0,0.025,5.7,time_period_07,-70.937107,42.488927,4541.0,Western Ave @ Buchanan Circle
450,4541,0.0,0.05,7.2,time_period_08,-70.937107,42.488927,4541.0,Western Ave @ Buchanan Circle
450,4541,0.0375,0.0375,13.93125,time_period_10,-70.937107,42.488927,4541.0,Western Ave @ Buchanan Circle
450,4541,0.0,0.0,15.1,time_period_10,-70.937107,42.488927,4541.0,Western Ave @ Buchanan Circle
450,4541,0.0375,0.00625,12.1125,time_period_11,-70.937107,42.488927,4541.0,Western Ave @ Buchanan Circle
450,4544,0.0,0.4,7.46666666666667,time_period_01,-70.933418,42.4947780000001,4544.0,Highland Ave opp Walmart
450,4544,0.1,0.3,26.0,time_period_02,-70.933418,42.4947780000001,4544.0,Highland Ave opp Walmart
450,4544,0.0,0.45,17.8,time_period_02,-70.933418,42.4947780000001,4544.0,Highland Ave opp Walmart
450,4544,0.075,0.5,15.35,time_period_03,-70.933418,42.4947780000001,4544.0,Highland Ave opp Walmart
450,4544,0.25,0.875,7.7625,time_period_04,-70.933418,42.4947780000001,4544.0,Highland Ave opp Walmart
450,4544,0.2,0.78,12.74,time_period_05,-70.933418,42.4947780000001,4544.0,Highland Ave opp Walmart
450,4544,0.22,0.52,7.8,time_period_06,-70.933418,42.4947780000001,4544.0,Highland Ave opp Walmart
450,4544,0.075,0.65,5.125,time_period_07,-70.933418,42.4947780000001,4544.0,Highland Ave opp Walmart
450,4544,0.05,0.05,7.25,time_period_08,-70.933418,42.4947780000001,4544.0,Highland Ave opp Walmart
450,4544,0.3,1.2,13.0375,time_period_10,-70.933418,42.4947780000001,4544.0,Highland Ave opp Walmart
450,4544,0.05,0.3,14.85,time_period_10,-70.933418,42.4947780000001,4544.0,Highland Ave opp Walmart
450,4544,0.21875,1.21875,11.09375,time_period_11,-70.933418,42.4947780000001,4544.0,Highland Ave opp Walmart
450,14544,0.0,0.0,7.46666666666667,time_period_01,-70.9322339999999,42.496068,14544.0,Highland Ave opp Olde Village Dr
450,14544,0.0,0.3,25.7,time_period_02,-70.9322339999999,42.496068,14544.0,Highland Ave opp Olde Village Dr
450,14544,0.5,0.15,18.1,time_period_02,-70.9322339999999,42.496068,14544.0,Highland Ave opp Olde Village Dr
450,14544,0.0,0.1,15.3,time_period_03,-70.9322339999999,42.496068,14544.0,Highland Ave opp Olde Village Dr
450,14544,0.05,0.075,7.7625,time_period_04,-70.9322339999999,42.496068,14544.0,Highland Ave opp Olde Village Dr
450,14544,0.02,0.02,12.76,time_period_05,-70.9322339999999,42.496068,14544.0,Highland Ave opp Olde Village Dr
450,14544,0.0,0.02,7.78,time_period_06,-70.9322339999999,42.496068,14544.0,Highland Ave opp Olde Village Dr
450,14544,0.0,0.0,5.125,time_period_07,-70.9322339999999,42.496068,14544.0,Highland Ave opp Olde Village Dr
450,14544,0.0,0.0,7.2,time_period_08,-70.9322339999999,42.496068,14544.0,Highland Ave opp Olde Village Dr
450,14544,0.075,0.0875,13.03125,time_period_10,-70.9322339999999,42.496068,14544.0,Highland Ave opp Olde Village Dr
450,14544,0.0,0.1,14.75,time_period_10,-70.9322339999999,42.496068,14544.0,Highland Ave opp Olde Village Dr
450,14544,0.0125,0.00625,11.1,time_period_11,-70.9322339999999,42.496068,14544.0,Highland Ave opp Olde Village Dr
450,4546,0.0,0.0666666666666667,7.43333333333333,time_period_01,-70.9302479999999,42.4978770000001,4546.0,Highland Ave @ Cedar Rd
450,4546,0.9,0.0,26.5,time_period_02,-70.9302479999999,42.4978770000001,4546.0,Highland Ave @ Cedar Rd
450,4546,0.0,0.0,18.1,time_period_02,-70.9302479999999,42.4978770000001,4546.0,Highland Ave @ Cedar Rd
450,4546,0.175,0.075,15.4,time_period_03,-70.9302479999999,42.4978770000001,4546.0,Highland Ave @ Cedar Rd
450,4546,0.0375,0.025,7.725,time_period_04,-70.9302479999999,42.4978770000001,4546.0,Highland Ave @ Cedar Rd
450,4546,0.04,0.12,12.68,time_period_05,-70.9302479999999,42.4978770000001,4546.0,Highland Ave @ Cedar Rd
450,4546,0.08,0.12,7.74,time_period_06,-70.9302479999999,42.4978770000001,4546.0,Highland Ave @ Cedar Rd
450,4546,0.0,0.025,5.1,time_period_07,-70.9302479999999,42.4978770000001,4546.0,Highland Ave @ Cedar Rd
450,4546,0.0,0.55,6.65,time_period_08,-70.9302479999999,42.4978770000001,4546.0,Highland Ave @ Cedar Rd
450,4546,0.03125,0.1,12.95625,time_period_10,-70.9302479999999,42.4978770000001,4546.0,Highland Ave @ Cedar Rd
450,4546,0.15,0.1,14.85,time_period_10,-70.9302479999999,42.4978770000001,4546.0,Highland Ave @ Cedar Rd
450,4546,0.03125,0.125,11.0125,time_period_11,-70.9302479999999,42.4978770000001,4546.0,Highland Ave @ Cedar Rd
450,4547,0.0,1.46666666666667,6.0,time_period_01,-70.925305,42.5015980000001,4547.0,Highland Ave @ Greenledge St
450,4547,0.2,3.6,23.1,time_period_02,-70.925305,42.5015980000001,4547.0,Highland Ave @ Greenledge St
450,4547,0.1,1.65,16.6,time_period_02,-70.925305,42.5015980000001,4547.0,Highland Ave @ Greenledge St
450,4547,0.125,2.875,12.625,time_period_03,-70.925305,42.5015980000001,4547.0,Highland Ave @ Greenledge St
450,4547,0.1,0.75,7.05,time_period_04,-70.925305,42.5015980000001,4547.0,Highland Ave @ Greenledge St
450,4547,0.16,1.54,11.28,time_period_05,-70.925305,42.5015980000001,4547.0,Highland Ave @ Greenledge St
450,4547,0.04,0.76,7.04,time_period_06,-70.925305,42.5015980000001,4547.0,Highland Ave @ Greenledge St
450,4547,0.1,0.325,4.9,time_period_07,-70.925305,42.5015980000001,4547.0,Highland Ave @ Greenledge St
450,4547,0.0,0.1,6.55,time_period_08,-70.925305,42.5015980000001,4547.0,Highland Ave @ Greenledge St
450,4547,0.11875,1.46875,11.60625,time_period_10,-70.925305,42.5015980000001,4547.0,Highland Ave @ Greenledge St
450,4547,0.1,3.15,11.85,time_period_10,-70.925305,42.5015980000001,4547.0,Highland Ave @ Greenledge St
450,4547,0.06875,1.33125,9.75625,time_period_11,-70.925305,42.5015980000001,4547.0,Highland Ave @ Greenledge St
450,14548,0.0,1.03333333333333,4.96666666666667,time_period_01,-70.9213569999999,42.504553,14548.0,Highland Ave @ Hawthorne Sq
450,14548,0.1,4.0,19.2,time_period_02,-70.9213569999999,42.504553,14548.0,Highland Ave @ Hawthorne Sq
450,14548,0.5,2.5,14.55,time_period_02,-70.9213569999999,42.504553,14548.0,Highland Ave @ Hawthorne Sq
450,14548,0.4,2.05,10.975,time_period_03,-70.9213569999999,42.504553,14548.0,Highland Ave @ Hawthorne Sq
450,14548,0.6375,1.225,6.5,time_period_04,-70.9213569999999,42.504553,14548.0,Highland Ave @ Hawthorne Sq
450,14548,0.9,2.84,9.34,time_period_05,-70.9213569999999,42.504553,14548.0,Highland Ave @ Hawthorne Sq
450,14548,0.66,1.14,6.58,time_period_06,-70.9213569999999,42.504553,14548.0,Highland Ave @ Hawthorne Sq
450,14548,0.325,0.475,4.75,time_period_07,-70.9213569999999,42.504553,14548.0,Highland Ave @ Hawthorne Sq
450,14548,0.1,0.05,6.6,time_period_08,-70.9213569999999,42.504553,14548.0,Highland Ave @ Hawthorne Sq
450,14548,0.90625,2.35,10.1625,time_period_10,-70.9213569999999,42.504553,14548.0,Highland Ave @ Hawthorne Sq
450,14548,0.5,3.5,8.85,time_period_10,-70.9213569999999,42.504553,14548.0,Highland Ave @ Hawthorne Sq
450,14548,0.575,1.70625,8.6125,time_period_11,-70.9213569999999,42.504553,14548.0,Highland Ave @ Hawthorne Sq
450,14551,0.0,0.0,4.96666666666667,time_period_01,-70.910467,42.509626,14551.0,Highland Ave @ Wilson St
450,14551,0.0,1.4,17.8,time_period_02,-70.910467,42.509626,14551.0,Highland Ave @ Wilson St
450,14551,0.0,0.35,14.2,time_period_02,-70.910467,42.509626,14551.0,Highland Ave @ Wilson St
450,14551,0.05,0.4,10.625,time_period_03,-70.910467,42.509626,14551.0,Highland Ave @ Wilson St
450,14551,0.025,0.0875,6.4375,time_period_04,-70.910467,42.509626,14551.0,Highland Ave @ Wilson St
450,14551,0.06,0.34,9.1,time_period_05,-70.910467,42.509626,14551.0,Highland Ave @ Wilson St
450,14551,0.02,0.24,6.36,time_period_06,-70.910467,42.509626,14551.0,Highland Ave @ Wilson St
450,14551,0.0,0.3,4.45,time_period_07,-70.910467,42.509626,14551.0,Highland Ave @ Wilson St
450,14551,0.0,0.0,6.6,time_period_08,-70.910467,42.509626,14551.0,Highland Ave @ Wilson St
450,14551,0.04375,0.09375,10.1125,time_period_10,-70.910467,42.509626,14551.0,Highland Ave @ Wilson St
450,14551,0.0,0.1,8.8,time_period_10,-70.910467,42.509626,14551.0,Highland Ave @ Wilson St
450,14551,0.025,0.1125,8.53125,time_period_11,-70.910467,42.509626,14551.0,Highland Ave @ Wilson St
450,4553,0.266666666666667,0.966666666666667,4.23333333333333,time_period_01,-70.9087069999999,42.51181,4553.0,81 Highland Ave @ Salem Hospital
450,4553,0.0,2.8,15.1,time_period_02,-70.9087069999999,42.51181,4553.0,81 Highland Ave @ Salem Hospital
450,4553,0.05,4.35,9.9,time_period_02,-70.9087069999999,42.51181,4553.0,81 Highland Ave @ Salem Hospital
450,4553,0.075,1.65,9.05,time_period_03,-70.9087069999999,42.51181,4553.0,81 Highland Ave @ Salem Hospital
450,4553,0.0875,0.9,5.6125,time_period_04,-70.9087069999999,42.51181,4553.0,81 Highland Ave @ Salem Hospital
450,4553,0.14,1.04,8.26,time_period_05,-70.9087069999999,42.51181,4553.0,81 Highland Ave @ Salem Hospital
450,4553,0.06,0.92,5.52,time_period_06,-70.9087069999999,42.51181,4553.0,81 Highland Ave @ Salem Hospital
450,4553,0.0,0.675,3.875,time_period_07,-70.9087069999999,42.51181,4553.0,81 Highland Ave @ Salem Hospital
450,4553,0.0,1.05,5.55,time_period_08,-70.9087069999999,42.51181,4553.0,81 Highland Ave @ Salem Hospital
450,4553,0.0875,0.875,9.33125,time_period_10,-70.9087069999999,42.51181,4553.0,81 Highland Ave @ Salem Hospital
450,4553,0.05,2.5,6.3,time_period_10,-70.9087069999999,42.51181,4553.0,81 Highland Ave @ Salem Hospital
450,4553,0.0625,0.80625,7.8,time_period_11,-70.9087069999999,42.51181,4553.0,81 Highland Ave @ Salem Hospital
450,14553,0.0333333333333333,0.2,4.1,time_period_01,-70.907281,42.51324,14553.0,Highland Ave opp Proctor St
450,14553,0.2,3.8,11.5,time_period_02,-70.907281,42.51324,14553.0,Highland Ave opp Proctor St
450,14553,0.05,0.55,9.4,time_period_02,-70.907281,42.51324,14553.0,Highland Ave opp Proctor St
450,14553,0.125,0.625,8.525,time_period_03,-70.907281,42.51324,14553.0,Highland Ave opp Proctor St
450,14553,0.1125,0.2625,5.475,time_period_04,-70.907281,42.51324,14553.0,Highland Ave opp Proctor St
450,14553,0.28,0.24,8.26,time_period_05,-70.907281,42.51324,14553.0,Highland Ave opp Proctor St
450,14553,0.06,0.4,5.16,time_period_06,-70.907281,42.51324,14553.0,Highland Ave opp Proctor St
450,14553,0.05,0.25,3.625,time_period_07,-70.907281,42.51324,14553.0,Highland Ave opp Proctor St
450,14553,0.0,0.6,4.95,time_period_08,-70.907281,42.51324,14553.0,Highland Ave opp Proctor St
450,14553,0.14375,0.40625,9.075,time_period_10,-70.907281,42.51324,14553.0,Highland Ave opp Proctor St
450,14553,0.45,0.05,6.7,time_period_10,-70.907281,42.51324,14553.0,Highland Ave opp Proctor St
450,14553,0.08125,0.2875,7.58125,time_period_11,-70.907281,42.51324,14553.0,Highland Ave opp Proctor St
450,4554,0.0,0.0,4.1,time_period_01,-70.9065239999999,42.5140190000001,4554.0,Opp 30 Highland Ave
450,4554,0.0,0.1,11.3,time_period_02,-70.9065239999999,42.5140190000001,4554.0,Opp 30 Highland Ave
450,4554,0.0,0.35,9.1,time_period_02,-70.9065239999999,42.5140190000001,4554.0,Opp 30 Highland Ave
450,4554,0.0,0.025,8.5,time_period_03,-70.9065239999999,42.5140190000001,4554.0,Opp 30 Highland Ave
450,4554,0.0,0.0125,5.4875,time_period_04,-70.9065239999999,42.5140190000001,4554.0,Opp 30 Highland Ave
450,4554,0.0,0.02,8.24,time_period_05,-70.9065239999999,42.5140190000001,4554.0,Opp 30 Highland Ave
450,4554,0.0,0.0,5.16,time_period_06,-70.9065239999999,42.5140190000001,4554.0,Opp 30 Highland Ave
450,4554,0.0,0.025,3.65,time_period_07,-70.9065239999999,42.5140190000001,4554.0,Opp 30 Highland Ave
450,4554,0.0,0.0,4.95,time_period_08,-70.9065239999999,42.5140190000001,4554.0,Opp 30 Highland Ave
450,4554,0.00625,0.0375,9.05625,time_period_10,-70.9065239999999,42.5140190000001,4554.0,Opp 30 Highland Ave
450,4554,0.05,0.05,6.65,time_period_10,-70.9065239999999,42.5140190000001,4554.0,Opp 30 Highland Ave
450,4554,0.0,0.01875,7.55625,time_period_11,-70.9065239999999,42.5140190000001,4554.0,Opp 30 Highland Ave
450,4555,0.0,0.1,4.0,time_period_01,-70.905547,42.516446,4555.0,Essex St @ Warren St
450,4555,0.0,0.5,10.8,time_period_02,-70.905547,42.516446,4555.0,Essex St @ Warren St
450,4555,0.0,0.75,8.4,time_period_02,-70.905547,42.516446,4555.0,Essex St @ Warren St
450,4555,0.025,0.375,8.175,time_period_03,-70.905547,42.516446,4555.0,Essex St @ Warren St
450,4555,0.0,0.3125,5.1625,time_period_04,-70.905547,42.516446,4555.0,Essex St @ Warren St
450,4555,0.06,0.76,7.54,time_period_05,-70.905547,42.516446,4555.0,Essex St @ Warren St
450,4555,0.0,0.74,4.42,time_period_06,-70.905547,42.516446,4555.0,Essex St @ Warren St
450,4555,0.0,0.625,3.05,time_period_07,-70.905547,42.516446,4555.0,Essex St @ Warren St
450,4555,0.0,0.95,4.1,time_period_08,-70.905547,42.516446,4555.0,Essex St @ Warren St
450,4555,0.0125,0.78125,8.2875,time_period_10,-70.905547,42.516446,4555.0,Essex St @ Warren St
450,4555,0.0,0.55,6.1,time_period_10,-70.905547,42.516446,4555.0,Essex St @ Warren St
450,4555,0.0125,0.5,7.08125,time_period_11,-70.905547,42.516446,4555.0,Essex St @ Warren St
450,4557,0.0,0.0,4.0,time_period_01,-70.903921,42.519076,4557.0,Essex St @ Flint St
450,4557,0.0,1.7,9.2,time_period_02,-70.903921,42.519076,4557.0,Essex St @ Flint St
450,4557,0.0,0.0,8.4,time_period_02,-70.903921,42.519076,4557.0,Essex St @ Flint St
450,4557,0.0,0.75,7.45,time_period_03,-70.903921,42.519076,4557.0,Essex St @ Flint St
450,4557,0.0,0.1,5.0625,time_period_04,-70.903921,42.519076,4557.0,Essex St @ Flint St
450,4557,0.0,0.36,7.16,time_period_05,-70.903921,42.519076,4557.0,Essex St @ Flint St
450,4557,0.0,0.24,4.18,time_period_06,-70.903921,42.519076,4557.0,Essex St @ Flint St
450,4557,0.0,0.175,2.85,time_period_07,-70.903921,42.519076,4557.0,Essex St @ Flint St
450,4557,0.0,0.1,3.95,time_period_08,-70.903921,42.519076,4557.0,Essex St @ Flint St
450,4557,0.0,0.23125,8.0625,time_period_10,-70.903921,42.519076,4557.0,Essex St @ Flint St
450,4557,0.0,0.0,6.1,time_period_10,-70.903921,42.519076,4557.0,Essex St @ Flint St
450,4557,0.0,0.14375,6.95,time_period_11,-70.903921,42.519076,4557.0,Essex St @ Flint St
450,4558,0.0,0.0,4.0,time_period_01,-70.902575,42.520131,4558.0,Essex St opp Monroe St
450,4558,0.0,0.0,9.1,time_period_02,-70.902575,42.520131,4558.0,Essex St opp Monroe St
450,4558,0.0,0.0,8.4,time_period_02,-70.902575,42.520131,4558.0,Essex St opp Monroe St
450,4558,0.0,0.0,7.425,time_period_03,-70.902575,42.520131,4558.0,Essex St opp Monroe St
450,4558,0.0125,0.05,5.025,time_period_04,-70.902575,42.520131,4558.0,Essex St opp Monroe St
450,4558,0.02,0.08,7.08,time_period_05,-70.902575,42.520131,4558.0,Essex St opp Monroe St
450,4558,0.0,0.0,4.18,time_period_06,-70.902575,42.520131,4558.0,Essex St opp Monroe St
450,4558,0.0,0.0,2.85,time_period_07,-70.902575,42.520131,4558.0,Essex St opp Monroe St
450,4558,0.0,0.2,3.75,time_period_08,-70.902575,42.520131,4558.0,Essex St opp Monroe St
450,4558,0.0125,0.05,8.025,time_period_10,-70.902575,42.520131,4558.0,Essex St opp Monroe St
450,4558,0.0,0.0,6.1,time_period_10,-70.902575,42.520131,4558.0,Essex St opp Monroe St
450,4558,0.0,0.0625,6.8875,time_period_11,-70.902575,42.520131,4558.0,Essex St opp Monroe St
450,4559,0.0,0.0,4.0,time_period_01,-70.901448,42.5205310000001,4559.0,Essex St @ Hamilton st
450,4559,0.0,0.0,9.1,time_period_02,-70.901448,42.5205310000001,4559.0,Essex St @ Hamilton st
450,4559,0.0,0.0,8.4,time_period_02,-70.901448,42.5205310000001,4559.0,Essex St @ Hamilton st
450,4559,0.0,0.0,7.4,time_period_03,-70.901448,42.5205310000001,4559.0,Essex St @ Hamilton st
450,4559,0.0,0.05,4.975,time_period_04,-70.901448,42.5205310000001,4559.0,Essex St @ Hamilton st
450,4559,0.0,0.0,7.06,time_period_05,-70.901448,42.5205310000001,4559.0,Essex St @ Hamilton st
450,4559,0.0,0.02,4.16,time_period_06,-70.901448,42.5205310000001,4559.0,Essex St @ Hamilton st
450,4559,0.0,0.05,2.8,time_period_07,-70.901448,42.5205310000001,4559.0,Essex St @ Hamilton st
450,4559,0.0,0.0,3.7,time_period_08,-70.901448,42.5205310000001,4559.0,Essex St @ Hamilton st
450,4559,0.0,0.1625,7.8875,time_period_10,-70.901448,42.5205310000001,4559.0,Essex St @ Hamilton st
450,4559,0.0,0.0,6.1,time_period_10,-70.901448,42.5205310000001,4559.0,Essex St @ Hamilton st
450,4559,0.0,0.05625,6.83125,time_period_11,-70.901448,42.5205310000001,4559.0,Essex St @ Hamilton st
450,4560,0.0,0.0666666666666667,3.93333333333333,time_period_01,-70.899086,42.521145,4560.0,Essex St @ Summer St
450,4560,0.0,1.8,7.3,time_period_02,-70.899086,42.521145,4560.0,Essex St @ Summer St
450,4560,0.0,0.6,7.75,time_period_02,-70.899086,42.521145,4560.0,Essex St @ Summer St
450,4560,0.0,0.7,6.675,time_period_03,-70.899086,42.521145,4560.0,Essex St @ Summer St
450,4560,0.0,0.925,4.075,time_period_04,-70.899086,42.521145,4560.0,Essex St @ Summer St
450,4560,0.0,1.34,5.74,time_period_05,-70.899086,42.521145,4560.0,Essex St @ Summer St
450,4560,0.0,0.5,3.64,time_period_06,-70.899086,42.521145,4560.0,Essex St @ Summer St
450,4560,0.0,0.25,2.55,time_period_07,-70.899086,42.521145,4560.0,Essex St @ Summer St
450,4560,0.05,0.7,3.05,time_period_08,-70.899086,42.521145,4560.0,Essex St @ Summer St
450,4560,0.05,2.5,5.425,time_period_10,-70.899086,42.521145,4560.0,Essex St @ Summer St
450,4560,0.0,0.05,6.05,time_period_10,-70.899086,42.521145,4560.0,Essex St @ Summer St
450,4560,0.03125,1.80625,5.05625,time_period_11,-70.899086,42.521145,4560.0,Essex St @ Summer St
450,4562,0.0,0.533333333333333,3.66666666666667,time_period_01,-70.89534,42.5199450000001,4562.0,Washington St @ New Derby St
450,4562,0.0,2.9,4.6,time_period_02,-70.89534,42.5199450000001,4562.0,Washington St @ New Derby St
450,4562,0.0,3.55,4.25,time_period_02,-70.89534,42.5199450000001,4562.0,Washington St @ New Derby St
450,4562,0.175,2.975,3.95,time_period_03,-70.89534,42.5199450000001,4562.0,Washington St @ New Derby St
450,4562,0.1,2.075,2.45,time_period_04,-70.89534,42.5199450000001,4562.0,Washington St @ New Derby St
450,4562,0.12,2.72,3.6,time_period_05,-70.89534,42.5199450000001,4562.0,Washington St @ New Derby St
450,4562,0.02,1.44,2.72,time_period_06,-70.89534,42.5199450000001,4562.0,Washington St @ New Derby St
450,4562,0.05,1.0,1.85,time_period_07,-70.89534,42.5199450000001,4562.0,Washington St @ New Derby St
450,4562,0.0,0.7,2.35,time_period_08,-70.89534,42.5199450000001,4562.0,Washington St @ New Derby St
450,4562,0.18125,3.00625,3.3375,time_period_10,-70.89534,42.5199450000001,4562.0,Washington St @ New Derby St
450,4562,0.05,1.65,4.7,time_period_10,-70.89534,42.5199450000001,4562.0,Washington St @ New Derby St
450,4562,0.075,2.65,3.0625,time_period_11,-70.89534,42.5199450000001,4562.0,Washington St @ New Derby St
450,4563,0.0,0.133333333333333,3.26666666666667,time_period_01,-70.89581,42.523153,4563.0,Washington St @ Church St
450,4563,0.0,0.9,3.8,time_period_02,-70.89581,42.523153,4563.0,Washington St @ Church St
450,4563,0.0,0.5,3.75,time_period_02,-70.89581,42.523153,4563.0,Washington St @ Church St
450,4563,0.025,1.1,2.825,time_period_03,-70.89581,42.523153,4563.0,Washington St @ Church St
450,4563,0.0375,0.4875,1.9875,time_period_04,-70.89581,42.523153,4563.0,Washington St @ Church St
450,4563,0.08,0.82,2.74,time_period_05,-70.89581,42.523153,4563.0,Washington St @ Church St
450,4563,0.04,0.28,2.42,time_period_06,-70.89581,42.523153,4563.0,Washington St @ Church St
450,4563,0.0,0.15,1.725,time_period_07,-70.89581,42.523153,4563.0,Washington St @ Church St
450,4563,0.0,0.15,2.25,time_period_08,-70.89581,42.523153,4563.0,Washington St @ Church St
450,4563,0.05,0.55625,2.79375,time_period_10,-70.89581,42.523153,4563.0,Washington St @ Church St
450,4563,0.0,0.55,4.1,time_period_10,-70.89581,42.523153,4563.0,Washington St @ Church St
450,4563,0.2,0.5,2.75625,time_period_11,-70.89581,42.523153,4563.0,Washington St @ Church St
450,37150,0.0,3.1,0.166666666666667,time_period_01,,,,
450,37150,0.0,3.7,0.1,time_period_02,,,,
450,37150,0.0,3.55,0.25,time_period_02,,,,
450,37150,0.0,2.525,0.3,time_period_03,,,,
450,37150,0.0,1.925,0.075,time_period_04,,,,
450,37150,0.0,2.7,0.04,time_period_05,,,,
450,37150,0.0,2.1,0.32,time_period_06,,,,
450,37150,0.0,1.725,0.025,time_period_07,,,,
450,37150,0.0,2.25,0.0,time_period_08,,,,
450,37150,0.0,2.7,0.06875,time_period_10,,,,
450,37150,0.0,3.8,0.3,time_period_10,,,,
450,37150,0.0,2.575,0.16875,time_period_11,,,,
