route_id,stop_id,average_ons,average_offs,average_load,time_period_id,X,Y,Stop_ID,Stop_Name
216,32002,0.866666666666667,0.0,0.866666666666667,time_period_01,,,,
216,32002,1.62,0.0,1.72,time_period_02,,,,
216,32002,3.78,0.0,3.79,time_period_03,,,,
216,32002,6.4,0.0,6.4,time_period_04,,,,
216,32002,6.84,0.0,6.84,time_period_04,,,,
216,32002,12.6571428571429,0.0,12.6571428571429,time_period_05,,,,
216,32002,11.1,0.0,11.1,time_period_05,,,,
216,32002,12.3727272727273,0.0,12.3727272727273,time_period_06,,,,
216,32002,12.08,0.0,12.1,time_period_07,,,,
216,32002,8.85,0.0,8.9,time_period_08,,,,
216,32002,5.25,0.0,5.25,time_period_09,,,,
216,32002,7.72083333333333,0.0,7.73333333333333,time_period_10,,,,
216,32002,11.4,0.0,11.4142857142857,time_period_10,,,,
216,32002,7.01,0.0,7.035,time_period_11,,,,
216,32002,6.83333333333333,0.0,6.83333333333333,time_period_11,,,,
216,3515,0.28,0.08,7.08,time_period_04,-71.00047,42.2508260000001,3515.0,Washington St @ Foster St
216,3515,0.3,0.0,11.3,time_period_05,-71.00047,42.2508260000001,3515.0,Washington St @ Foster St
216,3515,0.242857142857143,0.0285714285714286,11.6142857142857,time_period_10,-71.00047,42.2508260000001,3515.0,Washington St @ Foster St
216,3515,0.2,0.0166666666666667,7.0,time_period_11,-71.00047,42.2508260000001,3515.0,Washington St @ Foster St
216,3426,1.58,1.08,7.56,time_period_04,-70.9969359999999,42.2521550000001,3426.0,McGrath Hwy @ Brackett St
216,3426,1.4,1.1,11.6,time_period_05,-70.9969359999999,42.2521550000001,3426.0,McGrath Hwy @ Brackett St
216,3426,1.25714285714286,1.72857142857143,11.1857142857143,time_period_10,-70.9969359999999,42.2521550000001,3426.0,McGrath Hwy @ Brackett St
216,3426,0.633333333333333,0.933333333333333,6.73333333333333,time_period_11,-70.9969359999999,42.2521550000001,3426.0,McGrath Hwy @ Brackett St
216,3237,0.1,0.0,0.966666666666667,time_period_01,-71.0022079999999,42.251487,3237.0,Coddington St @ Washington St
216,3237,0.0,0.0,1.72,time_period_02,-71.0022079999999,42.251487,3237.0,Coddington St @ Washington St
216,3237,0.26,0.04,4.04,time_period_03,-71.0022079999999,42.251487,3237.0,Coddington St @ Washington St
216,3237,0.525,0.0625,6.875,time_period_04,-71.0022079999999,42.251487,3237.0,Coddington St @ Washington St
216,3237,0.957142857142857,0.0571428571428571,13.5857142857143,time_period_05,-71.0022079999999,42.251487,3237.0,Coddington St @ Washington St
216,3237,0.845454545454545,0.0454545454545454,13.1727272727273,time_period_06,-71.0022079999999,42.251487,3237.0,Coddington St @ Washington St
216,3237,0.86,0.06,12.96,time_period_07,-71.0022079999999,42.251487,3237.0,Coddington St @ Washington St
216,3237,0.85,0.0,10.2,time_period_08,-71.0022079999999,42.251487,3237.0,Coddington St @ Washington St
216,3237,0.4,0.0,5.7,time_period_09,-71.0022079999999,42.251487,3237.0,Coddington St @ Washington St
216,3237,0.466666666666667,0.0291666666666667,8.20416666666667,time_period_10,-71.0022079999999,42.251487,3237.0,Coddington St @ Washington St
216,3237,0.345,0.045,7.395,time_period_11,-71.0022079999999,42.251487,3237.0,Coddington St @ Washington St
216,3239,0.0,0.2,0.733333333333333,time_period_01,-70.9999579999999,42.2530140000001,3239.0,Coddington St @ Quincy YMCA
216,3239,0.0,0.36,1.38,time_period_02,-70.9999579999999,42.2530140000001,3239.0,Coddington St @ Quincy YMCA
216,3239,0.12,0.7,3.5,time_period_03,-70.9999579999999,42.2530140000001,3239.0,Coddington St @ Quincy YMCA
216,3239,0.95,0.575,7.3125,time_period_04,-70.9999579999999,42.2530140000001,3239.0,Coddington St @ Quincy YMCA
216,3239,2.2,0.371428571428571,15.4285714285714,time_period_05,-70.9999579999999,42.2530140000001,3239.0,Coddington St @ Quincy YMCA
216,3239,49.8,0.0,49.8,time_period_05,-70.9999579999999,42.2530140000001,3239.0,Coddington St @ Quincy YMCA
216,3239,1.12727272727273,0.327272727272727,13.9909090909091,time_period_06,-70.9999579999999,42.2530140000001,3239.0,Coddington St @ Quincy YMCA
216,3239,0.76,0.24,13.52,time_period_07,-70.9999579999999,42.2530140000001,3239.0,Coddington St @ Quincy YMCA
216,3239,0.2,0.0,10.4,time_period_08,-70.9999579999999,42.2530140000001,3239.0,Coddington St @ Quincy YMCA
216,3239,0.0,0.0,5.7,time_period_09,-70.9999579999999,42.2530140000001,3239.0,Coddington St @ Quincy YMCA
216,3239,0.4,0.270833333333333,8.36666666666667,time_period_10,-70.9999579999999,42.2530140000001,3239.0,Coddington St @ Quincy YMCA
216,3239,0.35,0.11,7.645,time_period_11,-70.9999579999999,42.2530140000001,3239.0,Coddington St @ Quincy YMCA
216,3425,0.0333333333333333,0.0,0.766666666666667,time_period_01,-70.996877,42.2553160000001,3425.0,Coddington St @ Southern Artery
216,3425,0.14,0.4,1.22,time_period_02,-70.996877,42.2553160000001,3425.0,Coddington St @ Southern Artery
216,3425,0.22,0.47,3.26,time_period_03,-70.996877,42.2553160000001,3425.0,Coddington St @ Southern Artery
216,3425,0.375,0.4875,7.125,time_period_04,-70.996877,42.2553160000001,3425.0,Coddington St @ Southern Artery
216,3425,1.11428571428571,0.557142857142857,15.9285714285714,time_period_05,-70.996877,42.2553160000001,3425.0,Coddington St @ Southern Artery
216,3425,0.3,0.2,50.6,time_period_05,-70.996877,42.2553160000001,3425.0,Coddington St @ Southern Artery
216,3425,0.618181818181818,0.518181818181818,14.0727272727273,time_period_06,-70.996877,42.2553160000001,3425.0,Coddington St @ Southern Artery
216,3425,1.04,0.22,14.3,time_period_07,-70.996877,42.2553160000001,3425.0,Coddington St @ Southern Artery
216,3425,0.55,0.1,10.75,time_period_08,-70.996877,42.2553160000001,3425.0,Coddington St @ Southern Artery
216,3425,0.1,0.0,5.8,time_period_09,-70.996877,42.2553160000001,3425.0,Coddington St @ Southern Artery
216,3425,0.620833333333333,0.304166666666667,8.69166666666667,time_period_10,-70.996877,42.2553160000001,3425.0,Coddington St @ Southern Artery
216,3425,0.675,0.425,7.9,time_period_11,-70.996877,42.2553160000001,3425.0,Coddington St @ Southern Artery
216,3240,0.0,0.0,0.766666666666667,time_period_01,-70.9960829999999,42.25626,3240.0,55 Sea St
216,3240,0.02,0.44,0.82,time_period_02,-70.9960829999999,42.25626,3240.0,55 Sea St
216,3240,0.05,0.25,3.08,time_period_03,-70.9960829999999,42.25626,3240.0,55 Sea St
216,3240,0.1,0.1625,7.1,time_period_04,-70.9960829999999,42.25626,3240.0,55 Sea St
216,3240,0.12,0.12,7.56,time_period_04,-70.9960829999999,42.25626,3240.0,55 Sea St
216,3240,0.185714285714286,0.0714285714285714,16.0142857142857,time_period_05,-70.9960829999999,42.25626,3240.0,55 Sea St
216,3240,0.2,0.0,11.7,time_period_05,-70.9960829999999,42.25626,3240.0,55 Sea St
216,3240,0.4,0.4,50.7,time_period_05,-70.9960829999999,42.25626,3240.0,55 Sea St
216,3240,0.0727272727272727,0.0545454545454545,14.0636363636364,time_period_06,-70.9960829999999,42.25626,3240.0,55 Sea St
216,3240,0.1,0.04,14.34,time_period_07,-70.9960829999999,42.25626,3240.0,55 Sea St
216,3240,0.05,0.0,10.8,time_period_08,-70.9960829999999,42.25626,3240.0,55 Sea St
216,3240,0.0,0.0,5.8,time_period_09,-70.9960829999999,42.25626,3240.0,55 Sea St
216,3240,0.15,0.05,8.79583333333333,time_period_10,-70.9960829999999,42.25626,3240.0,55 Sea St
216,3240,0.242857142857143,0.142857142857143,11.3142857142857,time_period_10,-70.9960829999999,42.25626,3240.0,55 Sea St
216,3240,0.085,0.03,7.95,time_period_11,-70.9960829999999,42.25626,3240.0,55 Sea St
216,3240,0.216666666666667,0.0333333333333333,6.9,time_period_11,-70.9960829999999,42.25626,3240.0,55 Sea St
216,3241,0.0,0.0,0.766666666666667,time_period_01,-70.995269,42.259604,3241.0,Sea St opp Overlook Rd
216,3241,0.0,0.02,0.82,time_period_02,-70.995269,42.259604,3241.0,Sea St opp Overlook Rd
216,3241,0.0,0.04,3.03,time_period_03,-70.995269,42.259604,3241.0,Sea St opp Overlook Rd
216,3241,0.025,0.075,7.05,time_period_04,-70.995269,42.259604,3241.0,Sea St opp Overlook Rd
216,3241,0.0,0.1,7.54,time_period_04,-70.995269,42.259604,3241.0,Sea St opp Overlook Rd
216,3241,0.0857142857142857,0.371428571428571,15.7428571428571,time_period_05,-70.995269,42.259604,3241.0,Sea St opp Overlook Rd
216,3241,0.0,0.2,11.6,time_period_05,-70.995269,42.259604,3241.0,Sea St opp Overlook Rd
216,3241,0.2,0.7,49.6,time_period_05,-70.995269,42.259604,3241.0,Sea St opp Overlook Rd
216,3241,0.0818181818181818,0.409090909090909,13.7454545454545,time_period_06,-70.995269,42.259604,3241.0,Sea St opp Overlook Rd
216,3241,0.04,0.38,13.98,time_period_07,-70.995269,42.259604,3241.0,Sea St opp Overlook Rd
216,3241,0.0,0.25,10.5,time_period_08,-70.995269,42.259604,3241.0,Sea St opp Overlook Rd
216,3241,0.0,0.3,5.5,time_period_09,-70.995269,42.259604,3241.0,Sea St opp Overlook Rd
216,3241,0.0166666666666667,0.1625,8.65416666666667,time_period_10,-70.995269,42.259604,3241.0,Sea St opp Overlook Rd
216,3241,0.0285714285714286,0.257142857142857,11.0857142857143,time_period_10,-70.995269,42.259604,3241.0,Sea St opp Overlook Rd
216,3241,0.02,0.17,7.805,time_period_11,-70.995269,42.259604,3241.0,Sea St opp Overlook Rd
216,3241,0.0,0.233333333333333,6.7,time_period_11,-70.995269,42.259604,3241.0,Sea St opp Overlook Rd
216,3242,0.0,0.0333333333333333,0.766666666666667,time_period_01,-70.9929729999999,42.2612290000001,3242.0,Sea St opp Samoset Ave
216,3242,0.0,0.38,0.62,time_period_02,-70.9929729999999,42.2612290000001,3242.0,Sea St opp Samoset Ave
216,3242,0.0,0.38,2.72,time_period_03,-70.9929729999999,42.2612290000001,3242.0,Sea St opp Samoset Ave
216,3242,0.0125,0.0875,6.975,time_period_04,-70.9929729999999,42.2612290000001,3242.0,Sea St opp Samoset Ave
216,3242,0.0,0.1,7.44,time_period_04,-70.9929729999999,42.2612290000001,3242.0,Sea St opp Samoset Ave
216,3242,0.0428571428571429,0.185714285714286,15.6,time_period_05,-70.9929729999999,42.2612290000001,3242.0,Sea St opp Samoset Ave
216,3242,0.0,0.2,11.5,time_period_05,-70.9929729999999,42.2612290000001,3242.0,Sea St opp Samoset Ave
216,3242,0.2,0.3,49.6,time_period_05,-70.9929729999999,42.2612290000001,3242.0,Sea St opp Samoset Ave
216,3242,0.0454545454545454,0.218181818181818,13.6,time_period_06,-70.9929729999999,42.2612290000001,3242.0,Sea St opp Samoset Ave
216,3242,0.02,0.26,13.78,time_period_07,-70.9929729999999,42.2612290000001,3242.0,Sea St opp Samoset Ave
216,3242,0.0,0.05,10.5,time_period_08,-70.9929729999999,42.2612290000001,3242.0,Sea St opp Samoset Ave
216,3242,0.0,0.0,5.5,time_period_09,-70.9929729999999,42.2612290000001,3242.0,Sea St opp Samoset Ave
216,3242,0.0416666666666667,0.179166666666667,8.525,time_period_10,-70.9929729999999,42.2612290000001,3242.0,Sea St opp Samoset Ave
216,3242,0.142857142857143,0.242857142857143,10.9857142857143,time_period_10,-70.9929729999999,42.2612290000001,3242.0,Sea St opp Samoset Ave
216,3242,0.035,0.045,7.805,time_period_11,-70.9929729999999,42.2612290000001,3242.0,Sea St opp Samoset Ave
216,3242,0.0166666666666667,0.0166666666666667,6.7,time_period_11,-70.9929729999999,42.2612290000001,3242.0,Sea St opp Samoset Ave
216,3243,0.0,0.0,0.766666666666667,time_period_01,-70.990156,42.2620370000001,3243.0,227 Sea St
216,3243,0.0,0.02,0.62,time_period_02,-70.990156,42.2620370000001,3243.0,227 Sea St
216,3243,0.0,0.23,2.54,time_period_03,-70.990156,42.2620370000001,3243.0,227 Sea St
216,3243,0.0,0.2875,6.65,time_period_04,-70.990156,42.2620370000001,3243.0,227 Sea St
216,3243,0.0,0.06,7.4,time_period_04,-70.990156,42.2620370000001,3243.0,227 Sea St
216,3243,0.0285714285714286,0.314285714285714,15.3285714285714,time_period_05,-70.990156,42.2620370000001,3243.0,227 Sea St
216,3243,0.0,0.1,11.4,time_period_05,-70.990156,42.2620370000001,3243.0,227 Sea St
216,3243,0.1,0.3,49.5,time_period_05,-70.990156,42.2620370000001,3243.0,227 Sea St
216,3243,0.0,0.272727272727273,13.3545454545455,time_period_06,-70.990156,42.2620370000001,3243.0,227 Sea St
216,3243,0.0,0.14,13.66,time_period_07,-70.990156,42.2620370000001,3243.0,227 Sea St
216,3243,0.0,0.05,10.45,time_period_08,-70.990156,42.2620370000001,3243.0,227 Sea St
216,3243,0.0,0.05,5.5,time_period_09,-70.990156,42.2620370000001,3243.0,227 Sea St
216,3243,0.0208333333333333,0.158333333333333,8.42083333333333,time_period_10,-70.990156,42.2620370000001,3243.0,227 Sea St
216,3243,0.0285714285714286,0.128571428571429,10.9142857142857,time_period_10,-70.990156,42.2620370000001,3243.0,227 Sea St
216,3243,0.035,0.04,7.81,time_period_11,-70.990156,42.2620370000001,3243.0,227 Sea St
216,3243,0.05,0.166666666666667,6.55,time_period_11,-70.990156,42.2620370000001,3243.0,227 Sea St
216,3244,0.0,0.0,0.766666666666667,time_period_01,-70.988374,42.2621560000001,3244.0,Sea St @ Barbour Terr
216,3244,0.0,0.0,0.62,time_period_02,-70.988374,42.2621560000001,3244.0,Sea St @ Barbour Terr
216,3244,0.0,0.0,2.54,time_period_03,-70.988374,42.2621560000001,3244.0,Sea St @ Barbour Terr
216,3244,0.0,0.0375,6.625,time_period_04,-70.988374,42.2621560000001,3244.0,Sea St @ Barbour Terr
216,3244,0.0,0.02,7.36,time_period_04,-70.988374,42.2621560000001,3244.0,Sea St @ Barbour Terr
216,3244,0.0,0.0857142857142857,15.2285714285714,time_period_05,-70.988374,42.2621560000001,3244.0,Sea St @ Barbour Terr
216,3244,0.0,0.1,11.3,time_period_05,-70.988374,42.2621560000001,3244.0,Sea St @ Barbour Terr
216,3244,0.1,0.4,49.3,time_period_05,-70.988374,42.2621560000001,3244.0,Sea St @ Barbour Terr
216,3244,0.0,0.127272727272727,13.2363636363636,time_period_06,-70.988374,42.2621560000001,3244.0,Sea St @ Barbour Terr
216,3244,0.0,0.1,13.58,time_period_07,-70.988374,42.2621560000001,3244.0,Sea St @ Barbour Terr
216,3244,0.0,0.0,10.35,time_period_08,-70.988374,42.2621560000001,3244.0,Sea St @ Barbour Terr
216,3244,0.0,0.95,4.55,time_period_09,-70.988374,42.2621560000001,3244.0,Sea St @ Barbour Terr
216,3244,0.0041666666666666,0.0875,8.3375,time_period_10,-70.988374,42.2621560000001,3244.0,Sea St @ Barbour Terr
216,3244,0.0142857142857143,0.0857142857142857,10.8428571428571,time_period_10,-70.988374,42.2621560000001,3244.0,Sea St @ Barbour Terr
216,3244,0.01,0.12,7.715,time_period_11,-70.988374,42.2621560000001,3244.0,Sea St @ Barbour Terr
216,3244,0.0166666666666667,0.233333333333333,6.35,time_period_11,-70.988374,42.2621560000001,3244.0,Sea St @ Barbour Terr
216,13245,0.0,0.0,0.766666666666667,time_period_01,-70.9865159999999,42.262079,13245.0,Sea St @ Moffat Rd
216,13245,0.02,0.12,0.58,time_period_02,-70.9865159999999,42.262079,13245.0,Sea St @ Moffat Rd
216,13245,0.06,0.48,2.28,time_period_03,-70.9865159999999,42.262079,13245.0,Sea St @ Moffat Rd
216,13245,0.0625,0.2625,6.4375,time_period_04,-70.9865159999999,42.262079,13245.0,Sea St @ Moffat Rd
216,13245,0.06,0.28,7.14,time_period_04,-70.9865159999999,42.262079,13245.0,Sea St @ Moffat Rd
216,13245,0.671428571428571,0.542857142857143,15.3571428571429,time_period_05,-70.9865159999999,42.262079,13245.0,Sea St @ Moffat Rd
216,13245,24.7,0.0,24.7,time_period_05,-70.9865159999999,42.262079,13245.0,Sea St @ Moffat Rd
216,13245,0.0,0.3,11.0,time_period_05,-70.9865159999999,42.262079,13245.0,Sea St @ Moffat Rd
216,13245,9.6,0.0,9.6,time_period_05,-70.9865159999999,42.262079,13245.0,Sea St @ Moffat Rd
216,13245,0.6,0.6,49.3,time_period_05,-70.9865159999999,42.262079,13245.0,Sea St @ Moffat Rd
216,13245,0.190909090909091,0.7,12.7181818181818,time_period_06,-70.9865159999999,42.262079,13245.0,Sea St @ Moffat Rd
216,13245,0.0,0.36,13.24,time_period_07,-70.9865159999999,42.262079,13245.0,Sea St @ Moffat Rd
216,13245,0.0,0.1,10.25,time_period_08,-70.9865159999999,42.262079,13245.0,Sea St @ Moffat Rd
216,13245,0.0,0.25,4.3,time_period_09,-70.9865159999999,42.262079,13245.0,Sea St @ Moffat Rd
216,13245,0.0583333333333333,0.229166666666667,8.18333333333333,time_period_10,-70.9865159999999,42.262079,13245.0,Sea St @ Moffat Rd
216,13245,0.0714285714285714,0.4,10.4857142857143,time_period_10,-70.9865159999999,42.262079,13245.0,Sea St @ Moffat Rd
216,13245,0.055,0.17,7.605,time_period_11,-70.9865159999999,42.262079,13245.0,Sea St @ Moffat Rd
216,13245,0.0333333333333333,0.25,6.11666666666667,time_period_11,-70.9865159999999,42.262079,13245.0,Sea St @ Moffat Rd
216,3245,0.0,0.0,0.766666666666667,time_period_01,-70.984997,42.26225,3245.0,405 Sea St
216,3245,0.0,0.02,0.56,time_period_02,-70.984997,42.26225,3245.0,405 Sea St
216,3245,0.02,0.32,2.07,time_period_03,-70.984997,42.26225,3245.0,405 Sea St
216,3245,0.0125,0.125,6.3375,time_period_04,-70.984997,42.26225,3245.0,405 Sea St
216,3245,0.08,0.16,7.06,time_period_04,-70.984997,42.26225,3245.0,405 Sea St
216,3245,0.528571428571429,0.257142857142857,15.6,time_period_05,-70.984997,42.26225,3245.0,405 Sea St
216,3245,0.2,0.1,24.8,time_period_05,-70.984997,42.26225,3245.0,405 Sea St
216,3245,0.0,0.3,10.7,time_period_05,-70.984997,42.26225,3245.0,405 Sea St
216,3245,0.0,0.0,9.6,time_period_05,-70.984997,42.26225,3245.0,405 Sea St
216,3245,0.4,0.3,49.4,time_period_05,-70.984997,42.26225,3245.0,405 Sea St
216,3245,0.118181818181818,0.254545454545455,12.6,time_period_06,-70.984997,42.26225,3245.0,405 Sea St
216,3245,0.02,0.34,12.94,time_period_07,-70.984997,42.26225,3245.0,405 Sea St
216,3245,0.0,0.1,10.15,time_period_08,-70.984997,42.26225,3245.0,405 Sea St
216,3245,0.0,0.05,4.2,time_period_09,-70.984997,42.26225,3245.0,405 Sea St
216,3245,0.0375,0.204166666666667,8.0125,time_period_10,-70.984997,42.26225,3245.0,405 Sea St
216,3245,0.0285714285714286,0.371428571428571,10.1428571428571,time_period_10,-70.984997,42.26225,3245.0,405 Sea St
216,3245,0.03,0.16,7.47,time_period_11,-70.984997,42.26225,3245.0,405 Sea St
216,3245,0.0166666666666667,0.283333333333333,5.85,time_period_11,-70.984997,42.26225,3245.0,405 Sea St
216,3246,0.0,0.0,0.766666666666667,time_period_01,-70.9824869999999,42.261918,3246.0,455 Sea St
216,3246,0.0,0.0,0.56,time_period_02,-70.9824869999999,42.261918,3246.0,455 Sea St
216,3246,0.03,0.06,2.05,time_period_03,-70.9824869999999,42.261918,3246.0,455 Sea St
216,3246,0.0,0.05,6.2875,time_period_04,-70.9824869999999,42.261918,3246.0,455 Sea St
216,3246,0.0,0.1,6.96,time_period_04,-70.9824869999999,42.261918,3246.0,455 Sea St
216,3246,0.0142857142857143,0.157142857142857,15.4571428571429,time_period_05,-70.9824869999999,42.261918,3246.0,455 Sea St
216,3246,0.0,0.0,24.8,time_period_05,-70.9824869999999,42.261918,3246.0,455 Sea St
216,3246,0.0,0.0,10.7,time_period_05,-70.9824869999999,42.261918,3246.0,455 Sea St
216,3246,0.0,0.0,9.6,time_period_05,-70.9824869999999,42.261918,3246.0,455 Sea St
216,3246,0.1,0.5,49.0,time_period_05,-70.9824869999999,42.261918,3246.0,455 Sea St
216,3246,0.0,0.3,12.2818181818182,time_period_06,-70.9824869999999,42.261918,3246.0,455 Sea St
216,3246,0.0,0.34,12.6,time_period_07,-70.9824869999999,42.261918,3246.0,455 Sea St
216,3246,0.0,0.3,9.85,time_period_08,-70.9824869999999,42.261918,3246.0,455 Sea St
216,3246,0.0,0.85,3.35,time_period_09,-70.9824869999999,42.261918,3246.0,455 Sea St
216,3246,0.025,0.1125,7.9125,time_period_10,-70.9824869999999,42.261918,3246.0,455 Sea St
216,3246,0.0,0.1,10.0285714285714,time_period_10,-70.9824869999999,42.261918,3246.0,455 Sea St
216,3246,0.0,0.2,7.29,time_period_11,-70.9824869999999,42.261918,3246.0,455 Sea St
216,3246,0.0166666666666667,0.0833333333333333,5.78333333333333,time_period_11,-70.9824869999999,42.261918,3246.0,455 Sea St
216,3247,0.0,0.0,0.766666666666667,time_period_01,-70.98025,42.261337,3247.0,Sea St @ Braintree Ave
216,3247,0.0,0.04,0.56,time_period_02,-70.98025,42.261337,3247.0,Sea St @ Braintree Ave
216,3247,0.0,0.27,1.86,time_period_03,-70.98025,42.261337,3247.0,Sea St @ Braintree Ave
216,3247,0.025,0.2875,6.0875,time_period_04,-70.98025,42.261337,3247.0,Sea St @ Braintree Ave
216,3247,0.04,0.3,6.7,time_period_04,-70.98025,42.261337,3247.0,Sea St @ Braintree Ave
216,3247,0.0571428571428571,0.557142857142857,14.9428571428571,time_period_05,-70.98025,42.261337,3247.0,Sea St @ Braintree Ave
216,3247,0.0,0.1,24.7,time_period_05,-70.98025,42.261337,3247.0,Sea St @ Braintree Ave
216,3247,0.0,0.5,10.2,time_period_05,-70.98025,42.261337,3247.0,Sea St @ Braintree Ave
216,3247,0.0,0.0,9.6,time_period_05,-70.98025,42.261337,3247.0,Sea St @ Braintree Ave
216,3247,0.0,0.2,48.7,time_period_05,-70.98025,42.261337,3247.0,Sea St @ Braintree Ave
216,3247,0.0272727272727273,0.654545454545455,11.6636363636364,time_period_06,-70.98025,42.261337,3247.0,Sea St @ Braintree Ave
216,3247,0.02,0.32,12.32,time_period_07,-70.98025,42.261337,3247.0,Sea St @ Braintree Ave
216,3247,0.0,0.25,9.6,time_period_08,-70.98025,42.261337,3247.0,Sea St @ Braintree Ave
216,3247,0.0,0.15,3.2,time_period_09,-70.98025,42.261337,3247.0,Sea St @ Braintree Ave
216,3247,0.025,0.170833333333333,7.77916666666667,time_period_10,-70.98025,42.261337,3247.0,Sea St @ Braintree Ave
216,3247,0.0428571428571429,0.314285714285714,9.81428571428572,time_period_10,-70.98025,42.261337,3247.0,Sea St @ Braintree Ave
216,3247,0.03,0.11,7.205,time_period_11,-70.98025,42.261337,3247.0,Sea St @ Braintree Ave
216,3247,0.116666666666667,0.233333333333333,5.65,time_period_11,-70.98025,42.261337,3247.0,Sea St @ Braintree Ave
216,3248,0.1,0.0,24.7,time_period_05,,,,
216,3292,0.0333333333333333,0.0,0.833333333333333,time_period_01,-70.978651,42.260737,3292.0,Palmer St @ Sea St
216,3292,0.06,0.02,0.6,time_period_02,-70.978651,42.260737,3292.0,Palmer St @ Sea St
216,3292,0.03,0.11,1.77,time_period_03,-70.978651,42.260737,3292.0,Palmer St @ Sea St
216,3292,0.025,0.375,5.8125,time_period_04,-70.978651,42.260737,3292.0,Palmer St @ Sea St
216,3292,0.06,0.5,6.26,time_period_04,-70.978651,42.260737,3292.0,Palmer St @ Sea St
216,3292,0.185714285714286,0.5,14.6428571428571,time_period_05,-70.978651,42.260737,3292.0,Palmer St @ Sea St
216,3292,0.1,0.4,9.8,time_period_05,-70.978651,42.260737,3292.0,Palmer St @ Sea St
216,3292,0.0,0.0,9.6,time_period_05,-70.978651,42.260737,3292.0,Palmer St @ Sea St
216,3292,0.2,0.3,48.7,time_period_05,-70.978651,42.260737,3292.0,Palmer St @ Sea St
216,3292,0.127272727272727,0.490909090909091,11.2909090909091,time_period_06,-70.978651,42.260737,3292.0,Palmer St @ Sea St
216,3292,0.14,0.5,12.0,time_period_07,-70.978651,42.260737,3292.0,Palmer St @ Sea St
216,3292,0.0,0.1,9.5,time_period_08,-70.978651,42.260737,3292.0,Palmer St @ Sea St
216,3292,0.0,0.5,2.75,time_period_09,-70.978651,42.260737,3292.0,Palmer St @ Sea St
216,3292,0.0833333333333333,0.3625,7.52083333333333,time_period_10,-70.978651,42.260737,3292.0,Palmer St @ Sea St
216,3292,0.0571428571428571,0.542857142857143,9.4,time_period_10,-70.978651,42.260737,3292.0,Palmer St @ Sea St
216,3292,0.04,0.305,6.96,time_period_11,-70.978651,42.260737,3292.0,Palmer St @ Sea St
216,3292,0.0,0.35,5.4,time_period_11,-70.978651,42.260737,3292.0,Palmer St @ Sea St
216,3295,0.2,0.0333333333333333,0.966666666666667,time_period_01,-70.97527,42.258581,3295.0,Palmer St @ Oakwood Rd
216,3295,0.1,0.04,0.66,time_period_02,-70.97527,42.258581,3295.0,Palmer St @ Oakwood Rd
216,3295,0.06,0.05,1.83,time_period_03,-70.97527,42.258581,3295.0,Palmer St @ Oakwood Rd
216,3295,0.0125,0.1875,5.6875,time_period_04,-70.97527,42.258581,3295.0,Palmer St @ Oakwood Rd
216,3295,0.08,0.18,6.14,time_period_04,-70.97527,42.258581,3295.0,Palmer St @ Oakwood Rd
216,3295,0.0714285714285714,0.471428571428571,14.2571428571429,time_period_05,-70.97527,42.258581,3295.0,Palmer St @ Oakwood Rd
216,3295,0.7,0.2,10.3,time_period_05,-70.97527,42.258581,3295.0,Palmer St @ Oakwood Rd
216,3295,0.3,0.0,9.9,time_period_05,-70.97527,42.258581,3295.0,Palmer St @ Oakwood Rd
216,3295,0.3,0.2,48.8,time_period_05,-70.97527,42.258581,3295.0,Palmer St @ Oakwood Rd
216,3295,0.0454545454545454,0.8,10.5545454545455,time_period_06,-70.97527,42.258581,3295.0,Palmer St @ Oakwood Rd
216,3295,0.0,0.7,11.32,time_period_07,-70.97527,42.258581,3295.0,Palmer St @ Oakwood Rd
216,3295,0.0,0.35,9.2,time_period_08,-70.97527,42.258581,3295.0,Palmer St @ Oakwood Rd
216,3295,0.0,0.05,2.7,time_period_09,-70.97527,42.258581,3295.0,Palmer St @ Oakwood Rd
216,3295,0.05,0.425,7.16666666666667,time_period_10,-70.97527,42.258581,3295.0,Palmer St @ Oakwood Rd
216,3295,0.0857142857142857,0.6,8.87142857142857,time_period_10,-70.97527,42.258581,3295.0,Palmer St @ Oakwood Rd
216,3295,0.02,0.275,6.72,time_period_11,-70.97527,42.258581,3295.0,Palmer St @ Oakwood Rd
216,3295,0.0,0.366666666666667,5.03333333333333,time_period_11,-70.97527,42.258581,3295.0,Palmer St @ Oakwood Rd
216,3298,0.0,0.0666666666666667,0.933333333333333,time_period_01,-70.972187,42.258002,3298.0,Palmer St @ Forbush Ave
216,3298,0.02,0.26,0.58,time_period_02,-70.972187,42.258002,3298.0,Palmer St @ Forbush Ave
216,3298,0.03,0.06,1.81,time_period_03,-70.972187,42.258002,3298.0,Palmer St @ Forbush Ave
216,3298,0.0,0.0625,5.65,time_period_04,-70.972187,42.258002,3298.0,Palmer St @ Forbush Ave
216,3298,0.0,0.12,6.08,time_period_04,-70.972187,42.258002,3298.0,Palmer St @ Forbush Ave
216,3298,0.0142857142857143,0.185714285714286,14.1142857142857,time_period_05,-70.972187,42.258002,3298.0,Palmer St @ Forbush Ave
216,3298,0.0,0.0,10.3,time_period_05,-70.972187,42.258002,3298.0,Palmer St @ Forbush Ave
216,3298,0.0,1.0,9.0,time_period_05,-70.972187,42.258002,3298.0,Palmer St @ Forbush Ave
216,3298,0.1,0.7,48.8,time_period_05,-70.972187,42.258002,3298.0,Palmer St @ Forbush Ave
216,3298,0.009090909090909,0.2,10.5,time_period_06,-70.972187,42.258002,3298.0,Palmer St @ Forbush Ave
216,3298,0.02,0.2,11.24,time_period_07,-70.972187,42.258002,3298.0,Palmer St @ Forbush Ave
216,3298,0.0,0.05,9.15,time_period_08,-70.972187,42.258002,3298.0,Palmer St @ Forbush Ave
216,3298,0.0,0.05,2.7,time_period_09,-70.972187,42.258002,3298.0,Palmer St @ Forbush Ave
216,3298,0.0333333333333333,0.220833333333333,6.9875,time_period_10,-70.972187,42.258002,3298.0,Palmer St @ Forbush Ave
216,3298,0.0428571428571429,0.114285714285714,8.82857142857143,time_period_10,-70.972187,42.258002,3298.0,Palmer St @ Forbush Ave
216,3298,0.02,0.145,6.625,time_period_11,-70.972187,42.258002,3298.0,Palmer St @ Forbush Ave
216,3298,0.0333333333333333,0.1,4.95,time_period_11,-70.972187,42.258002,3298.0,Palmer St @ Forbush Ave
216,3299,0.266666666666667,0.0,1.16666666666667,time_period_01,-70.970922,42.2572930000001,3299.0,Palmer St opp Brockton Ave
216,3299,0.14,0.04,0.7,time_period_02,-70.970922,42.2572930000001,3299.0,Palmer St opp Brockton Ave
216,3299,0.05,0.12,1.83,time_period_03,-70.970922,42.2572930000001,3299.0,Palmer St opp Brockton Ave
216,3299,0.0375,0.175,5.5625,time_period_04,-70.970922,42.2572930000001,3299.0,Palmer St opp Brockton Ave
216,3299,0.08,0.26,5.92,time_period_04,-70.970922,42.2572930000001,3299.0,Palmer St opp Brockton Ave
216,3299,0.0285714285714286,0.414285714285714,13.7571428571429,time_period_05,-70.970922,42.2572930000001,3299.0,Palmer St opp Brockton Ave
216,3299,0.0,0.9,9.4,time_period_05,-70.970922,42.2572930000001,3299.0,Palmer St opp Brockton Ave
216,3299,0.0,0.0,9.0,time_period_05,-70.970922,42.2572930000001,3299.0,Palmer St opp Brockton Ave
216,3299,0.0,0.4,48.6,time_period_05,-70.970922,42.2572930000001,3299.0,Palmer St opp Brockton Ave
216,3299,0.0454545454545454,0.409090909090909,10.1454545454545,time_period_06,-70.970922,42.2572930000001,3299.0,Palmer St opp Brockton Ave
216,3299,0.02,0.2,11.08,time_period_07,-70.970922,42.2572930000001,3299.0,Palmer St opp Brockton Ave
216,3299,0.0,0.25,8.9,time_period_08,-70.970922,42.2572930000001,3299.0,Palmer St opp Brockton Ave
216,3299,0.05,0.2,2.55,time_period_09,-70.970922,42.2572930000001,3299.0,Palmer St opp Brockton Ave
216,3299,0.0875,0.141666666666667,6.94166666666667,time_period_10,-70.970922,42.2572930000001,3299.0,Palmer St opp Brockton Ave
216,3299,0.157142857142857,0.271428571428571,8.77142857142857,time_period_10,-70.970922,42.2572930000001,3299.0,Palmer St opp Brockton Ave
216,3299,0.065,0.155,6.56,time_period_11,-70.970922,42.2572930000001,3299.0,Palmer St opp Brockton Ave
216,3299,0.0166666666666667,0.133333333333333,4.9,time_period_11,-70.970922,42.2572930000001,3299.0,Palmer St opp Brockton Ave
216,3300,0.0333333333333333,0.0,1.2,time_period_01,-70.9698069999999,42.2563910000001,3300.0,Palmer St opp Roach St
216,3300,0.1,0.0,0.78,time_period_02,-70.9698069999999,42.2563910000001,3300.0,Palmer St opp Roach St
216,3300,0.01,0.1,1.79,time_period_03,-70.9698069999999,42.2563910000001,3300.0,Palmer St opp Roach St
216,3300,0.025,0.0875,5.5125,time_period_04,-70.9698069999999,42.2563910000001,3300.0,Palmer St opp Roach St
216,3300,0.02,0.24,5.76,time_period_04,-70.9698069999999,42.2563910000001,3300.0,Palmer St opp Roach St
216,3300,0.0285714285714286,0.214285714285714,13.6,time_period_05,-70.9698069999999,42.2563910000001,3300.0,Palmer St opp Roach St
216,3300,0.0,0.1,9.3,time_period_05,-70.9698069999999,42.2563910000001,3300.0,Palmer St opp Roach St
216,3300,0.0,0.3,8.7,time_period_05,-70.9698069999999,42.2563910000001,3300.0,Palmer St opp Roach St
216,3300,0.7,0.2,49.1,time_period_05,-70.9698069999999,42.2563910000001,3300.0,Palmer St opp Roach St
216,3300,0.0363636363636364,0.209090909090909,9.96363636363636,time_period_06,-70.9698069999999,42.2563910000001,3300.0,Palmer St opp Roach St
216,3300,0.0,0.14,10.92,time_period_07,-70.9698069999999,42.2563910000001,3300.0,Palmer St opp Roach St
216,3300,0.0,0.0,8.9,time_period_08,-70.9698069999999,42.2563910000001,3300.0,Palmer St opp Roach St
216,3300,0.0,0.0,2.55,time_period_09,-70.9698069999999,42.2563910000001,3300.0,Palmer St opp Roach St
216,3300,0.0291666666666667,0.0833333333333333,6.8875,time_period_10,-70.9698069999999,42.2563910000001,3300.0,Palmer St opp Roach St
216,3300,0.0142857142857143,0.3,8.6,time_period_10,-70.9698069999999,42.2563910000001,3300.0,Palmer St opp Roach St
216,3300,0.01,0.055,6.52,time_period_11,-70.9698069999999,42.2563910000001,3300.0,Palmer St opp Roach St
216,3300,0.0,0.0,4.9,time_period_11,-70.9698069999999,42.2563910000001,3300.0,Palmer St opp Roach St
216,3301,0.0,0.0,1.2,time_period_01,-70.968562,42.255458,3301.0,Palmer St opp Bowes Ave
216,3301,0.06,0.02,0.84,time_period_02,-70.968562,42.255458,3301.0,Palmer St opp Bowes Ave
216,3301,0.07,0.01,1.84,time_period_03,-70.968562,42.255458,3301.0,Palmer St opp Bowes Ave
216,3301,0.025,0.1125,5.4375,time_period_04,-70.968562,42.255458,3301.0,Palmer St opp Bowes Ave
216,3301,0.0,0.02,5.76,time_period_04,-70.968562,42.255458,3301.0,Palmer St opp Bowes Ave
216,3301,0.0571428571428571,0.157142857142857,13.5285714285714,time_period_05,-70.968562,42.255458,3301.0,Palmer St opp Bowes Ave
216,3301,0.0,0.1,9.2,time_period_05,-70.968562,42.255458,3301.0,Palmer St opp Bowes Ave
216,3301,0.0,0.0,8.7,time_period_05,-70.968562,42.255458,3301.0,Palmer St opp Bowes Ave
216,3301,0.1,0.8,48.3,time_period_05,-70.968562,42.255458,3301.0,Palmer St opp Bowes Ave
216,3301,0.0818181818181818,0.190909090909091,9.86363636363636,time_period_06,-70.968562,42.255458,3301.0,Palmer St opp Bowes Ave
216,3301,0.02,0.12,10.82,time_period_07,-70.968562,42.255458,3301.0,Palmer St opp Bowes Ave
216,3301,0.0,0.05,8.85,time_period_08,-70.968562,42.255458,3301.0,Palmer St opp Bowes Ave
216,3301,0.0,0.0,2.55,time_period_09,-70.968562,42.255458,3301.0,Palmer St opp Bowes Ave
216,3301,0.0416666666666667,0.05,6.875,time_period_10,-70.968562,42.255458,3301.0,Palmer St opp Bowes Ave
216,3301,0.128571428571429,0.128571428571429,8.62857142857143,time_period_10,-70.968562,42.255458,3301.0,Palmer St opp Bowes Ave
216,3301,0.045,0.05,6.51,time_period_11,-70.968562,42.255458,3301.0,Palmer St opp Bowes Ave
216,3301,0.0833333333333333,0.0666666666666667,4.91666666666667,time_period_11,-70.968562,42.255458,3301.0,Palmer St opp Bowes Ave
216,3303,1.5,0.1,2.7,time_period_01,-70.9664529999999,42.2535740000001,3303.0,375 Palmer St
216,3303,2.12,0.14,2.96,time_period_02,-70.9664529999999,42.2535740000001,3303.0,375 Palmer St
216,3303,1.52,2.4,2.16,time_period_03,-70.9664529999999,42.2535740000001,3303.0,375 Palmer St
216,3303,1.175,2.4375,4.6,time_period_04,-70.9664529999999,42.2535740000001,3303.0,375 Palmer St
216,3303,1.08,2.84,4.4,time_period_04,-70.9664529999999,42.2535740000001,3303.0,375 Palmer St
216,3303,0.8,4.48571428571429,9.88571428571429,time_period_05,-70.9664529999999,42.2535740000001,3303.0,375 Palmer St
216,3303,1.4,3.7,7.0,time_period_05,-70.9664529999999,42.2535740000001,3303.0,375 Palmer St
216,3303,0.0,6.7,2.0,time_period_05,-70.9664529999999,42.2535740000001,3303.0,375 Palmer St
216,3303,0.6,13.0,36.1,time_period_05,-70.9664529999999,42.2535740000001,3303.0,375 Palmer St
216,3303,0.427272727272727,2.97272727272727,7.33636363636364,time_period_06,-70.9664529999999,42.2535740000001,3303.0,375 Palmer St
216,3303,0.36,3.64,7.56,time_period_07,-70.9664529999999,42.2535740000001,3303.0,375 Palmer St
216,3303,0.05,3.3,5.6,time_period_08,-70.9664529999999,42.2535740000001,3303.0,375 Palmer St
216,3303,0.0,0.6,2.05,time_period_09,-70.9664529999999,42.2535740000001,3303.0,375 Palmer St
216,3303,1.15416666666667,2.24583333333333,5.875,time_period_10,-70.9664529999999,42.2535740000001,3303.0,375 Palmer St
216,3303,2.2,3.45714285714286,7.85714285714286,time_period_10,-70.9664529999999,42.2535740000001,3303.0,375 Palmer St
216,3303,1.08,2.585,5.255,time_period_11,-70.9664529999999,42.2535740000001,3303.0,375 Palmer St
216,3303,1.35,1.98333333333333,4.55,time_period_11,-70.9664529999999,42.2535740000001,3303.0,375 Palmer St
216,3304,1.03333333333333,0.0333333333333333,3.63333333333333,time_period_01,-70.966686,42.2514370000001,3304.0,Palmer St @ Taffrail Rd
216,3304,1.1,0.02,4.0,time_period_02,-70.966686,42.2514370000001,3304.0,Palmer St @ Taffrail Rd
216,3304,1.05,0.21,3.1,time_period_03,-70.966686,42.2514370000001,3304.0,Palmer St @ Taffrail Rd
216,3304,0.45,0.7375,4.4,time_period_04,-70.966686,42.2514370000001,3304.0,Palmer St @ Taffrail Rd
216,3304,0.36,0.94,3.92,time_period_04,-70.966686,42.2514370000001,3304.0,Palmer St @ Taffrail Rd
216,3304,0.4,1.44285714285714,8.92857142857143,time_period_05,-70.966686,42.2514370000001,3304.0,Palmer St @ Taffrail Rd
216,3304,0.3,1.1,6.3,time_period_05,-70.966686,42.2514370000001,3304.0,Palmer St @ Taffrail Rd
216,3304,0.0,0.3,1.7,time_period_05,-70.966686,42.2514370000001,3304.0,Palmer St @ Taffrail Rd
216,3304,0.1,3.5,35.1,time_period_05,-70.966686,42.2514370000001,3304.0,Palmer St @ Taffrail Rd
216,3304,0.136363636363636,0.963636363636364,6.53636363636364,time_period_06,-70.966686,42.2514370000001,3304.0,Palmer St @ Taffrail Rd
216,3304,0.0,1.28,6.34,time_period_07,-70.966686,42.2514370000001,3304.0,Palmer St @ Taffrail Rd
216,3304,0.0,0.95,4.7,time_period_08,-70.966686,42.2514370000001,3304.0,Palmer St @ Taffrail Rd
216,3304,0.0,0.15,2.15,time_period_09,-70.966686,42.2514370000001,3304.0,Palmer St @ Taffrail Rd
216,3304,0.433333333333333,1.07916666666667,5.27083333333333,time_period_10,-70.966686,42.2514370000001,3304.0,Palmer St @ Taffrail Rd
216,3304,0.657142857142857,1.74285714285714,6.88571428571429,time_period_10,-70.966686,42.2514370000001,3304.0,Palmer St @ Taffrail Rd
216,3304,0.44,1.08,4.67,time_period_11,-70.966686,42.2514370000001,3304.0,Palmer St @ Taffrail Rd
216,3304,0.516666666666667,1.21666666666667,4.0,time_period_11,-70.966686,42.2514370000001,3304.0,Palmer St @ Taffrail Rd
216,3305,0.6,0.0,4.23333333333333,time_period_01,-70.965313,42.251137,3305.0,26 Taffrail Rd
216,3305,1.16,0.06,5.16,time_period_02,-70.965313,42.251137,3305.0,26 Taffrail Rd
216,3305,0.67,0.21,3.62,time_period_03,-70.965313,42.251137,3305.0,26 Taffrail Rd
216,3305,0.4,0.5125,4.325,time_period_04,-70.965313,42.251137,3305.0,26 Taffrail Rd
216,3305,0.38,0.56,3.82,time_period_04,-70.965313,42.251137,3305.0,26 Taffrail Rd
216,3305,0.242857142857143,1.38571428571429,7.82857142857143,time_period_05,-70.965313,42.251137,3305.0,26 Taffrail Rd
216,3305,0.3,1.1,5.5,time_period_05,-70.965313,42.251137,3305.0,26 Taffrail Rd
216,3305,0.0,1.3,0.3,time_period_05,-70.965313,42.251137,3305.0,26 Taffrail Rd
216,3305,0.1,8.5,26.7,time_period_05,-70.965313,42.251137,3305.0,26 Taffrail Rd
216,3305,0.118181818181818,0.790909090909091,5.84545454545455,time_period_06,-70.965313,42.251137,3305.0,26 Taffrail Rd
216,3305,0.0,0.56,5.8,time_period_07,-70.965313,42.251137,3305.0,26 Taffrail Rd
216,3305,0.0,0.5,4.2,time_period_08,-70.965313,42.251137,3305.0,26 Taffrail Rd
216,3305,0.0,0.45,1.7,time_period_09,-70.965313,42.251137,3305.0,26 Taffrail Rd
216,3305,0.225,0.55,4.94583333333333,time_period_10,-70.965313,42.251137,3305.0,26 Taffrail Rd
216,3305,0.585714285714286,0.728571428571429,6.75714285714286,time_period_10,-70.965313,42.251137,3305.0,26 Taffrail Rd
216,3305,0.235,0.36,4.54,time_period_11,-70.965313,42.251137,3305.0,26 Taffrail Rd
216,3305,0.433333333333333,0.45,4.0,time_period_11,-70.965313,42.251137,3305.0,26 Taffrail Rd
216,3306,0.533333333333333,0.0,4.73333333333333,time_period_01,-70.964262,42.251585,3306.0,Taffrail Rd @ Bicknell St
216,3306,0.6,0.04,5.66,time_period_02,-70.964262,42.251585,3306.0,Taffrail Rd @ Bicknell St
216,3306,0.37,0.1,3.9,time_period_03,-70.964262,42.251585,3306.0,Taffrail Rd @ Bicknell St
216,3306,0.275,0.475,4.225,time_period_04,-70.964262,42.251585,3306.0,Taffrail Rd @ Bicknell St
216,3306,0.2,0.56,3.56,time_period_04,-70.964262,42.251585,3306.0,Taffrail Rd @ Bicknell St
216,3306,0.114285714285714,0.742857142857143,7.27142857142857,time_period_05,-70.964262,42.251585,3306.0,Taffrail Rd @ Bicknell St
216,3306,0.2,0.5,5.3,time_period_05,-70.964262,42.251585,3306.0,Taffrail Rd @ Bicknell St
216,3306,0.0,0.0,0.3,time_period_05,-70.964262,42.251585,3306.0,Taffrail Rd @ Bicknell St
216,3306,0.3,2.7,24.3,time_period_05,-70.964262,42.251585,3306.0,Taffrail Rd @ Bicknell St
216,3306,0.0272727272727273,0.372727272727273,5.52727272727273,time_period_06,-70.964262,42.251585,3306.0,Taffrail Rd @ Bicknell St
216,3306,0.06,0.48,5.44,time_period_07,-70.964262,42.251585,3306.0,Taffrail Rd @ Bicknell St
216,3306,0.05,0.2,4.05,time_period_08,-70.964262,42.251585,3306.0,Taffrail Rd @ Bicknell St
216,3306,0.0,0.15,1.55,time_period_09,-70.964262,42.251585,3306.0,Taffrail Rd @ Bicknell St
216,3306,0.229166666666667,0.2125,4.95833333333333,time_period_10,-70.964262,42.251585,3306.0,Taffrail Rd @ Bicknell St
216,3306,0.485714285714286,0.914285714285714,6.38571428571429,time_period_10,-70.964262,42.251585,3306.0,Taffrail Rd @ Bicknell St
216,3306,0.16,0.17,4.53,time_period_11,-70.964262,42.251585,3306.0,Taffrail Rd @ Bicknell St
216,3306,0.266666666666667,0.116666666666667,4.16666666666667,time_period_11,-70.964262,42.251585,3306.0,Taffrail Rd @ Bicknell St
216,3307,0.133333333333333,0.0666666666666667,4.8,time_period_01,-70.963228,42.2511630000001,3307.0,Bicknell St @ O'Brien Towers Driveway
216,3307,0.32,0.1,5.88,time_period_02,-70.963228,42.2511630000001,3307.0,Bicknell St @ O'Brien Towers Driveway
216,3307,0.2,0.05,4.06,time_period_03,-70.963228,42.2511630000001,3307.0,Bicknell St @ O'Brien Towers Driveway
216,3307,0.0125,0.025,4.2125,time_period_04,-70.963228,42.2511630000001,3307.0,Bicknell St @ O'Brien Towers Driveway
216,3307,0.02,0.02,3.58,time_period_04,-70.963228,42.2511630000001,3307.0,Bicknell St @ O'Brien Towers Driveway
216,3307,0.0714285714285714,0.1,7.27142857142857,time_period_05,-70.963228,42.2511630000001,3307.0,Bicknell St @ O'Brien Towers Driveway
216,3307,0.0,0.0,5.3,time_period_05,-70.963228,42.2511630000001,3307.0,Bicknell St @ O'Brien Towers Driveway
216,3307,0.0,0.0,0.3,time_period_05,-70.963228,42.2511630000001,3307.0,Bicknell St @ O'Brien Towers Driveway
216,3307,0.0,0.1,23.9,time_period_05,-70.963228,42.2511630000001,3307.0,Bicknell St @ O'Brien Towers Driveway
216,3307,0.0181818181818182,0.0181818181818182,5.56363636363636,time_period_06,-70.963228,42.2511630000001,3307.0,Bicknell St @ O'Brien Towers Driveway
216,3307,0.02,0.06,5.46,time_period_07,-70.963228,42.2511630000001,3307.0,Bicknell St @ O'Brien Towers Driveway
216,3307,0.0,0.0,4.05,time_period_08,-70.963228,42.2511630000001,3307.0,Bicknell St @ O'Brien Towers Driveway
216,3307,0.0,0.05,1.8,time_period_09,-70.963228,42.2511630000001,3307.0,Bicknell St @ O'Brien Towers Driveway
216,3307,0.0333333333333333,0.0666666666666667,4.95,time_period_10,-70.963228,42.2511630000001,3307.0,Bicknell St @ O'Brien Towers Driveway
216,3307,0.0285714285714286,0.1,6.34285714285714,time_period_10,-70.963228,42.2511630000001,3307.0,Bicknell St @ O'Brien Towers Driveway
216,3307,0.01,0.01,4.535,time_period_11,-70.963228,42.2511630000001,3307.0,Bicknell St @ O'Brien Towers Driveway
216,3307,0.05,0.0166666666666667,4.23333333333333,time_period_11,-70.963228,42.2511630000001,3307.0,Bicknell St @ O'Brien Towers Driveway
216,3308,0.466666666666667,0.1,5.16666666666667,time_period_01,-70.9637079999999,42.2504190000001,3308.0,O'Brien Towers
216,3308,1.52,1.72,5.92,time_period_02,-70.9637079999999,42.2504190000001,3308.0,O'Brien Towers
216,3308,2.16,1.56,5.05,time_period_03,-70.9637079999999,42.2504190000001,3308.0,O'Brien Towers
216,3308,2.7375,4.1375,4.1875,time_period_04,-70.9637079999999,42.2504190000001,3308.0,O'Brien Towers
216,3308,2.54,3.84,3.58,time_period_04,-70.9637079999999,42.2504190000001,3308.0,O'Brien Towers
216,3308,0.842857142857143,2.6,5.75714285714286,time_period_05,-70.9637079999999,42.2504190000001,3308.0,O'Brien Towers
216,3308,1.5,4.4,2.9,time_period_05,-70.9637079999999,42.2504190000001,3308.0,O'Brien Towers
216,3308,0.0,0.3,0.0,time_period_05,-70.9637079999999,42.2504190000001,3308.0,O'Brien Towers
216,3308,0.1,1.1,22.8,time_period_05,-70.9637079999999,42.2504190000001,3308.0,O'Brien Towers
216,3308,0.472727272727273,1.69090909090909,4.52727272727273,time_period_06,-70.9637079999999,42.2504190000001,3308.0,O'Brien Towers
216,3308,0.34,2.0,4.04,time_period_07,-70.9637079999999,42.2504190000001,3308.0,O'Brien Towers
216,3308,0.45,1.5,3.1,time_period_08,-70.9637079999999,42.2504190000001,3308.0,O'Brien Towers
216,3308,0.0,0.55,1.15,time_period_09,-70.9637079999999,42.2504190000001,3308.0,O'Brien Towers
216,3308,1.71666666666667,3.03333333333333,4.40833333333333,time_period_10,-70.9637079999999,42.2504190000001,3308.0,O'Brien Towers
216,3308,2.67142857142857,5.54285714285714,4.71428571428571,time_period_10,-70.9637079999999,42.2504190000001,3308.0,O'Brien Towers
216,3308,1.805,2.73,4.225,time_period_11,-70.9637079999999,42.2504190000001,3308.0,O'Brien Towers
216,3308,1.66666666666667,3.2,3.45,time_period_11,-70.9637079999999,42.2504190000001,3308.0,O'Brien Towers
216,3309,0.0,0.0,5.16666666666667,time_period_01,-70.963094,42.251048,3309.0,O'Brien Towers Driveway @ Bicknell St
216,3309,0.02,0.0,5.96,time_period_02,-70.963094,42.251048,3309.0,O'Brien Towers Driveway @ Bicknell St
216,3309,0.02,0.0,5.05,time_period_03,-70.963094,42.251048,3309.0,O'Brien Towers Driveway @ Bicknell St
216,3309,0.0125,0.0,4.1875,time_period_04,-70.963094,42.251048,3309.0,O'Brien Towers Driveway @ Bicknell St
216,3309,0.0,0.0,3.6,time_period_04,-70.963094,42.251048,3309.0,O'Brien Towers Driveway @ Bicknell St
216,3309,0.0,0.0428571428571429,5.74285714285714,time_period_05,-70.963094,42.251048,3309.0,O'Brien Towers Driveway @ Bicknell St
216,3309,0.0,0.0,2.9,time_period_05,-70.963094,42.251048,3309.0,O'Brien Towers Driveway @ Bicknell St
216,3309,0.0,0.0,22.9,time_period_05,-70.963094,42.251048,3309.0,O'Brien Towers Driveway @ Bicknell St
216,3309,0.0,0.009090909090909,4.50909090909091,time_period_06,-70.963094,42.251048,3309.0,O'Brien Towers Driveway @ Bicknell St
216,3309,0.0,0.0,4.06,time_period_07,-70.963094,42.251048,3309.0,O'Brien Towers Driveway @ Bicknell St
216,3309,0.0,0.05,3.05,time_period_08,-70.963094,42.251048,3309.0,O'Brien Towers Driveway @ Bicknell St
216,3309,0.0,0.0,1.15,time_period_09,-70.963094,42.251048,3309.0,O'Brien Towers Driveway @ Bicknell St
216,3309,0.0041666666666666,0.0125,4.4,time_period_10,-70.963094,42.251048,3309.0,O'Brien Towers Driveway @ Bicknell St
216,3309,0.0142857142857143,0.0,4.72857142857143,time_period_10,-70.963094,42.251048,3309.0,O'Brien Towers Driveway @ Bicknell St
216,3309,0.015,0.02,4.21,time_period_11,-70.963094,42.251048,3309.0,O'Brien Towers Driveway @ Bicknell St
216,3309,0.0333333333333333,0.05,3.43333333333333,time_period_11,-70.963094,42.251048,3309.0,O'Brien Towers Driveway @ Bicknell St
216,3310,0.0,0.0,5.2,time_period_01,-70.964106,42.251677,3310.0,Bicknell St @ Binnacle Lane
216,3310,0.42,0.08,6.26,time_period_02,-70.964106,42.251677,3310.0,Bicknell St @ Binnacle Lane
216,3310,0.41,0.0,5.43,time_period_03,-70.964106,42.251677,3310.0,Bicknell St @ Binnacle Lane
216,3310,0.2375,0.05,4.3875,time_period_04,-70.964106,42.251677,3310.0,Bicknell St @ Binnacle Lane
216,3310,0.22,0.02,3.8,time_period_04,-70.964106,42.251677,3310.0,Bicknell St @ Binnacle Lane
216,3310,0.142857142857143,0.0714285714285714,5.78571428571429,time_period_05,-70.964106,42.251677,3310.0,Bicknell St @ Binnacle Lane
216,3310,0.2,0.1,3.0,time_period_05,-70.964106,42.251677,3310.0,Bicknell St @ Binnacle Lane
216,3310,0.0,0.0,22.9,time_period_05,-70.964106,42.251677,3310.0,Bicknell St @ Binnacle Lane
216,3310,0.163636363636364,0.0545454545454545,4.60909090909091,time_period_06,-70.964106,42.251677,3310.0,Bicknell St @ Binnacle Lane
216,3310,0.08,0.06,4.06,time_period_07,-70.964106,42.251677,3310.0,Bicknell St @ Binnacle Lane
216,3310,0.0,0.0,3.05,time_period_08,-70.964106,42.251677,3310.0,Bicknell St @ Binnacle Lane
216,3310,0.0,0.0,1.15,time_period_09,-70.964106,42.251677,3310.0,Bicknell St @ Binnacle Lane
216,3310,0.129166666666667,0.0666666666666667,4.4625,time_period_10,-70.964106,42.251677,3310.0,Bicknell St @ Binnacle Lane
216,3310,0.257142857142857,0.0285714285714286,4.94285714285714,time_period_10,-70.964106,42.251677,3310.0,Bicknell St @ Binnacle Lane
216,3310,0.09,0.035,4.265,time_period_11,-70.964106,42.251677,3310.0,Bicknell St @ Binnacle Lane
216,3310,0.283333333333333,0.0,3.71666666666667,time_period_11,-70.964106,42.251677,3310.0,Bicknell St @ Binnacle Lane
216,3311,0.566666666666667,0.333333333333333,5.5,time_period_01,-70.965367,42.2528170000001,3311.0,Bicknell St @ Yardarm Ln
216,3311,1.98,0.26,8.08,time_period_02,-70.965367,42.2528170000001,3311.0,Bicknell St @ Yardarm Ln
216,3311,1.05,0.13,6.38,time_period_03,-70.965367,42.2528170000001,3311.0,Bicknell St @ Yardarm Ln
216,3311,0.3625,0.1125,4.625,time_period_04,-70.965367,42.2528170000001,3311.0,Bicknell St @ Yardarm Ln
216,3311,0.34,0.1,4.04,time_period_04,-70.965367,42.2528170000001,3311.0,Bicknell St @ Yardarm Ln
216,3311,0.214285714285714,0.142857142857143,5.85714285714286,time_period_05,-70.965367,42.2528170000001,3311.0,Bicknell St @ Yardarm Ln
216,3311,1.0,0.1,3.9,time_period_05,-70.965367,42.2528170000001,3311.0,Bicknell St @ Yardarm Ln
216,3311,0.1,1.1,21.9,time_period_05,-70.965367,42.2528170000001,3311.0,Bicknell St @ Yardarm Ln
216,3311,0.118181818181818,0.163636363636364,4.58181818181818,time_period_06,-70.965367,42.2528170000001,3311.0,Bicknell St @ Yardarm Ln
216,3311,0.1,0.2,4.0,time_period_07,-70.965367,42.2528170000001,3311.0,Bicknell St @ Yardarm Ln
216,3311,0.0,0.1,2.95,time_period_08,-70.965367,42.2528170000001,3311.0,Bicknell St @ Yardarm Ln
216,3311,0.0,0.15,1.0,time_period_09,-70.965367,42.2528170000001,3311.0,Bicknell St @ Yardarm Ln
216,3311,0.275,0.129166666666667,4.60416666666667,time_period_10,-70.965367,42.2528170000001,3311.0,Bicknell St @ Yardarm Ln
216,3311,0.785714285714286,0.128571428571429,5.58571428571429,time_period_10,-70.965367,42.2528170000001,3311.0,Bicknell St @ Yardarm Ln
216,3311,0.275,0.325,4.24,time_period_11,-70.965367,42.2528170000001,3311.0,Bicknell St @ Yardarm Ln
216,3311,0.366666666666667,0.133333333333333,3.96666666666667,time_period_11,-70.965367,42.2528170000001,3311.0,Bicknell St @ Yardarm Ln
216,3312,0.533333333333333,0.1,6.0,time_period_01,-70.9662949999999,42.253545,3312.0,Palmer St @ Shed St
216,3312,2.56,0.42,10.36,time_period_02,-70.9662949999999,42.253545,3312.0,Palmer St @ Shed St
216,3312,2.2,0.39,8.21,time_period_03,-70.9662949999999,42.253545,3312.0,Palmer St @ Shed St
216,3312,1.8875,0.2,6.3375,time_period_04,-70.9662949999999,42.253545,3312.0,Palmer St @ Shed St
216,3312,1.5,0.22,5.3,time_period_04,-70.9662949999999,42.253545,3312.0,Palmer St @ Shed St
216,3312,1.25714285714286,0.157142857142857,7.0,time_period_05,-70.9662949999999,42.253545,3312.0,Palmer St @ Shed St
216,3312,1.0,0.1,4.9,time_period_05,-70.9662949999999,42.253545,3312.0,Palmer St @ Shed St
216,3312,0.1,0.4,21.6,time_period_05,-70.9662949999999,42.253545,3312.0,Palmer St @ Shed St
216,3312,0.518181818181818,0.0727272727272727,4.99090909090909,time_period_06,-70.9662949999999,42.253545,3312.0,Palmer St @ Shed St
216,3312,0.46,0.06,4.34,time_period_07,-70.9662949999999,42.253545,3312.0,Palmer St @ Shed St
216,3312,0.05,0.0,3.05,time_period_08,-70.9662949999999,42.253545,3312.0,Palmer St @ Shed St
216,3312,0.0,0.05,1.1,time_period_09,-70.9662949999999,42.253545,3312.0,Palmer St @ Shed St
216,3312,0.9,0.108333333333333,5.40833333333333,time_period_10,-70.9662949999999,42.253545,3312.0,Palmer St @ Shed St
216,3312,1.51428571428571,0.0571428571428571,7.04285714285714,time_period_10,-70.9662949999999,42.253545,3312.0,Palmer St @ Shed St
216,3312,0.745,0.05,4.925,time_period_11,-70.9662949999999,42.253545,3312.0,Palmer St @ Shed St
216,3312,1.08333333333333,0.0,5.05,time_period_11,-70.9662949999999,42.253545,3312.0,Palmer St @ Shed St
216,3314,0.0,0.0,5.96666666666667,time_period_01,-70.968285,42.2554700000001,3314.0,Palmer St @ Bowes Ave
216,3314,0.22,0.1,10.52,time_period_02,-70.968285,42.2554700000001,3314.0,Palmer St @ Bowes Ave
216,3314,0.13,0.0,8.35,time_period_03,-70.968285,42.2554700000001,3314.0,Palmer St @ Bowes Ave
216,3314,0.0875,0.1125,6.3375,time_period_04,-70.968285,42.2554700000001,3314.0,Palmer St @ Bowes Ave
216,3314,0.04,0.0,5.32,time_period_04,-70.968285,42.2554700000001,3314.0,Palmer St @ Bowes Ave
216,3314,0.0428571428571429,0.0,7.02857142857143,time_period_05,-70.968285,42.2554700000001,3314.0,Palmer St @ Bowes Ave
216,3314,0.1,0.1,4.9,time_period_05,-70.968285,42.2554700000001,3314.0,Palmer St @ Bowes Ave
216,3314,0.0,0.1,23.8,time_period_05,-70.968285,42.2554700000001,3314.0,Palmer St @ Bowes Ave
216,3314,0.0363636363636364,0.0181818181818182,5.0,time_period_06,-70.968285,42.2554700000001,3314.0,Palmer St @ Bowes Ave
216,3314,0.02,0.02,4.32,time_period_07,-70.968285,42.2554700000001,3314.0,Palmer St @ Bowes Ave
216,3314,0.0,0.05,3.0,time_period_08,-70.968285,42.2554700000001,3314.0,Palmer St @ Bowes Ave
216,3314,0.0,0.0,1.0,time_period_09,-70.968285,42.2554700000001,3314.0,Palmer St @ Bowes Ave
216,3314,0.0291666666666667,0.0458333333333333,5.40416666666667,time_period_10,-70.968285,42.2554700000001,3314.0,Palmer St @ Bowes Ave
216,3314,0.142857142857143,0.1,7.12857142857143,time_period_10,-70.968285,42.2554700000001,3314.0,Palmer St @ Bowes Ave
216,3314,0.03,0.12,4.825,time_period_11,-70.968285,42.2554700000001,3314.0,Palmer St @ Bowes Ave
216,3314,0.0666666666666667,0.0,5.08333333333333,time_period_11,-70.968285,42.2554700000001,3314.0,Palmer St @ Bowes Ave
216,3315,0.0,0.0,6.03333333333333,time_period_01,-70.969556,42.2563240000001,3315.0,Palmer St @ Roach St
216,3315,0.26,0.14,10.64,time_period_02,-70.969556,42.2563240000001,3315.0,Palmer St @ Roach St
216,3315,0.13,0.05,8.43,time_period_03,-70.969556,42.2563240000001,3315.0,Palmer St @ Roach St
216,3315,0.05,0.075,6.3,time_period_04,-70.969556,42.2563240000001,3315.0,Palmer St @ Roach St
216,3315,0.06,0.06,5.32,time_period_04,-70.969556,42.2563240000001,3315.0,Palmer St @ Roach St
216,3315,0.0142857142857143,0.142857142857143,6.88571428571429,time_period_05,-70.969556,42.2563240000001,3315.0,Palmer St @ Roach St
216,3315,0.1,0.0,5.0,time_period_05,-70.969556,42.2563240000001,3315.0,Palmer St @ Roach St
216,3315,0.0,0.1,22.3,time_period_05,-70.969556,42.2563240000001,3315.0,Palmer St @ Roach St
216,3315,0.0181818181818182,0.1,4.90909090909091,time_period_06,-70.969556,42.2563240000001,3315.0,Palmer St @ Roach St
216,3315,0.0,0.04,4.28,time_period_07,-70.969556,42.2563240000001,3315.0,Palmer St @ Roach St
216,3315,0.0,0.0,3.0,time_period_08,-70.969556,42.2563240000001,3315.0,Palmer St @ Roach St
216,3315,0.0,0.0,0.9,time_period_09,-70.969556,42.2563240000001,3315.0,Palmer St @ Roach St
216,3315,0.0166666666666667,0.0833333333333333,5.34166666666667,time_period_10,-70.969556,42.2563240000001,3315.0,Palmer St @ Roach St
216,3315,0.142857142857143,0.271428571428571,6.98571428571429,time_period_10,-70.969556,42.2563240000001,3315.0,Palmer St @ Roach St
216,3315,0.025,0.075,4.78,time_period_11,-70.969556,42.2563240000001,3315.0,Palmer St @ Roach St
216,3315,0.0166666666666667,0.25,4.83333333333333,time_period_11,-70.969556,42.2563240000001,3315.0,Palmer St @ Roach St
216,3316,0.1,0.0333333333333333,6.1,time_period_01,-70.9706639999999,42.2572260000001,3316.0,Palmer St @ Brockton Ave
216,3316,0.2,0.0,10.82,time_period_02,-70.9706639999999,42.2572260000001,3316.0,Palmer St @ Brockton Ave
216,3316,0.25,0.05,8.6,time_period_03,-70.9706639999999,42.2572260000001,3316.0,Palmer St @ Brockton Ave
216,3316,0.175,0.15,6.3375,time_period_04,-70.9706639999999,42.2572260000001,3316.0,Palmer St @ Brockton Ave
216,3316,0.14,0.1,5.36,time_period_04,-70.9706639999999,42.2572260000001,3316.0,Palmer St @ Brockton Ave
216,3316,0.0857142857142857,0.0428571428571429,6.94285714285714,time_period_05,-70.9706639999999,42.2572260000001,3316.0,Palmer St @ Brockton Ave
216,3316,0.1,0.1,5.0,time_period_05,-70.9706639999999,42.2572260000001,3316.0,Palmer St @ Brockton Ave
216,3316,0.0,0.0,22.3,time_period_05,-70.9706639999999,42.2572260000001,3316.0,Palmer St @ Brockton Ave
216,3316,0.0636363636363636,0.0818181818181818,4.92727272727273,time_period_06,-70.9706639999999,42.2572260000001,3316.0,Palmer St @ Brockton Ave
216,3316,0.12,0.0,4.36,time_period_07,-70.9706639999999,42.2572260000001,3316.0,Palmer St @ Brockton Ave
216,3316,0.0,0.0,3.05,time_period_08,-70.9706639999999,42.2572260000001,3316.0,Palmer St @ Brockton Ave
216,3316,0.0,0.0,0.9,time_period_09,-70.9706639999999,42.2572260000001,3316.0,Palmer St @ Brockton Ave
216,3316,0.108333333333333,0.0958333333333333,5.35416666666667,time_period_10,-70.9706639999999,42.2572260000001,3316.0,Palmer St @ Brockton Ave
216,3316,0.2,0.114285714285714,7.07142857142857,time_period_10,-70.9706639999999,42.2572260000001,3316.0,Palmer St @ Brockton Ave
216,3316,0.03,0.11,4.705,time_period_11,-70.9706639999999,42.2572260000001,3316.0,Palmer St @ Brockton Ave
216,3316,0.1,0.15,4.78333333333333,time_period_11,-70.9706639999999,42.2572260000001,3316.0,Palmer St @ Brockton Ave
216,3317,0.233333333333333,0.0,6.33333333333333,time_period_01,-70.9718329999999,42.2579640000001,3317.0,Palmer St @ Empire St
216,3317,0.12,0.0,10.92,time_period_02,-70.9718329999999,42.2579640000001,3317.0,Palmer St @ Empire St
216,3317,0.23,0.02,8.79,time_period_03,-70.9718329999999,42.2579640000001,3317.0,Palmer St @ Empire St
216,3317,0.1,0.025,6.4,time_period_04,-70.9718329999999,42.2579640000001,3317.0,Palmer St @ Empire St
216,3317,0.12,0.0,5.42,time_period_04,-70.9718329999999,42.2579640000001,3317.0,Palmer St @ Empire St
216,3317,0.0714285714285714,0.0142857142857143,6.98571428571429,time_period_05,-70.9718329999999,42.2579640000001,3317.0,Palmer St @ Empire St
216,3317,0.2,0.0,5.2,time_period_05,-70.9718329999999,42.2579640000001,3317.0,Palmer St @ Empire St
216,3317,0.0,0.0,22.3,time_period_05,-70.9718329999999,42.2579640000001,3317.0,Palmer St @ Empire St
216,3317,0.0363636363636364,0.0,4.95454545454545,time_period_06,-70.9718329999999,42.2579640000001,3317.0,Palmer St @ Empire St
216,3317,0.04,0.02,4.4,time_period_07,-70.9718329999999,42.2579640000001,3317.0,Palmer St @ Empire St
216,3317,0.05,0.0,3.05,time_period_08,-70.9718329999999,42.2579640000001,3317.0,Palmer St @ Empire St
216,3317,0.0,0.0,0.9,time_period_09,-70.9718329999999,42.2579640000001,3317.0,Palmer St @ Empire St
216,3317,0.108333333333333,0.0041666666666666,5.44583333333333,time_period_10,-70.9718329999999,42.2579640000001,3317.0,Palmer St @ Empire St
216,3317,0.142857142857143,0.0,7.2,time_period_10,-70.9718329999999,42.2579640000001,3317.0,Palmer St @ Empire St
216,3317,0.08,0.015,4.77,time_period_11,-70.9718329999999,42.2579640000001,3317.0,Palmer St @ Empire St
216,3317,0.0666666666666667,0.0333333333333333,4.8,time_period_11,-70.9718329999999,42.2579640000001,3317.0,Palmer St @ Empire St
216,3320,0.166666666666667,0.0,6.5,time_period_01,-70.9750079999999,42.258635,3320.0,Palmer St opp Oakwood Rd
216,3320,0.2,0.1,11.0,time_period_02,-70.9750079999999,42.258635,3320.0,Palmer St opp Oakwood Rd
216,3320,0.06,0.0,8.86,time_period_03,-70.9750079999999,42.258635,3320.0,Palmer St opp Oakwood Rd
216,3320,0.0375,0.0125,6.4375,time_period_04,-70.9750079999999,42.258635,3320.0,Palmer St opp Oakwood Rd
216,3320,0.04,0.0,5.48,time_period_04,-70.9750079999999,42.258635,3320.0,Palmer St opp Oakwood Rd
216,3320,0.0,0.0571428571428571,6.97142857142857,time_period_05,-70.9750079999999,42.258635,3320.0,Palmer St opp Oakwood Rd
216,3320,0.1,0.0,5.2,time_period_05,-70.9750079999999,42.258635,3320.0,Palmer St opp Oakwood Rd
216,3320,0.0,0.0,22.3,time_period_05,-70.9750079999999,42.258635,3320.0,Palmer St opp Oakwood Rd
216,3320,0.0,0.0272727272727273,4.91818181818182,time_period_06,-70.9750079999999,42.258635,3320.0,Palmer St opp Oakwood Rd
216,3320,0.0,0.0,4.4,time_period_07,-70.9750079999999,42.258635,3320.0,Palmer St opp Oakwood Rd
216,3320,0.0,0.0,3.05,time_period_08,-70.9750079999999,42.258635,3320.0,Palmer St opp Oakwood Rd
216,3320,0.0,0.0,0.9,time_period_09,-70.9750079999999,42.258635,3320.0,Palmer St opp Oakwood Rd
216,3320,0.075,0.0666666666666667,5.45416666666667,time_period_10,-70.9750079999999,42.258635,3320.0,Palmer St opp Oakwood Rd
216,3320,0.1,0.114285714285714,7.2,time_period_10,-70.9750079999999,42.258635,3320.0,Palmer St opp Oakwood Rd
216,3320,0.015,0.0,4.79,time_period_11,-70.9750079999999,42.258635,3320.0,Palmer St opp Oakwood Rd
216,3320,0.0166666666666667,0.0,4.81666666666667,time_period_11,-70.9750079999999,42.258635,3320.0,Palmer St opp Oakwood Rd
216,3321,0.2,0.0,6.66666666666667,time_period_01,-70.975882,42.2587730000001,3321.0,Palmer St opp Wilgus Rd
216,3321,0.18,0.18,10.98,time_period_02,-70.975882,42.2587730000001,3321.0,Palmer St opp Wilgus Rd
216,3321,0.05,0.07,8.87,time_period_03,-70.975882,42.2587730000001,3321.0,Palmer St opp Wilgus Rd
216,3321,0.0125,0.025,6.4375,time_period_04,-70.975882,42.2587730000001,3321.0,Palmer St opp Wilgus Rd
216,3321,0.0,0.04,5.44,time_period_04,-70.975882,42.2587730000001,3321.0,Palmer St opp Wilgus Rd
216,3321,0.0857142857142857,0.0857142857142857,6.94285714285714,time_period_05,-70.975882,42.2587730000001,3321.0,Palmer St opp Wilgus Rd
216,3321,0.2,0.0,5.4,time_period_05,-70.975882,42.2587730000001,3321.0,Palmer St opp Wilgus Rd
216,3321,0.0,0.0,22.3,time_period_05,-70.975882,42.2587730000001,3321.0,Palmer St opp Wilgus Rd
216,3321,0.0272727272727273,0.0181818181818182,4.93636363636364,time_period_06,-70.975882,42.2587730000001,3321.0,Palmer St opp Wilgus Rd
216,3321,0.02,0.04,4.38,time_period_07,-70.975882,42.2587730000001,3321.0,Palmer St opp Wilgus Rd
216,3321,0.0,0.0,3.0,time_period_08,-70.975882,42.2587730000001,3321.0,Palmer St opp Wilgus Rd
216,3321,0.0,0.0,0.9,time_period_09,-70.975882,42.2587730000001,3321.0,Palmer St opp Wilgus Rd
216,3321,0.0833333333333333,0.0166666666666667,5.50416666666667,time_period_10,-70.975882,42.2587730000001,3321.0,Palmer St opp Wilgus Rd
216,3321,0.0714285714285714,0.0,7.27142857142857,time_period_10,-70.975882,42.2587730000001,3321.0,Palmer St opp Wilgus Rd
216,3321,0.04,0.03,4.79,time_period_11,-70.975882,42.2587730000001,3321.0,Palmer St opp Wilgus Rd
216,3321,0.0333333333333333,0.0833333333333333,4.75,time_period_11,-70.975882,42.2587730000001,3321.0,Palmer St opp Wilgus Rd
216,3322,0.0,0.1,6.63333333333333,time_period_01,-70.978089,42.2598780000001,3322.0,Palmer St opp Utica St
216,3322,0.0,0.16,10.86,time_period_02,-70.978089,42.2598780000001,3322.0,Palmer St opp Utica St
216,3322,0.02,0.93,8.0,time_period_03,-70.978089,42.2598780000001,3322.0,Palmer St opp Utica St
216,3322,0.0,0.025,6.425,time_period_04,-70.978089,42.2598780000001,3322.0,Palmer St opp Utica St
216,3322,0.0,0.0,5.46,time_period_04,-70.978089,42.2598780000001,3322.0,Palmer St opp Utica St
216,3322,0.0,0.0428571428571429,6.9,time_period_05,-70.978089,42.2598780000001,3322.0,Palmer St opp Utica St
216,3322,0.0,1.1,4.2,time_period_05,-70.978089,42.2598780000001,3322.0,Palmer St opp Utica St
216,3322,0.0,0.0,22.2,time_period_05,-70.978089,42.2598780000001,3322.0,Palmer St opp Utica St
216,3322,0.0,0.0,4.92727272727273,time_period_06,-70.978089,42.2598780000001,3322.0,Palmer St opp Utica St
216,3322,0.0,0.0,4.36,time_period_07,-70.978089,42.2598780000001,3322.0,Palmer St opp Utica St
216,3322,0.0,0.0,3.05,time_period_08,-70.978089,42.2598780000001,3322.0,Palmer St opp Utica St
216,3322,0.0,0.0,0.9,time_period_09,-70.978089,42.2598780000001,3322.0,Palmer St opp Utica St
216,3322,0.0166666666666667,0.0583333333333333,5.47083333333333,time_period_10,-70.978089,42.2598780000001,3322.0,Palmer St opp Utica St
216,3322,0.0142857142857143,0.0857142857142857,7.2,time_period_10,-70.978089,42.2598780000001,3322.0,Palmer St opp Utica St
216,3322,0.005,0.005,4.795,time_period_11,-70.978089,42.2598780000001,3322.0,Palmer St opp Utica St
216,3322,0.0,0.0333333333333333,4.73333333333333,time_period_11,-70.978089,42.2598780000001,3322.0,Palmer St opp Utica St
216,3323,0.0333333333333333,0.0,6.66666666666667,time_period_01,-70.978562,42.2608270000001,3323.0,Palmer St @ Sea St
216,3323,0.04,1.64,9.28,time_period_02,-70.978562,42.2608270000001,3323.0,Palmer St @ Sea St
216,3323,0.02,1.73,6.31,time_period_03,-70.978562,42.2608270000001,3323.0,Palmer St @ Sea St
216,3323,0.0125,0.175,6.3,time_period_04,-70.978562,42.2608270000001,3323.0,Palmer St @ Sea St
216,3323,0.02,0.12,5.36,time_period_04,-70.978562,42.2608270000001,3323.0,Palmer St @ Sea St
216,3323,0.0142857142857143,0.0714285714285714,6.84285714285714,time_period_05,-70.978562,42.2608270000001,3323.0,Palmer St @ Sea St
216,3323,0.0,0.2,4.0,time_period_05,-70.978562,42.2608270000001,3323.0,Palmer St @ Sea St
216,3323,0.0,0.0,22.2,time_period_05,-70.978562,42.2608270000001,3323.0,Palmer St @ Sea St
216,3323,0.0272727272727273,0.0272727272727273,4.95454545454545,time_period_06,-70.978562,42.2608270000001,3323.0,Palmer St @ Sea St
216,3323,0.04,0.0,4.4,time_period_07,-70.978562,42.2608270000001,3323.0,Palmer St @ Sea St
216,3323,0.0,0.0,2.95,time_period_08,-70.978562,42.2608270000001,3323.0,Palmer St @ Sea St
216,3323,0.0,0.0,0.9,time_period_09,-70.978562,42.2608270000001,3323.0,Palmer St @ Sea St
216,3323,0.0375,0.0416666666666667,5.4625,time_period_10,-70.978562,42.2608270000001,3323.0,Palmer St @ Sea St
216,3323,0.0857142857142857,0.128571428571429,7.15714285714286,time_period_10,-70.978562,42.2608270000001,3323.0,Palmer St @ Sea St
216,3323,0.04,0.32,4.54,time_period_11,-70.978562,42.2608270000001,3323.0,Palmer St @ Sea St
216,3323,0.0166666666666667,0.3,4.46666666666667,time_period_11,-70.978562,42.2608270000001,3323.0,Palmer St @ Sea St
216,3249,0.0,0.0,6.66666666666667,time_period_01,-70.9776869999999,42.260768,3249.0,565 Sea St
216,3249,0.02,0.1,9.22,time_period_02,-70.9776869999999,42.260768,3249.0,565 Sea St
216,3249,0.0,0.13,6.17,time_period_03,-70.9776869999999,42.260768,3249.0,565 Sea St
216,3249,0.0,0.0,6.3,time_period_04,-70.9776869999999,42.260768,3249.0,565 Sea St
216,3249,0.0,0.0,5.36,time_period_04,-70.9776869999999,42.260768,3249.0,565 Sea St
216,3249,0.1,0.2,24.7,time_period_05,-70.9776869999999,42.260768,3249.0,565 Sea St
216,3249,0.0,0.0,6.84285714285714,time_period_05,-70.9776869999999,42.260768,3249.0,565 Sea St
216,3249,0.0,0.0,4.0,time_period_05,-70.9776869999999,42.260768,3249.0,565 Sea St
216,3249,0.0,0.0,22.2,time_period_05,-70.9776869999999,42.260768,3249.0,565 Sea St
216,3249,0.0181818181818182,0.0181818181818182,4.95454545454545,time_period_06,-70.9776869999999,42.260768,3249.0,565 Sea St
216,3249,0.0,0.0,4.4,time_period_07,-70.9776869999999,42.260768,3249.0,565 Sea St
216,3249,0.0,0.0,2.95,time_period_08,-70.9776869999999,42.260768,3249.0,565 Sea St
216,3249,0.0,0.0,0.95,time_period_09,-70.9776869999999,42.260768,3249.0,565 Sea St
216,3249,0.0083333333333333,0.0041666666666666,5.46666666666667,time_period_10,-70.9776869999999,42.260768,3249.0,565 Sea St
216,3249,0.0,0.0,7.15714285714286,time_period_10,-70.9776869999999,42.260768,3249.0,565 Sea St
216,3249,0.01,0.005,4.54,time_period_11,-70.9776869999999,42.260768,3249.0,565 Sea St
216,3249,0.0,0.0,4.46666666666667,time_period_11,-70.9776869999999,42.260768,3249.0,565 Sea St
216,3250,0.0,0.0,6.63333333333333,time_period_01,-70.973875,42.262071,3250.0,Sea St @ Lee St
216,3250,0.0,0.04,9.06,time_period_02,-70.973875,42.262071,3250.0,Sea St @ Lee St
216,3250,0.0,0.04,6.13,time_period_03,-70.973875,42.262071,3250.0,Sea St @ Lee St
216,3250,0.0125,0.1125,6.1875,time_period_04,-70.973875,42.262071,3250.0,Sea St @ Lee St
216,3250,0.0,0.04,5.28,time_period_04,-70.973875,42.262071,3250.0,Sea St @ Lee St
216,3250,0.5,0.6,24.6,time_period_05,-70.973875,42.262071,3250.0,Sea St @ Lee St
216,3250,0.0142857142857143,0.257142857142857,6.6,time_period_05,-70.973875,42.262071,3250.0,Sea St @ Lee St
216,3250,0.0,0.2,3.8,time_period_05,-70.973875,42.262071,3250.0,Sea St @ Lee St
216,3250,0.0,0.4,21.5,time_period_05,-70.973875,42.262071,3250.0,Sea St @ Lee St
216,3250,0.0,0.127272727272727,4.74545454545455,time_period_06,-70.973875,42.262071,3250.0,Sea St @ Lee St
216,3250,0.0,0.2,4.2,time_period_07,-70.973875,42.262071,3250.0,Sea St @ Lee St
216,3250,0.0,0.05,2.9,time_period_08,-70.973875,42.262071,3250.0,Sea St @ Lee St
216,3250,0.0,0.1,0.85,time_period_09,-70.973875,42.262071,3250.0,Sea St @ Lee St
216,3250,0.025,0.179166666666667,5.28333333333333,time_period_10,-70.973875,42.262071,3250.0,Sea St @ Lee St
216,3250,0.0428571428571429,0.185714285714286,6.98571428571429,time_period_10,-70.973875,42.262071,3250.0,Sea St @ Lee St
216,3250,0.0,0.105,4.43,time_period_11,-70.973875,42.262071,3250.0,Sea St @ Lee St
216,3250,0.0166666666666667,0.0833333333333333,4.36666666666667,time_period_11,-70.973875,42.262071,3250.0,Sea St @ Lee St
216,3251,0.0,0.0,6.63333333333333,time_period_01,-70.971917,42.2633460000001,3251.0,Opp 700 Sea St
216,3251,0.0,0.0,9.1,time_period_02,-70.971917,42.2633460000001,3251.0,Opp 700 Sea St
216,3251,0.0,0.02,6.11,time_period_03,-70.971917,42.2633460000001,3251.0,Opp 700 Sea St
216,3251,0.0,0.0375,6.1625,time_period_04,-70.971917,42.2633460000001,3251.0,Opp 700 Sea St
216,3251,0.0,0.04,5.26,time_period_04,-70.971917,42.2633460000001,3251.0,Opp 700 Sea St
216,3251,0.0,0.1,24.5,time_period_05,-70.971917,42.2633460000001,3251.0,Opp 700 Sea St
216,3251,0.0,0.0285714285714286,6.57142857142857,time_period_05,-70.971917,42.2633460000001,3251.0,Opp 700 Sea St
216,3251,0.0,0.0,3.8,time_period_05,-70.971917,42.2633460000001,3251.0,Opp 700 Sea St
216,3251,0.0,0.3,21.3,time_period_05,-70.971917,42.2633460000001,3251.0,Opp 700 Sea St
216,3251,0.0,0.0363636363636364,4.70909090909091,time_period_06,-70.971917,42.2633460000001,3251.0,Opp 700 Sea St
216,3251,0.0,0.18,4.0,time_period_07,-70.971917,42.2633460000001,3251.0,Opp 700 Sea St
216,3251,0.0,0.0,2.9,time_period_08,-70.971917,42.2633460000001,3251.0,Opp 700 Sea St
216,3251,0.0,0.0,0.85,time_period_09,-70.971917,42.2633460000001,3251.0,Opp 700 Sea St
216,3251,0.0125,0.0416666666666667,5.26666666666667,time_period_10,-70.971917,42.2633460000001,3251.0,Opp 700 Sea St
216,3251,0.0285714285714286,0.0428571428571429,6.97142857142857,time_period_10,-70.971917,42.2633460000001,3251.0,Opp 700 Sea St
216,3251,0.01,0.075,4.36,time_period_11,-70.971917,42.2633460000001,3251.0,Opp 700 Sea St
216,3251,0.0666666666666667,0.0333333333333333,4.38333333333333,time_period_11,-70.971917,42.2633460000001,3251.0,Opp 700 Sea St
216,3252,0.0,0.0,6.63333333333333,time_period_01,-70.970523,42.26478,3252.0,749 Sea St
216,3252,0.0,0.0,9.1,time_period_02,-70.970523,42.26478,3252.0,749 Sea St
216,3252,0.0,0.01,6.1,time_period_03,-70.970523,42.26478,3252.0,749 Sea St
216,3252,0.0,0.0125,6.15,time_period_04,-70.970523,42.26478,3252.0,749 Sea St
216,3252,0.0,0.02,5.22,time_period_04,-70.970523,42.26478,3252.0,749 Sea St
216,3252,0.0,0.0,24.6,time_period_05,-70.970523,42.26478,3252.0,749 Sea St
216,3252,0.0,0.0428571428571429,6.52857142857143,time_period_05,-70.970523,42.26478,3252.0,749 Sea St
216,3252,0.0,0.1,3.7,time_period_05,-70.970523,42.26478,3252.0,749 Sea St
216,3252,0.0,0.0,21.3,time_period_05,-70.970523,42.26478,3252.0,749 Sea St
216,3252,0.0,0.0181818181818182,4.7,time_period_06,-70.970523,42.26478,3252.0,749 Sea St
216,3252,0.0,0.0,4.0,time_period_07,-70.970523,42.26478,3252.0,749 Sea St
216,3252,0.0,0.0,2.9,time_period_08,-70.970523,42.26478,3252.0,749 Sea St
216,3252,0.0,0.0,0.85,time_period_09,-70.970523,42.26478,3252.0,749 Sea St
216,3252,0.0041666666666666,0.05,5.2125,time_period_10,-70.970523,42.26478,3252.0,749 Sea St
216,3252,0.0,0.0142857142857143,6.94285714285714,time_period_10,-70.970523,42.26478,3252.0,749 Sea St
216,3252,0.0,0.015,4.345,time_period_11,-70.970523,42.26478,3252.0,749 Sea St
216,3252,0.0,0.0,4.38333333333333,time_period_11,-70.970523,42.26478,3252.0,749 Sea St
216,3253,0.0,0.0,6.63333333333333,time_period_01,-70.968781,42.266353,3253.0,Sea St @ Babcock St
216,3253,0.0,0.0,9.1,time_period_02,-70.968781,42.266353,3253.0,Sea St @ Babcock St
216,3253,0.0,0.02,6.09,time_period_03,-70.968781,42.266353,3253.0,Sea St @ Babcock St
216,3253,0.0,0.025,6.125,time_period_04,-70.968781,42.266353,3253.0,Sea St @ Babcock St
216,3253,0.0,0.06,5.16,time_period_04,-70.968781,42.266353,3253.0,Sea St @ Babcock St
216,3253,0.0,0.2,24.4,time_period_05,-70.968781,42.266353,3253.0,Sea St @ Babcock St
216,3253,0.0,0.257142857142857,6.27142857142857,time_period_05,-70.968781,42.266353,3253.0,Sea St @ Babcock St
216,3253,0.0,0.1,3.6,time_period_05,-70.968781,42.266353,3253.0,Sea St @ Babcock St
216,3253,0.0,0.1,21.2,time_period_05,-70.968781,42.266353,3253.0,Sea St @ Babcock St
216,3253,0.0,0.145454545454545,4.55454545454545,time_period_06,-70.968781,42.266353,3253.0,Sea St @ Babcock St
216,3253,0.0,0.08,3.92,time_period_07,-70.968781,42.266353,3253.0,Sea St @ Babcock St
216,3253,0.0,0.0,2.9,time_period_08,-70.968781,42.266353,3253.0,Sea St @ Babcock St
216,3253,0.0,0.0,0.85,time_period_09,-70.968781,42.266353,3253.0,Sea St @ Babcock St
216,3253,0.0083333333333333,0.0625,5.1625,time_period_10,-70.968781,42.266353,3253.0,Sea St @ Babcock St
216,3253,0.0142857142857143,0.242857142857143,6.71428571428571,time_period_10,-70.968781,42.266353,3253.0,Sea St @ Babcock St
216,3253,0.0,0.055,4.3,time_period_11,-70.968781,42.266353,3253.0,Sea St @ Babcock St
216,3253,0.0,0.283333333333333,4.11666666666667,time_period_11,-70.968781,42.266353,3253.0,Sea St @ Babcock St
216,3254,0.0,0.0,6.63333333333333,time_period_01,-70.9670819999999,42.2662710000001,3254.0,Sea St opp Manet Ave
216,3254,0.0,0.0,9.12,time_period_02,-70.9670819999999,42.2662710000001,3254.0,Sea St opp Manet Ave
216,3254,0.01,0.03,6.08,time_period_03,-70.9670819999999,42.2662710000001,3254.0,Sea St opp Manet Ave
216,3254,0.0,0.075,6.075,time_period_04,-70.9670819999999,42.2662710000001,3254.0,Sea St opp Manet Ave
216,3254,0.02,0.16,5.02,time_period_04,-70.9670819999999,42.2662710000001,3254.0,Sea St opp Manet Ave
216,3254,0.0,0.1,24.2,time_period_05,-70.9670819999999,42.2662710000001,3254.0,Sea St opp Manet Ave
216,3254,0.0142857142857143,0.157142857142857,6.11428571428571,time_period_05,-70.9670819999999,42.2662710000001,3254.0,Sea St opp Manet Ave
216,3254,0.0,0.0,3.6,time_period_05,-70.9670819999999,42.2662710000001,3254.0,Sea St opp Manet Ave
216,3254,0.0,2.0,19.2,time_period_05,-70.9670819999999,42.2662710000001,3254.0,Sea St opp Manet Ave
216,3254,0.0,0.118181818181818,4.45454545454545,time_period_06,-70.9670819999999,42.2662710000001,3254.0,Sea St opp Manet Ave
216,3254,0.0,0.06,3.88,time_period_07,-70.9670819999999,42.2662710000001,3254.0,Sea St opp Manet Ave
216,3254,0.0,0.0,2.85,time_period_08,-70.9670819999999,42.2662710000001,3254.0,Sea St opp Manet Ave
216,3254,0.0,0.0,0.85,time_period_09,-70.9670819999999,42.2662710000001,3254.0,Sea St opp Manet Ave
216,3254,0.0125,0.05,5.12083333333333,time_period_10,-70.9670819999999,42.2662710000001,3254.0,Sea St opp Manet Ave
216,3254,0.0285714285714286,0.214285714285714,6.54285714285714,time_period_10,-70.9670819999999,42.2662710000001,3254.0,Sea St opp Manet Ave
216,3254,0.01,0.02,4.28,time_period_11,-70.9670819999999,42.2662710000001,3254.0,Sea St opp Manet Ave
216,3254,0.0333333333333333,0.0333333333333333,4.11666666666667,time_period_11,-70.9670819999999,42.2662710000001,3254.0,Sea St opp Manet Ave
216,3255,0.366666666666667,1.63333333333333,5.5,time_period_01,-70.96421,42.265991,3255.0,Sea St opp Newton St
216,3255,0.02,0.14,9.02,time_period_02,-70.96421,42.265991,3255.0,Sea St opp Newton St
216,3255,0.0,0.21,5.86,time_period_03,-70.96421,42.265991,3255.0,Sea St opp Newton St
216,3255,0.0125,0.1125,5.975,time_period_04,-70.96421,42.265991,3255.0,Sea St opp Newton St
216,3255,0.0,0.14,4.86,time_period_04,-70.96421,42.265991,3255.0,Sea St opp Newton St
216,3255,0.1,1.0,23.3,time_period_05,-70.96421,42.265991,3255.0,Sea St opp Newton St
216,3255,0.0,0.257142857142857,5.9,time_period_05,-70.96421,42.265991,3255.0,Sea St opp Newton St
216,3255,0.3,0.4,3.6,time_period_05,-70.96421,42.265991,3255.0,Sea St opp Newton St
216,3255,0.0,0.4,18.9,time_period_05,-70.96421,42.265991,3255.0,Sea St opp Newton St
216,3255,0.009090909090909,0.490909090909091,3.97272727272727,time_period_06,-70.96421,42.265991,3255.0,Sea St opp Newton St
216,3255,0.0,0.16,3.78,time_period_07,-70.96421,42.265991,3255.0,Sea St opp Newton St
216,3255,0.0,0.0,2.85,time_period_08,-70.96421,42.265991,3255.0,Sea St opp Newton St
216,3255,0.0,0.0,0.85,time_period_09,-70.96421,42.265991,3255.0,Sea St opp Newton St
216,3255,0.0166666666666667,0.1625,4.9625,time_period_10,-70.96421,42.265991,3255.0,Sea St opp Newton St
216,3255,0.0428571428571429,0.185714285714286,6.4,time_period_10,-70.96421,42.265991,3255.0,Sea St opp Newton St
216,3255,0.035,0.105,4.215,time_period_11,-70.96421,42.265991,3255.0,Sea St opp Newton St
216,3255,0.116666666666667,0.0666666666666667,4.13333333333333,time_period_11,-70.96421,42.265991,3255.0,Sea St opp Newton St
216,3256,0.0,0.0,5.5,time_period_01,-70.961911,42.265772,3256.0,Sea St opp Malvern St
216,3256,0.06,0.04,9.02,time_period_02,-70.961911,42.265772,3256.0,Sea St opp Malvern St
216,3256,0.11,0.01,5.97,time_period_03,-70.961911,42.265772,3256.0,Sea St opp Malvern St
216,3256,0.0,0.15,5.8625,time_period_04,-70.961911,42.265772,3256.0,Sea St opp Malvern St
216,3256,0.0,0.12,4.76,time_period_04,-70.961911,42.265772,3256.0,Sea St opp Malvern St
216,3256,0.2,2.6,20.9,time_period_05,-70.961911,42.265772,3256.0,Sea St opp Malvern St
216,3256,0.0,0.2,5.74285714285714,time_period_05,-70.961911,42.265772,3256.0,Sea St opp Malvern St
216,3256,0.1,0.1,3.5,time_period_05,-70.961911,42.265772,3256.0,Sea St opp Malvern St
216,3256,0.0,0.7,18.3,time_period_05,-70.961911,42.265772,3256.0,Sea St opp Malvern St
216,3256,0.0,0.109090909090909,3.86363636363636,time_period_06,-70.961911,42.265772,3256.0,Sea St opp Malvern St
216,3256,0.0,0.02,3.72,time_period_07,-70.961911,42.265772,3256.0,Sea St opp Malvern St
216,3256,0.0,0.0,2.85,time_period_08,-70.961911,42.265772,3256.0,Sea St opp Malvern St
216,3256,0.0,0.0,0.85,time_period_09,-70.961911,42.265772,3256.0,Sea St opp Malvern St
216,3256,0.0041666666666666,0.129166666666667,4.84583333333333,time_period_10,-70.961911,42.265772,3256.0,Sea St opp Malvern St
216,3256,0.0142857142857143,0.0714285714285714,6.32857142857143,time_period_10,-70.961911,42.265772,3256.0,Sea St opp Malvern St
216,3256,0.005,0.15,4.07,time_period_11,-70.961911,42.265772,3256.0,Sea St opp Malvern St
216,3256,0.0,0.05,4.08333333333333,time_period_11,-70.961911,42.265772,3256.0,Sea St opp Malvern St
216,3257,0.4,0.0333333333333333,5.86666666666667,time_period_01,-70.960342,42.26563,3257.0,Sea St @ Rockland St
216,3257,0.32,0.1,9.26,time_period_02,-70.960342,42.26563,3257.0,Sea St @ Rockland St
216,3257,0.08,0.05,5.99,time_period_03,-70.960342,42.26563,3257.0,Sea St @ Rockland St
216,3257,0.05,0.375,5.5125,time_period_04,-70.960342,42.26563,3257.0,Sea St @ Rockland St
216,3257,0.0,0.2,4.6,time_period_04,-70.960342,42.26563,3257.0,Sea St @ Rockland St
216,3257,0.1,7.9,13.1,time_period_05,-70.960342,42.26563,3257.0,Sea St @ Rockland St
216,3257,0.0142857142857143,0.857142857142857,4.87142857142857,time_period_05,-70.960342,42.26563,3257.0,Sea St @ Rockland St
216,3257,0.1,0.1,3.5,time_period_05,-70.960342,42.26563,3257.0,Sea St @ Rockland St
216,3257,0.0,5.8,12.7,time_period_05,-70.960342,42.26563,3257.0,Sea St @ Rockland St
216,3257,0.0181818181818182,0.563636363636364,3.30909090909091,time_period_06,-70.960342,42.26563,3257.0,Sea St @ Rockland St
216,3257,0.0,0.54,3.22,time_period_07,-70.960342,42.26563,3257.0,Sea St @ Rockland St
216,3257,0.0,0.15,2.7,time_period_08,-70.960342,42.26563,3257.0,Sea St @ Rockland St
216,3257,0.0,0.15,0.7,time_period_09,-70.960342,42.26563,3257.0,Sea St @ Rockland St
216,3257,0.1,0.304166666666667,4.65416666666667,time_period_10,-70.960342,42.26563,3257.0,Sea St @ Rockland St
216,3257,0.128571428571429,0.385714285714286,6.04285714285714,time_period_10,-70.960342,42.26563,3257.0,Sea St @ Rockland St
216,3257,0.075,0.27,3.875,time_period_11,-70.960342,42.26563,3257.0,Sea St @ Rockland St
216,3257,0.116666666666667,0.166666666666667,4.01666666666667,time_period_11,-70.960342,42.26563,3257.0,Sea St @ Rockland St
216,3258,0.0,0.0,5.9,time_period_01,-70.959414,42.2656840000001,3258.0,Sea St @ Darrow St
216,3258,0.06,0.14,9.18,time_period_02,-70.959414,42.2656840000001,3258.0,Sea St @ Darrow St
216,3258,0.03,0.07,5.96,time_period_03,-70.959414,42.2656840000001,3258.0,Sea St @ Darrow St
216,3258,0.0,0.1125,5.4375,time_period_04,-70.959414,42.2656840000001,3258.0,Sea St @ Darrow St
216,3258,0.04,0.08,4.54,time_period_04,-70.959414,42.2656840000001,3258.0,Sea St @ Darrow St
216,3258,0.0,0.1,13.0,time_period_05,-70.959414,42.2656840000001,3258.0,Sea St @ Darrow St
216,3258,0.0,0.371428571428571,4.54285714285714,time_period_05,-70.959414,42.2656840000001,3258.0,Sea St @ Darrow St
216,3258,0.1,0.2,3.4,time_period_05,-70.959414,42.2656840000001,3258.0,Sea St @ Darrow St
216,3258,0.0,1.0,11.7,time_period_05,-70.959414,42.2656840000001,3258.0,Sea St @ Darrow St
216,3258,0.0,0.236363636363636,3.1,time_period_06,-70.959414,42.2656840000001,3258.0,Sea St @ Darrow St
216,3258,0.0,0.1,3.14,time_period_07,-70.959414,42.2656840000001,3258.0,Sea St @ Darrow St
216,3258,0.0,0.05,2.65,time_period_08,-70.959414,42.2656840000001,3258.0,Sea St @ Darrow St
216,3258,0.0,0.0,0.7,time_period_09,-70.959414,42.2656840000001,3258.0,Sea St @ Darrow St
216,3258,0.0208333333333333,0.0916666666666667,4.56666666666667,time_period_10,-70.959414,42.2656840000001,3258.0,Sea St @ Darrow St
216,3258,0.0714285714285714,0.157142857142857,5.95714285714286,time_period_10,-70.959414,42.2656840000001,3258.0,Sea St @ Darrow St
216,3258,0.045,0.245,3.695,time_period_11,-70.959414,42.2656840000001,3258.0,Sea St @ Darrow St
216,3258,0.0833333333333333,0.133333333333333,4.0,time_period_11,-70.959414,42.2656840000001,3258.0,Sea St @ Darrow St
216,3259,0.433333333333333,0.166666666666667,6.13333333333333,time_period_01,-70.957347,42.267567,3259.0,Sea St @ Manet Ave
216,3259,0.14,0.22,9.12,time_period_02,-70.957347,42.267567,3259.0,Sea St @ Manet Ave
216,3259,0.12,0.56,5.52,time_period_03,-70.957347,42.267567,3259.0,Sea St @ Manet Ave
216,3259,0.0,0.2875,5.175,time_period_04,-70.957347,42.267567,3259.0,Sea St @ Manet Ave
216,3259,0.04,0.26,4.34,time_period_04,-70.957347,42.267567,3259.0,Sea St @ Manet Ave
216,3259,0.1,4.5,8.7,time_period_05,-70.957347,42.267567,3259.0,Sea St @ Manet Ave
216,3259,0.0142857142857143,0.757142857142857,3.8,time_period_05,-70.957347,42.267567,3259.0,Sea St @ Manet Ave
216,3259,0.6,0.3,3.7,time_period_05,-70.957347,42.267567,3259.0,Sea St @ Manet Ave
216,3259,0.0,3.1,8.6,time_period_05,-70.957347,42.267567,3259.0,Sea St @ Manet Ave
216,3259,0.0454545454545454,0.618181818181818,2.53636363636364,time_period_06,-70.957347,42.267567,3259.0,Sea St @ Manet Ave
216,3259,0.06,0.68,2.54,time_period_07,-70.957347,42.267567,3259.0,Sea St @ Manet Ave
216,3259,0.0,0.35,2.3,time_period_08,-70.957347,42.267567,3259.0,Sea St @ Manet Ave
216,3259,0.0,0.15,0.55,time_period_09,-70.957347,42.267567,3259.0,Sea St @ Manet Ave
216,3259,0.0875,0.5,4.1625,time_period_10,-70.957347,42.267567,3259.0,Sea St @ Manet Ave
216,3259,0.0571428571428571,0.542857142857143,5.44285714285714,time_period_10,-70.957347,42.267567,3259.0,Sea St @ Manet Ave
216,3259,0.035,0.46,3.25,time_period_11,-70.957347,42.267567,3259.0,Sea St @ Manet Ave
216,3259,0.0666666666666667,0.25,3.81666666666667,time_period_11,-70.957347,42.267567,3259.0,Sea St @ Manet Ave
216,3260,0.5,0.0,6.6,time_period_01,-70.954436,42.268418,3260.0,Sea St @ Wall St
216,3260,0.12,0.14,9.06,time_period_02,-70.954436,42.268418,3260.0,Sea St @ Wall St
216,3260,0.07,0.29,5.3,time_period_03,-70.954436,42.268418,3260.0,Sea St @ Wall St
216,3260,0.0375,0.8625,4.35,time_period_04,-70.954436,42.268418,3260.0,Sea St @ Wall St
216,3260,0.02,0.76,3.62,time_period_04,-70.954436,42.268418,3260.0,Sea St @ Wall St
216,3260,0.1,4.3,4.5,time_period_05,-70.954436,42.268418,3260.0,Sea St @ Wall St
216,3260,0.0714285714285714,1.88571428571429,1.98571428571429,time_period_05,-70.954436,42.268418,3260.0,Sea St @ Wall St
216,3260,0.1,0.8,2.9,time_period_05,-70.954436,42.268418,3260.0,Sea St @ Wall St
216,3260,0.0,2.1,6.5,time_period_05,-70.954436,42.268418,3260.0,Sea St @ Wall St
216,3260,0.0181818181818182,1.26363636363636,1.31818181818182,time_period_06,-70.954436,42.268418,3260.0,Sea St @ Wall St
216,3260,0.0,0.84,1.72,time_period_07,-70.954436,42.268418,3260.0,Sea St @ Wall St
216,3260,0.0,0.85,1.4,time_period_08,-70.954436,42.268418,3260.0,Sea St @ Wall St
216,3260,0.0,0.1,0.45,time_period_09,-70.954436,42.268418,3260.0,Sea St @ Wall St
216,3260,0.1,0.983333333333333,3.26666666666667,time_period_10,-70.954436,42.268418,3260.0,Sea St @ Wall St
216,3260,0.0428571428571429,1.31428571428571,4.17142857142857,time_period_10,-70.954436,42.268418,3260.0,Sea St @ Wall St
216,3260,0.02,0.59,2.69,time_period_11,-70.954436,42.268418,3260.0,Sea St @ Wall St
216,3260,0.3,0.916666666666667,3.16666666666667,time_period_11,-70.954436,42.268418,3260.0,Sea St @ Wall St
216,3261,0.333333333333333,0.0,6.96666666666667,time_period_01,-70.952573,42.268991,3261.0,Sea St @ Bell St
216,3261,0.42,0.16,9.36,time_period_02,-70.952573,42.268991,3261.0,Sea St @ Bell St
216,3261,0.2,0.28,5.23,time_period_03,-70.952573,42.268991,3261.0,Sea St @ Bell St
216,3261,0.1,0.5,3.975,time_period_04,-70.952573,42.268991,3261.0,Sea St @ Bell St
216,3261,0.08,0.42,3.32,time_period_04,-70.952573,42.268991,3261.0,Sea St @ Bell St
216,3261,0.1,2.6,2.0,time_period_05,-70.952573,42.268991,3261.0,Sea St @ Bell St
216,3261,0.0142857142857143,0.471428571428571,1.58571428571429,time_period_05,-70.952573,42.268991,3261.0,Sea St @ Bell St
216,3261,0.9,0.2,3.6,time_period_05,-70.952573,42.268991,3261.0,Sea St @ Bell St
216,3261,0.0,0.5,6.2,time_period_05,-70.952573,42.268991,3261.0,Sea St @ Bell St
216,3261,0.0454545454545454,0.4,0.963636363636364,time_period_06,-70.952573,42.268991,3261.0,Sea St @ Bell St
216,3261,0.0,0.48,1.26,time_period_07,-70.952573,42.268991,3261.0,Sea St @ Bell St
216,3261,0.0,0.55,0.95,time_period_08,-70.952573,42.268991,3261.0,Sea St @ Bell St
216,3261,0.0,0.15,0.3,time_period_09,-70.952573,42.268991,3261.0,Sea St @ Bell St
216,3261,0.170833333333333,0.3375,3.1,time_period_10,-70.952573,42.268991,3261.0,Sea St @ Bell St
216,3261,0.157142857142857,0.571428571428571,3.75714285714286,time_period_10,-70.952573,42.268991,3261.0,Sea St @ Bell St
216,3261,0.115,0.405,2.4,time_period_11,-70.952573,42.268991,3261.0,Sea St @ Bell St
216,3261,0.133333333333333,0.216666666666667,3.08333333333333,time_period_11,-70.952573,42.268991,3261.0,Sea St @ Bell St
216,3262,0.0,0.0,6.96666666666667,time_period_01,-70.951803,42.269956,3262.0,Sea St @ Thomas St
216,3262,0.2,0.32,9.24,time_period_02,-70.951803,42.269956,3262.0,Sea St @ Thomas St
216,3262,0.03,0.3,4.98,time_period_03,-70.951803,42.269956,3262.0,Sea St @ Thomas St
216,3262,0.0,0.2875,3.7,time_period_04,-70.951803,42.269956,3262.0,Sea St @ Thomas St
216,3262,0.02,0.1,3.24,time_period_04,-70.951803,42.269956,3262.0,Sea St @ Thomas St
216,3262,0.0,0.7,1.4,time_period_05,-70.951803,42.269956,3262.0,Sea St @ Thomas St
216,3262,0.0,0.271428571428571,1.31428571428571,time_period_05,-70.951803,42.269956,3262.0,Sea St @ Thomas St
216,3262,0.0,0.1,3.5,time_period_05,-70.951803,42.269956,3262.0,Sea St @ Thomas St
216,3262,0.0,2.5,3.7,time_period_05,-70.951803,42.269956,3262.0,Sea St @ Thomas St
216,3262,0.0,0.145454545454545,0.827272727272727,time_period_06,-70.951803,42.269956,3262.0,Sea St @ Thomas St
216,3262,0.02,0.2,1.06,time_period_07,-70.951803,42.269956,3262.0,Sea St @ Thomas St
216,3262,0.0,0.15,0.85,time_period_08,-70.951803,42.269956,3262.0,Sea St @ Thomas St
216,3262,0.0,0.05,0.25,time_period_09,-70.951803,42.269956,3262.0,Sea St @ Thomas St
216,3262,0.025,0.15,2.97083333333333,time_period_10,-70.951803,42.269956,3262.0,Sea St @ Thomas St
216,3262,0.0142857142857143,0.0714285714285714,3.71428571428571,time_period_10,-70.951803,42.269956,3262.0,Sea St @ Thomas St
216,3262,0.005,0.175,2.24,time_period_11,-70.951803,42.269956,3262.0,Sea St @ Thomas St
216,3262,0.0,0.15,2.93333333333333,time_period_11,-70.951803,42.269956,3262.0,Sea St @ Thomas St
216,3265,0.0,4.33333333333333,2.63333333333333,time_period_01,-70.950969,42.272024,3265.0,Sea St @ Fensmere Ave
216,3265,0.0,3.1,6.18,time_period_02,-70.950969,42.272024,3265.0,Sea St @ Fensmere Ave
216,3265,0.0,0.91,4.07,time_period_03,-70.950969,42.272024,3265.0,Sea St @ Fensmere Ave
216,3265,0.0,0.775,2.925,time_period_04,-70.950969,42.272024,3265.0,Sea St @ Fensmere Ave
216,3265,0.0,0.6,2.64,time_period_04,-70.950969,42.272024,3265.0,Sea St @ Fensmere Ave
216,3265,0.0,1.1,0.3,time_period_05,-70.950969,42.272024,3265.0,Sea St @ Fensmere Ave
216,3265,0.0,0.685714285714286,0.642857142857143,time_period_05,-70.950969,42.272024,3265.0,Sea St @ Fensmere Ave
216,3265,0.0,0.6,2.9,time_period_05,-70.950969,42.272024,3265.0,Sea St @ Fensmere Ave
216,3265,0.0,3.7,0.0,time_period_05,-70.950969,42.272024,3265.0,Sea St @ Fensmere Ave
216,3265,0.0,0.463636363636364,0.363636363636364,time_period_06,-70.950969,42.272024,3265.0,Sea St @ Fensmere Ave
216,3265,0.0,0.78,0.3,time_period_07,-70.950969,42.272024,3265.0,Sea St @ Fensmere Ave
216,3265,0.0,0.65,0.1,time_period_08,-70.950969,42.272024,3265.0,Sea St @ Fensmere Ave
216,3265,0.0,0.2,0.05,time_period_09,-70.950969,42.272024,3265.0,Sea St @ Fensmere Ave
216,3265,0.0,0.970833333333333,2.01666666666667,time_period_10,-70.950969,42.272024,3265.0,Sea St @ Fensmere Ave
216,3265,0.0,0.814285714285714,2.88571428571429,time_period_10,-70.950969,42.272024,3265.0,Sea St @ Fensmere Ave
216,3265,0.0,0.665,1.57,time_period_11,-70.950969,42.272024,3265.0,Sea St @ Fensmere Ave
216,3265,0.0,0.55,2.4,time_period_11,-70.950969,42.272024,3265.0,Sea St @ Fensmere Ave
