route_id,stop_id,average_ons,average_offs,average_load,time_period_id,X,Y,Stop_ID,Stop_Name
436,94320,19.3,0.0,19.3,time_period_05,-70.9540949999999,42.460633,94320.0,Neptune Blvd @ Blossom St
436,94322,0.0,0.0,19.4,time_period_05,-70.9513479999999,42.461961,94322.0,Pleasant @ Tremont St
436,94323,0.1,0.0,19.4,time_period_05,-70.950143,42.462859,94323.0,Tremont St opp St Mary's High School
436,6773,0.1,0.1,19.7,time_period_05,-70.948957,42.4628910000001,6773.0,Market St @ Andrew St
436,14748,8.0,0.0,8.0,time_period_02,,,,
436,14748,7.9,0.0,7.9,time_period_03,,,,
436,14748,5.8,0.0,6.1,time_period_03,,,,
436,14748,5.675,0.0,5.675,time_period_04,,,,
436,14748,9.1,0.0,9.1,time_period_05,,,,
436,14748,2.1,1.1,20.5,time_period_05,,,,
436,14748,8.26666666666667,0.0,8.6,time_period_06,,,,
436,14748,3.15,0.0,3.25,time_period_07,,,,
436,14748,4.6125,0.0,4.65,time_period_10,,,,
436,14748,1.25,0.0,1.25,time_period_10,,,,
436,6600,1.95,0.0,10.0,time_period_02,-70.9437839999999,42.463687,6600.0,Union St @ Exchange St
436,6600,1.8,0.0,9.7,time_period_03,-70.9437839999999,42.463687,6600.0,Union St @ Exchange St
436,6600,2.1,0.1,8.05,time_period_03,-70.9437839999999,42.463687,6600.0,Union St @ Exchange St
436,6600,0.525,0.0,6.225,time_period_04,-70.9437839999999,42.463687,6600.0,Union St @ Exchange St
436,6600,0.85,0.05,9.95,time_period_05,-70.9437839999999,42.463687,6600.0,Union St @ Exchange St
436,6600,0.7,0.1,21.1,time_period_05,-70.9437839999999,42.463687,6600.0,Union St @ Exchange St
436,6600,0.6,0.0333333333333333,9.23333333333333,time_period_06,-70.9437839999999,42.463687,6600.0,Union St @ Exchange St
436,6600,0.35,0.05,3.5,time_period_07,-70.9437839999999,42.463687,6600.0,Union St @ Exchange St
436,6600,0.5875,0.0125,5.3625,time_period_10,-70.9437839999999,42.463687,6600.0,Union St @ Exchange St
436,6600,0.0,0.0,1.3,time_period_10,-70.9437839999999,42.463687,6600.0,Union St @ Exchange St
436,6830,0.0,0.0,10.05,time_period_02,-70.94213,42.4663570000001,6830.0,Union St @ Silsbee St
436,6830,0.7,0.0,10.4,time_period_03,-70.94213,42.4663570000001,6830.0,Union St @ Silsbee St
436,6830,0.6,0.0,11.4,time_period_03,-70.94213,42.4663570000001,6830.0,Union St @ Silsbee St
436,6830,1.175,0.075,7.35,time_period_04,-70.94213,42.4663570000001,6830.0,Union St @ Silsbee St
436,6830,1.0,0.1,10.9,time_period_05,-70.94213,42.4663570000001,6830.0,Union St @ Silsbee St
436,6830,0.5,0.4,21.2,time_period_05,-70.94213,42.4663570000001,6830.0,Union St @ Silsbee St
436,6830,0.766666666666667,0.0333333333333333,10.0333333333333,time_period_06,-70.94213,42.4663570000001,6830.0,Union St @ Silsbee St
436,6830,0.15,0.0,3.65,time_period_07,-70.94213,42.4663570000001,6830.0,Union St @ Silsbee St
436,6830,0.7,0.05,6.0375,time_period_10,-70.94213,42.4663570000001,6830.0,Union St @ Silsbee St
436,6830,0.15,0.0,1.35,time_period_10,-70.94213,42.4663570000001,6830.0,Union St @ Silsbee St
436,6831,0.65,0.0,10.6,time_period_02,-70.941581,42.466848,6831.0,Union St @ Smith St
436,6831,0.8,0.0,11.1,time_period_03,-70.941581,42.466848,6831.0,Union St @ Smith St
436,6831,0.15,0.0,11.55,time_period_03,-70.941581,42.466848,6831.0,Union St @ Smith St
436,6831,0.55,0.1,7.725,time_period_04,-70.941581,42.466848,6831.0,Union St @ Smith St
436,6831,1.35,0.0,12.15,time_period_05,-70.941581,42.466848,6831.0,Union St @ Smith St
436,6831,0.2,0.3,21.1,time_period_05,-70.941581,42.466848,6831.0,Union St @ Smith St
436,6831,0.366666666666667,0.1,10.2666666666667,time_period_06,-70.941581,42.466848,6831.0,Union St @ Smith St
436,6831,0.1,0.1,3.75,time_period_07,-70.941581,42.466848,6831.0,Union St @ Smith St
436,6831,0.75,0.0375,6.6375,time_period_10,-70.941581,42.466848,6831.0,Union St @ Smith St
436,6831,0.05,0.0,1.45,time_period_10,-70.941581,42.466848,6831.0,Union St @ Smith St
436,6833,0.95,0.0,11.55,time_period_02,-70.939073,42.467901,6833.0,Union St @ Pinkham St
436,6833,0.5,0.0,11.6,time_period_03,-70.939073,42.467901,6833.0,Union St @ Pinkham St
436,6833,1.45,0.0,13.0,time_period_03,-70.939073,42.467901,6833.0,Union St @ Pinkham St
436,6833,0.125,0.05,7.825,time_period_04,-70.939073,42.467901,6833.0,Union St @ Pinkham St
436,6833,0.5,0.0,12.65,time_period_05,-70.939073,42.467901,6833.0,Union St @ Pinkham St
436,6833,0.2,0.8,20.5,time_period_05,-70.939073,42.467901,6833.0,Union St @ Pinkham St
436,6833,0.0666666666666667,0.0333333333333333,10.3,time_period_06,-70.939073,42.467901,6833.0,Union St @ Pinkham St
436,6833,0.0,0.1,3.65,time_period_07,-70.939073,42.467901,6833.0,Union St @ Pinkham St
436,6833,0.1375,0.0125,6.7375,time_period_10,-70.939073,42.467901,6833.0,Union St @ Pinkham St
436,6833,0.05,0.0,1.45,time_period_10,-70.939073,42.467901,6833.0,Union St @ Pinkham St
436,6834,2.35,0.0,13.8,time_period_02,-70.936996,42.468936,6834.0,Union St @ Chestnut St
436,6834,0.5,0.0,12.1,time_period_03,-70.936996,42.468936,6834.0,Union St @ Chestnut St
436,6834,0.95,0.05,13.85,time_period_03,-70.936996,42.468936,6834.0,Union St @ Chestnut St
436,6834,1.025,0.075,8.775,time_period_04,-70.936996,42.468936,6834.0,Union St @ Chestnut St
436,6834,0.6,0.2,13.1,time_period_05,-70.936996,42.468936,6834.0,Union St @ Chestnut St
436,6834,0.2,2.5,18.3,time_period_05,-70.936996,42.468936,6834.0,Union St @ Chestnut St
436,6834,0.333333333333333,0.233333333333333,10.4,time_period_06,-70.936996,42.468936,6834.0,Union St @ Chestnut St
436,6834,0.15,0.1,3.7,time_period_07,-70.936996,42.468936,6834.0,Union St @ Chestnut St
436,6834,1.0375,0.0625,7.725,time_period_10,-70.936996,42.468936,6834.0,Union St @ Chestnut St
436,6834,0.25,0.1,1.9,time_period_10,-70.936996,42.468936,6834.0,Union St @ Chestnut St
436,7313,0.8,0.0,14.6,time_period_02,-70.937956,42.470519,7313.0,Chestnut St @ Essex St
436,7313,1.8,0.0,14.0,time_period_03,-70.937956,42.470519,7313.0,Chestnut St @ Essex St
436,7313,1.7,0.15,15.45,time_period_03,-70.937956,42.470519,7313.0,Chestnut St @ Essex St
436,7313,0.85,0.125,9.525,time_period_04,-70.937956,42.470519,7313.0,Chestnut St @ Essex St
436,7313,1.35,0.25,14.2,time_period_05,-70.937956,42.470519,7313.0,Chestnut St @ Essex St
436,7313,0.7,2.9,16.1,time_period_05,-70.937956,42.470519,7313.0,Chestnut St @ Essex St
436,7313,0.433333333333333,0.2,10.6,time_period_06,-70.937956,42.470519,7313.0,Chestnut St @ Essex St
436,7313,0.05,0.1,3.7,time_period_07,-70.937956,42.470519,7313.0,Chestnut St @ Essex St
436,7313,1.55,0.075,9.225,time_period_10,-70.937956,42.470519,7313.0,Chestnut St @ Essex St
436,7313,0.05,0.0,2.05,time_period_10,-70.937956,42.470519,7313.0,Chestnut St @ Essex St
436,7314,0.1,0.0,14.65,time_period_02,-70.939833,42.4721030000001,7314.0,Chestnut St opp Chestnut Ave
436,7314,1.2,0.1,15.1,time_period_03,-70.939833,42.4721030000001,7314.0,Chestnut St opp Chestnut Ave
436,7314,0.85,0.0,16.35,time_period_03,-70.939833,42.4721030000001,7314.0,Chestnut St opp Chestnut Ave
436,7314,0.225,0.05,9.65,time_period_04,-70.939833,42.4721030000001,7314.0,Chestnut St opp Chestnut Ave
436,7314,1.0,0.1,15.05,time_period_05,-70.939833,42.4721030000001,7314.0,Chestnut St opp Chestnut Ave
436,7314,0.1,0.3,15.9,time_period_05,-70.939833,42.4721030000001,7314.0,Chestnut St opp Chestnut Ave
436,7314,0.133333333333333,0.233333333333333,10.4666666666667,time_period_06,-70.939833,42.4721030000001,7314.0,Chestnut St opp Chestnut Ave
436,7314,0.1,0.05,3.8,time_period_07,-70.939833,42.4721030000001,7314.0,Chestnut St opp Chestnut Ave
436,7314,0.25,0.075,9.4,time_period_10,-70.939833,42.4721030000001,7314.0,Chestnut St opp Chestnut Ave
436,7314,0.1,0.0,2.15,time_period_10,-70.939833,42.4721030000001,7314.0,Chestnut St opp Chestnut Ave
436,7315,0.95,0.0,15.55,time_period_02,-70.941609,42.4737200000001,7315.0,Chestnut St @ Adams St
436,7315,0.8,0.2,15.8,time_period_03,-70.941609,42.4737200000001,7315.0,Chestnut St @ Adams St
436,7315,1.1,0.0,17.4,time_period_03,-70.941609,42.4737200000001,7315.0,Chestnut St @ Adams St
436,7315,0.6,0.15,10.1,time_period_04,-70.941609,42.4737200000001,7315.0,Chestnut St @ Adams St
436,7315,0.65,0.35,15.4,time_period_05,-70.941609,42.4737200000001,7315.0,Chestnut St @ Adams St
436,7315,0.2,1.6,14.6,time_period_05,-70.941609,42.4737200000001,7315.0,Chestnut St @ Adams St
436,7315,0.233333333333333,0.5,10.2333333333333,time_period_06,-70.941609,42.4737200000001,7315.0,Chestnut St @ Adams St
436,7315,0.05,0.3,3.55,time_period_07,-70.941609,42.4737200000001,7315.0,Chestnut St @ Adams St
436,7315,0.825,0.1625,10.075,time_period_10,-70.941609,42.4737200000001,7315.0,Chestnut St @ Adams St
436,7315,0.2,0.0,2.35,time_period_10,-70.941609,42.4737200000001,7315.0,Chestnut St @ Adams St
436,7316,0.05,0.0,15.6,time_period_02,-70.943652,42.4745060000001,7316.0,Chestnut St opp Eade St
436,7316,0.0,0.0,15.7,time_period_03,-70.943652,42.4745060000001,7316.0,Chestnut St opp Eade St
436,7316,0.0,0.0,17.4,time_period_03,-70.943652,42.4745060000001,7316.0,Chestnut St opp Eade St
436,7316,0.1,0.0,10.2,time_period_04,-70.943652,42.4745060000001,7316.0,Chestnut St opp Eade St
436,7316,0.25,0.05,15.6,time_period_05,-70.943652,42.4745060000001,7316.0,Chestnut St opp Eade St
436,7316,0.0,0.2,14.5,time_period_05,-70.943652,42.4745060000001,7316.0,Chestnut St opp Eade St
436,7316,0.133333333333333,0.2,10.1333333333333,time_period_06,-70.943652,42.4745060000001,7316.0,Chestnut St opp Eade St
436,7316,0.0,0.05,3.45,time_period_07,-70.943652,42.4745060000001,7316.0,Chestnut St opp Eade St
436,7316,0.45,0.025,10.5,time_period_10,-70.943652,42.4745060000001,7316.0,Chestnut St opp Eade St
436,7316,0.0,0.0,2.35,time_period_10,-70.943652,42.4745060000001,7316.0,Chestnut St opp Eade St
436,17316,0.05,0.05,15.6,time_period_02,-70.9449999999999,42.475017,17316.0,Chestnut St opp Peach St
436,17316,0.1,0.0,15.8,time_period_03,-70.9449999999999,42.475017,17316.0,Chestnut St opp Peach St
436,17316,0.0,0.05,17.35,time_period_03,-70.9449999999999,42.475017,17316.0,Chestnut St opp Peach St
436,17316,0.1,0.0,10.25,time_period_04,-70.9449999999999,42.475017,17316.0,Chestnut St opp Peach St
436,17316,0.2,0.0,15.75,time_period_05,-70.9449999999999,42.475017,17316.0,Chestnut St opp Peach St
436,17316,0.0,0.1,14.4,time_period_05,-70.9449999999999,42.475017,17316.0,Chestnut St opp Peach St
436,17316,0.133333333333333,0.0666666666666667,10.1666666666667,time_period_06,-70.9449999999999,42.475017,17316.0,Chestnut St opp Peach St
436,17316,0.0,0.0,3.45,time_period_07,-70.9449999999999,42.475017,17316.0,Chestnut St opp Peach St
436,17316,0.2625,0.05,10.7125,time_period_10,-70.9449999999999,42.475017,17316.0,Chestnut St opp Peach St
436,17316,0.0,0.0,2.35,time_period_10,-70.9449999999999,42.475017,17316.0,Chestnut St opp Peach St
436,7317,0.3,0.3,15.6,time_period_02,-70.946287,42.4756600000001,7317.0,Chestnut St @ Goodridge St
436,7317,0.1,0.9,15.1,time_period_03,-70.946287,42.4756600000001,7317.0,Chestnut St @ Goodridge St
436,7317,0.1,4.55,12.9,time_period_03,-70.946287,42.4756600000001,7317.0,Chestnut St @ Goodridge St
436,7317,0.35,0.15,10.475,time_period_04,-70.946287,42.4756600000001,7317.0,Chestnut St @ Goodridge St
436,7317,1.1,0.75,16.15,time_period_05,-70.946287,42.4756600000001,7317.0,Chestnut St @ Goodridge St
436,7317,3.3,2.6,15.0,time_period_05,-70.946287,42.4756600000001,7317.0,Chestnut St @ Goodridge St
436,7317,0.3,0.4,10.0333333333333,time_period_06,-70.946287,42.4756600000001,7317.0,Chestnut St @ Goodridge St
436,7317,0.1,0.05,3.5,time_period_07,-70.946287,42.4756600000001,7317.0,Chestnut St @ Goodridge St
436,7317,0.5875,0.025,11.25,time_period_10,-70.946287,42.4756600000001,7317.0,Chestnut St @ Goodridge St
436,7317,0.05,0.05,2.35,time_period_10,-70.946287,42.4756600000001,7317.0,Chestnut St @ Goodridge St
436,7318,0.05,0.0,15.65,time_period_02,-70.947217,42.476233,7318.0,Chestnut St @ Clough St
436,7318,0.3,0.1,15.2,time_period_03,-70.947217,42.476233,7318.0,Chestnut St @ Clough St
436,7318,0.6,0.1,13.5,time_period_03,-70.947217,42.476233,7318.0,Chestnut St @ Clough St
436,7318,0.225,0.05,10.65,time_period_04,-70.947217,42.476233,7318.0,Chestnut St @ Clough St
436,7318,0.2,0.1,16.25,time_period_05,-70.947217,42.476233,7318.0,Chestnut St @ Clough St
436,7318,0.2,0.1,15.0,time_period_05,-70.947217,42.476233,7318.0,Chestnut St @ Clough St
436,7318,0.1,0.0666666666666667,10.1333333333333,time_period_06,-70.947217,42.476233,7318.0,Chestnut St @ Clough St
436,7318,0.0,0.0,3.5,time_period_07,-70.947217,42.476233,7318.0,Chestnut St @ Clough St
436,7318,0.25,0.1,11.3875,time_period_10,-70.947217,42.476233,7318.0,Chestnut St @ Clough St
436,7318,0.2,0.0,2.55,time_period_10,-70.947217,42.476233,7318.0,Chestnut St @ Clough St
436,7319,0.7,0.8,15.5,time_period_02,-70.949069,42.47729,7319.0,Chestnut St @ Western Ave
436,7319,0.7,0.2,15.7,time_period_03,-70.949069,42.47729,7319.0,Chestnut St @ Western Ave
436,7319,0.55,0.35,13.65,time_period_03,-70.949069,42.47729,7319.0,Chestnut St @ Western Ave
436,7319,0.5,0.25,10.9,time_period_04,-70.949069,42.47729,7319.0,Chestnut St @ Western Ave
436,7319,0.35,0.2,16.5,time_period_05,-70.949069,42.47729,7319.0,Chestnut St @ Western Ave
436,7319,0.3,0.9,14.6,time_period_05,-70.949069,42.47729,7319.0,Chestnut St @ Western Ave
436,7319,0.5,0.333333333333333,10.2666666666667,time_period_06,-70.949069,42.47729,7319.0,Chestnut St @ Western Ave
436,7319,0.1,0.15,3.4,time_period_07,-70.949069,42.47729,7319.0,Chestnut St @ Western Ave
436,7319,0.2375,0.05,11.45,time_period_10,-70.949069,42.47729,7319.0,Chestnut St @ Western Ave
436,7319,0.0,0.25,2.3,time_period_10,-70.949069,42.47729,7319.0,Chestnut St @ Western Ave
436,7253,0.0,0.0,15.5,time_period_02,-70.9506009999999,42.4779720000001,7253.0,Chestnut St @ Maple St
436,7253,0.0,0.0,15.7,time_period_03,-70.9506009999999,42.4779720000001,7253.0,Chestnut St @ Maple St
436,7253,0.0,0.0,13.65,time_period_03,-70.9506009999999,42.4779720000001,7253.0,Chestnut St @ Maple St
436,7253,0.0,0.025,10.9,time_period_04,-70.9506009999999,42.4779720000001,7253.0,Chestnut St @ Maple St
436,7253,0.0,0.2,16.25,time_period_05,-70.9506009999999,42.4779720000001,7253.0,Chestnut St @ Maple St
436,7253,0.0,0.1,14.5,time_period_05,-70.9506009999999,42.4779720000001,7253.0,Chestnut St @ Maple St
436,7253,0.0,0.0333333333333333,10.2,time_period_06,-70.9506009999999,42.4779720000001,7253.0,Chestnut St @ Maple St
436,7253,0.0,0.0,3.4,time_period_07,-70.9506009999999,42.4779720000001,7253.0,Chestnut St @ Maple St
436,7253,0.0,0.0125,11.4375,time_period_10,-70.9506009999999,42.4779720000001,7253.0,Chestnut St @ Maple St
436,7253,0.05,0.05,2.3,time_period_10,-70.9506009999999,42.4779720000001,7253.0,Chestnut St @ Maple St
436,7254,0.0,0.0,15.55,time_period_02,-70.952235,42.478504,7254.0,Chestnut St opp Rand St
436,7254,0.0,0.0,15.7,time_period_03,-70.952235,42.478504,7254.0,Chestnut St opp Rand St
436,7254,0.05,0.3,13.45,time_period_03,-70.952235,42.478504,7254.0,Chestnut St opp Rand St
436,7254,0.15,0.05,10.975,time_period_04,-70.952235,42.478504,7254.0,Chestnut St opp Rand St
436,7254,0.2,0.15,16.35,time_period_05,-70.952235,42.478504,7254.0,Chestnut St opp Rand St
436,7254,0.1,0.7,14.0,time_period_05,-70.952235,42.478504,7254.0,Chestnut St opp Rand St
436,7254,0.0333333333333333,0.133333333333333,10.1666666666667,time_period_06,-70.952235,42.478504,7254.0,Chestnut St opp Rand St
436,7254,0.0,0.25,3.2,time_period_07,-70.952235,42.478504,7254.0,Chestnut St opp Rand St
436,7254,0.15,0.0875,11.5,time_period_10,-70.952235,42.478504,7254.0,Chestnut St opp Rand St
436,7254,0.05,0.0,2.35,time_period_10,-70.952235,42.478504,7254.0,Chestnut St opp Rand St
436,7255,0.0,0.0,15.55,time_period_02,-70.9537979999999,42.4791320000001,7255.0,Chestnut St opp Allerton St
436,7255,0.1,0.0,15.8,time_period_03,-70.9537979999999,42.4791320000001,7255.0,Chestnut St opp Allerton St
436,7255,0.25,0.0,13.7,time_period_03,-70.9537979999999,42.4791320000001,7255.0,Chestnut St opp Allerton St
436,7255,0.125,0.15,10.975,time_period_04,-70.9537979999999,42.4791320000001,7255.0,Chestnut St opp Allerton St
436,7255,0.3,0.15,16.5,time_period_05,-70.9537979999999,42.4791320000001,7255.0,Chestnut St opp Allerton St
436,7255,0.1,0.2,13.8,time_period_05,-70.9537979999999,42.4791320000001,7255.0,Chestnut St opp Allerton St
436,7255,0.0333333333333333,0.133333333333333,10.0666666666667,time_period_06,-70.9537979999999,42.4791320000001,7255.0,Chestnut St opp Allerton St
436,7255,0.1,0.05,3.25,time_period_07,-70.9537979999999,42.4791320000001,7255.0,Chestnut St opp Allerton St
436,7255,0.2,0.0875,11.575,time_period_10,-70.9537979999999,42.4791320000001,7255.0,Chestnut St opp Allerton St
436,7255,0.0,0.1,2.25,time_period_10,-70.9537979999999,42.4791320000001,7255.0,Chestnut St opp Allerton St
436,7256,0.15,0.0,15.7,time_period_02,-70.955686,42.48107,7256.0,Broadway @ Carter Rd
436,7256,0.2,0.0,16.0,time_period_03,-70.955686,42.48107,7256.0,Broadway @ Carter Rd
436,7256,0.05,0.05,13.7,time_period_03,-70.955686,42.48107,7256.0,Broadway @ Carter Rd
436,7256,0.075,0.1,10.925,time_period_04,-70.955686,42.48107,7256.0,Broadway @ Carter Rd
436,7256,0.05,0.05,16.5,time_period_05,-70.955686,42.48107,7256.0,Broadway @ Carter Rd
436,7256,0.2,0.1,14.0,time_period_05,-70.955686,42.48107,7256.0,Broadway @ Carter Rd
436,7256,0.1,0.0666666666666667,10.1,time_period_06,-70.955686,42.48107,7256.0,Broadway @ Carter Rd
436,7256,0.0,0.0,3.25,time_period_07,-70.955686,42.48107,7256.0,Broadway @ Carter Rd
436,7256,0.1125,0.075,11.6375,time_period_10,-70.955686,42.48107,7256.0,Broadway @ Carter Rd
436,7256,0.0,0.0,2.25,time_period_10,-70.955686,42.48107,7256.0,Broadway @ Carter Rd
436,7257,0.0,0.0,15.7,time_period_02,-70.9561629999999,42.481681,7257.0,Broadway @ Virginia Terr
436,7257,0.0,0.0,16.0,time_period_03,-70.9561629999999,42.481681,7257.0,Broadway @ Virginia Terr
436,7257,0.0,0.2,13.45,time_period_03,-70.9561629999999,42.481681,7257.0,Broadway @ Virginia Terr
436,7257,0.0,0.0,10.925,time_period_04,-70.9561629999999,42.481681,7257.0,Broadway @ Virginia Terr
436,7257,0.0,0.0,16.55,time_period_05,-70.9561629999999,42.481681,7257.0,Broadway @ Virginia Terr
436,7257,0.0,0.1,13.9,time_period_05,-70.9561629999999,42.481681,7257.0,Broadway @ Virginia Terr
436,7257,0.0333333333333333,0.0333333333333333,10.1,time_period_06,-70.9561629999999,42.481681,7257.0,Broadway @ Virginia Terr
436,7257,0.0,0.0,3.2,time_period_07,-70.9561629999999,42.481681,7257.0,Broadway @ Virginia Terr
436,7257,0.0,0.0,11.6375,time_period_10,-70.9561629999999,42.481681,7257.0,Broadway @ Virginia Terr
436,7257,0.0,0.0,2.25,time_period_10,-70.9561629999999,42.481681,7257.0,Broadway @ Virginia Terr
436,7258,0.0,0.0,15.7,time_period_02,-70.956831,42.48251,7258.0,Broadway opp Hudson St
436,7258,0.0,0.0,16.0,time_period_03,-70.956831,42.48251,7258.0,Broadway opp Hudson St
436,7258,0.0,0.05,13.35,time_period_03,-70.956831,42.48251,7258.0,Broadway opp Hudson St
436,7258,0.025,0.15,10.8,time_period_04,-70.956831,42.48251,7258.0,Broadway opp Hudson St
436,7258,0.05,0.15,16.4,time_period_05,-70.956831,42.48251,7258.0,Broadway opp Hudson St
436,7258,0.0,0.7,13.1,time_period_05,-70.956831,42.48251,7258.0,Broadway opp Hudson St
436,7258,0.0333333333333333,0.766666666666667,9.4,time_period_06,-70.956831,42.48251,7258.0,Broadway opp Hudson St
436,7258,0.0,0.25,3.0,time_period_07,-70.956831,42.48251,7258.0,Broadway opp Hudson St
436,7258,0.0875,0.0625,11.6375,time_period_10,-70.956831,42.48251,7258.0,Broadway opp Hudson St
436,7258,0.0,0.05,2.2,time_period_10,-70.956831,42.48251,7258.0,Broadway opp Hudson St
436,7259,0.0,0.0,15.7,time_period_02,-70.958387,42.483865,7259.0,Broadway @ Magnolia Ave
436,7259,0.7,0.2,16.4,time_period_03,-70.958387,42.483865,7259.0,Broadway @ Magnolia Ave
436,7259,0.2,0.55,13.05,time_period_03,-70.958387,42.483865,7259.0,Broadway @ Magnolia Ave
436,7259,0.2,0.3,10.675,time_period_04,-70.958387,42.483865,7259.0,Broadway @ Magnolia Ave
436,7259,0.1,0.5,16.05,time_period_05,-70.958387,42.483865,7259.0,Broadway @ Magnolia Ave
436,7259,0.1,2.2,11.0,time_period_05,-70.958387,42.483865,7259.0,Broadway @ Magnolia Ave
436,7259,0.1,0.533333333333333,8.93333333333333,time_period_06,-70.958387,42.483865,7259.0,Broadway @ Magnolia Ave
436,7259,0.0,0.4,2.6,time_period_07,-70.958387,42.483865,7259.0,Broadway @ Magnolia Ave
436,7259,0.175,0.1125,11.7125,time_period_10,-70.958387,42.483865,7259.0,Broadway @ Magnolia Ave
436,7259,0.0,0.1,2.1,time_period_10,-70.958387,42.483865,7259.0,Broadway @ Magnolia Ave
436,7260,0.0,0.0,15.7,time_period_02,-70.9597029999999,42.484804,7260.0,Broadway opp Richardson Rd
436,7260,0.7,0.8,16.3,time_period_03,-70.9597029999999,42.484804,7260.0,Broadway opp Richardson Rd
436,7260,0.2,0.3,12.85,time_period_03,-70.9597029999999,42.484804,7260.0,Broadway opp Richardson Rd
436,7260,0.0,0.275,10.425,time_period_04,-70.9597029999999,42.484804,7260.0,Broadway opp Richardson Rd
436,7260,0.1,0.5,15.6,time_period_05,-70.9597029999999,42.484804,7260.0,Broadway opp Richardson Rd
436,7260,0.1,0.8,10.3,time_period_05,-70.9597029999999,42.484804,7260.0,Broadway opp Richardson Rd
436,7260,0.0666666666666667,0.933333333333333,8.06666666666667,time_period_06,-70.9597029999999,42.484804,7260.0,Broadway opp Richardson Rd
436,7260,0.0,0.3,2.3,time_period_07,-70.9597029999999,42.484804,7260.0,Broadway opp Richardson Rd
436,7260,0.125,0.2375,11.6125,time_period_10,-70.9597029999999,42.484804,7260.0,Broadway opp Richardson Rd
436,7260,0.0,0.0,2.1,time_period_10,-70.9597029999999,42.484804,7260.0,Broadway opp Richardson Rd
436,7320,0.15,0.0,15.85,time_period_02,-70.961945,42.4857670000001,7320.0,Lynnfield St opp Floyd Ave
436,7320,0.0,0.0,16.4,time_period_03,-70.961945,42.4857670000001,7320.0,Lynnfield St opp Floyd Ave
436,7320,0.2,0.0,13.05,time_period_03,-70.961945,42.4857670000001,7320.0,Lynnfield St opp Floyd Ave
436,7320,0.075,0.175,10.375,time_period_04,-70.961945,42.4857670000001,7320.0,Lynnfield St opp Floyd Ave
436,7320,0.05,0.2,15.4,time_period_05,-70.961945,42.4857670000001,7320.0,Lynnfield St opp Floyd Ave
436,7320,2.6,1.9,11.1,time_period_05,-70.961945,42.4857670000001,7320.0,Lynnfield St opp Floyd Ave
436,7320,0.133333333333333,0.766666666666667,7.46666666666667,time_period_06,-70.961945,42.4857670000001,7320.0,Lynnfield St opp Floyd Ave
436,7320,0.15,0.2,2.25,time_period_07,-70.961945,42.4857670000001,7320.0,Lynnfield St opp Floyd Ave
436,7320,0.1875,0.1,11.7,time_period_10,-70.961945,42.4857670000001,7320.0,Lynnfield St opp Floyd Ave
436,7320,0.0,0.0,2.1,time_period_10,-70.961945,42.4857670000001,7320.0,Lynnfield St opp Floyd Ave
436,7322,0.05,0.05,15.85,time_period_02,,,,
436,7322,0.0,0.0,16.3,time_period_03,,,,
436,7322,0.05,0.05,13.05,time_period_03,,,,
436,7322,0.0,0.075,10.25,time_period_04,,,,
436,7322,0.05,0.0,15.45,time_period_05,,,,
436,7322,0.0,0.4,10.7,time_period_05,,,,
436,7322,0.0333333333333333,0.0666666666666667,7.43333333333333,time_period_06,,,,
436,7322,0.0,0.05,2.2,time_period_07,,,,
436,7322,0.0125,0.0125,11.7,time_period_10,,,,
436,7322,0.0,0.0,2.1,time_period_10,,,,
436,7324,0.0,0.0,15.85,time_period_02,-70.9678949999999,42.489309,7324.0,153 Lynnfield St
436,7324,0.0,0.0,16.3,time_period_03,-70.9678949999999,42.489309,7324.0,153 Lynnfield St
436,7324,0.0,0.0,13.05,time_period_03,-70.9678949999999,42.489309,7324.0,153 Lynnfield St
436,7324,0.0,0.025,10.225,time_period_04,-70.9678949999999,42.489309,7324.0,153 Lynnfield St
436,7324,0.0,0.05,15.4,time_period_05,-70.9678949999999,42.489309,7324.0,153 Lynnfield St
436,7324,0.0,0.0,10.7,time_period_05,-70.9678949999999,42.489309,7324.0,153 Lynnfield St
436,7324,0.0,0.0333333333333333,7.43333333333333,time_period_06,-70.9678949999999,42.489309,7324.0,153 Lynnfield St
436,7324,0.0,0.0,2.2,time_period_07,-70.9678949999999,42.489309,7324.0,153 Lynnfield St
436,7324,0.0,0.025,11.6875,time_period_10,-70.9678949999999,42.489309,7324.0,153 Lynnfield St
436,7324,0.0,0.0,2.1,time_period_10,-70.9678949999999,42.489309,7324.0,153 Lynnfield St
436,17325,0.0,0.0,15.85,time_period_02,-70.9689289999999,42.489805,17325.0,Lynnfield St @ St Mary Cemetery
436,17325,0.0,0.0,16.3,time_period_03,-70.9689289999999,42.489805,17325.0,Lynnfield St @ St Mary Cemetery
436,17325,0.0,0.0,13.05,time_period_03,-70.9689289999999,42.489805,17325.0,Lynnfield St @ St Mary Cemetery
436,17325,0.0,0.025,10.2,time_period_04,-70.9689289999999,42.489805,17325.0,Lynnfield St @ St Mary Cemetery
436,17325,0.0,0.0,15.4,time_period_05,-70.9689289999999,42.489805,17325.0,Lynnfield St @ St Mary Cemetery
436,17325,0.0,0.1,10.5,time_period_05,-70.9689289999999,42.489805,17325.0,Lynnfield St @ St Mary Cemetery
436,17325,0.0,0.1,7.33333333333333,time_period_06,-70.9689289999999,42.489805,17325.0,Lynnfield St @ St Mary Cemetery
436,17325,0.0,0.0,2.2,time_period_07,-70.9689289999999,42.489805,17325.0,Lynnfield St @ St Mary Cemetery
436,17325,0.0375,0.1125,11.6125,time_period_10,-70.9689289999999,42.489805,17325.0,Lynnfield St @ St Mary Cemetery
436,17325,0.0,0.05,2.05,time_period_10,-70.9689289999999,42.489805,17325.0,Lynnfield St @ St Mary Cemetery
436,7327,0.0,0.0,15.85,time_period_02,-70.971736,42.4928580000001,7327.0,Lynnfield St @ Kernwood Dr
436,7327,0.2,0.0,16.5,time_period_03,-70.971736,42.4928580000001,7327.0,Lynnfield St @ Kernwood Dr
436,7327,0.0,0.4,12.65,time_period_03,-70.971736,42.4928580000001,7327.0,Lynnfield St @ Kernwood Dr
436,7327,0.0,0.075,10.125,time_period_04,-70.971736,42.4928580000001,7327.0,Lynnfield St @ Kernwood Dr
436,7327,0.25,0.05,15.6,time_period_05,-70.971736,42.4928580000001,7327.0,Lynnfield St @ Kernwood Dr
436,7327,0.0,1.0,9.5,time_period_05,-70.971736,42.4928580000001,7327.0,Lynnfield St @ Kernwood Dr
436,7327,0.0666666666666667,0.0666666666666667,7.33333333333333,time_period_06,-70.971736,42.4928580000001,7327.0,Lynnfield St @ Kernwood Dr
436,7327,0.0,0.15,2.05,time_period_07,-70.971736,42.4928580000001,7327.0,Lynnfield St @ Kernwood Dr
436,7327,0.0375,0.0375,11.6125,time_period_10,-70.971736,42.4928580000001,7327.0,Lynnfield St @ Kernwood Dr
436,7327,0.0,0.0,2.05,time_period_10,-70.971736,42.4928580000001,7327.0,Lynnfield St @ Kernwood Dr
436,7328,0.0,0.0,15.85,time_period_02,-70.970895,42.494559,7328.0,Lynnfield St opp Trevett Ave
436,7328,0.0,0.1,16.5,time_period_03,-70.970895,42.494559,7328.0,Lynnfield St opp Trevett Ave
436,7328,0.0,0.0,12.65,time_period_03,-70.970895,42.494559,7328.0,Lynnfield St opp Trevett Ave
436,7328,0.05,0.1,10.05,time_period_04,-70.970895,42.494559,7328.0,Lynnfield St opp Trevett Ave
436,7328,0.05,0.35,15.3,time_period_05,-70.970895,42.494559,7328.0,Lynnfield St opp Trevett Ave
436,7328,0.0,1.8,7.7,time_period_05,-70.970895,42.494559,7328.0,Lynnfield St opp Trevett Ave
436,7328,0.0666666666666667,0.6,6.8,time_period_06,-70.970895,42.494559,7328.0,Lynnfield St opp Trevett Ave
436,7328,0.0,0.6,1.5,time_period_07,-70.970895,42.494559,7328.0,Lynnfield St opp Trevett Ave
436,7328,0.0375,0.175,11.4625,time_period_10,-70.970895,42.494559,7328.0,Lynnfield St opp Trevett Ave
436,7328,0.0,0.0,2.05,time_period_10,-70.970895,42.494559,7328.0,Lynnfield St opp Trevett Ave
436,7330,0.0,0.0,15.85,time_period_02,-70.9709599999999,42.497824,7330.0,Lynnfield St @ Woodale Rd
436,7330,0.0,0.1,16.5,time_period_03,-70.9709599999999,42.497824,7330.0,Lynnfield St @ Woodale Rd
436,7330,0.0,0.0,12.65,time_period_03,-70.9709599999999,42.497824,7330.0,Lynnfield St @ Woodale Rd
436,7330,0.025,0.025,10.075,time_period_04,-70.9709599999999,42.497824,7330.0,Lynnfield St @ Woodale Rd
436,7330,0.1,0.0,15.4,time_period_05,-70.9709599999999,42.497824,7330.0,Lynnfield St @ Woodale Rd
436,7330,0.0,0.2,7.5,time_period_05,-70.9709599999999,42.497824,7330.0,Lynnfield St @ Woodale Rd
436,7330,0.0,0.0333333333333333,6.83333333333333,time_period_06,-70.9709599999999,42.497824,7330.0,Lynnfield St @ Woodale Rd
436,7330,0.0,0.1,1.4,time_period_07,-70.9709599999999,42.497824,7330.0,Lynnfield St @ Woodale Rd
436,7330,0.2125,0.025,11.6375,time_period_10,-70.9709599999999,42.497824,7330.0,Lynnfield St @ Woodale Rd
436,7330,0.05,0.05,2.05,time_period_10,-70.9709599999999,42.497824,7330.0,Lynnfield St @ Woodale Rd
436,7331,0.0,0.0,15.85,time_period_02,-70.9729629999999,42.498635,7331.0,Lynnfield St opp Lebel Rd
436,7331,0.0,0.0,16.5,time_period_03,-70.9729629999999,42.498635,7331.0,Lynnfield St opp Lebel Rd
436,7331,0.0,0.0,12.65,time_period_03,-70.9729629999999,42.498635,7331.0,Lynnfield St opp Lebel Rd
436,7331,0.0,0.0,10.05,time_period_04,-70.9729629999999,42.498635,7331.0,Lynnfield St opp Lebel Rd
436,7331,0.0,0.0,15.4,time_period_05,-70.9729629999999,42.498635,7331.0,Lynnfield St opp Lebel Rd
436,7331,0.0,0.1,7.4,time_period_05,-70.9729629999999,42.498635,7331.0,Lynnfield St opp Lebel Rd
436,7331,0.0,0.0,6.76666666666667,time_period_06,-70.9729629999999,42.498635,7331.0,Lynnfield St opp Lebel Rd
436,7331,0.0,0.0,1.4,time_period_07,-70.9729629999999,42.498635,7331.0,Lynnfield St opp Lebel Rd
436,7331,0.0,0.0,11.6375,time_period_10,-70.9729629999999,42.498635,7331.0,Lynnfield St opp Lebel Rd
436,7331,0.0,0.0,2.05,time_period_10,-70.9729629999999,42.498635,7331.0,Lynnfield St opp Lebel Rd
436,7332,0.0,0.15,15.7,time_period_02,-70.975966,42.5001330000001,7332.0,Lynnfield St @ Harris Rd
436,7332,0.0,0.0,16.4,time_period_03,-70.975966,42.5001330000001,7332.0,Lynnfield St @ Harris Rd
436,7332,0.0,0.0,12.55,time_period_03,-70.975966,42.5001330000001,7332.0,Lynnfield St @ Harris Rd
436,7332,0.05,0.05,10.025,time_period_04,-70.975966,42.5001330000001,7332.0,Lynnfield St @ Harris Rd
436,7332,0.0,0.1,15.35,time_period_05,-70.975966,42.5001330000001,7332.0,Lynnfield St @ Harris Rd
436,7332,0.0,1.8,5.5,time_period_05,-70.975966,42.5001330000001,7332.0,Lynnfield St @ Harris Rd
436,7332,0.0,0.366666666666667,6.4,time_period_06,-70.975966,42.5001330000001,7332.0,Lynnfield St @ Harris Rd
436,7332,0.0,0.1,1.3,time_period_07,-70.975966,42.5001330000001,7332.0,Lynnfield St @ Harris Rd
436,7332,0.0,0.0125,11.625,time_period_10,-70.975966,42.5001330000001,7332.0,Lynnfield St @ Harris Rd
436,7332,0.0,0.0,2.05,time_period_10,-70.975966,42.5001330000001,7332.0,Lynnfield St @ Harris Rd
436,7334,0.0,0.0,15.7,time_period_02,-70.97941,42.5024040000001,7334.0,Lynnfield St opp Union Hospital
436,7334,0.3,0.3,16.4,time_period_03,-70.97941,42.5024040000001,7334.0,Lynnfield St opp Union Hospital
436,7334,0.05,0.4,12.2,time_period_03,-70.97941,42.5024040000001,7334.0,Lynnfield St opp Union Hospital
436,7334,0.05,0.375,9.65,time_period_04,-70.97941,42.5024040000001,7334.0,Lynnfield St opp Union Hospital
436,7334,0.1,0.3,15.2,time_period_05,-70.97941,42.5024040000001,7334.0,Lynnfield St opp Union Hospital
436,7334,0.0,1.2,4.4,time_period_05,-70.97941,42.5024040000001,7334.0,Lynnfield St opp Union Hospital
436,7334,0.0333333333333333,0.1,6.33333333333333,time_period_06,-70.97941,42.5024040000001,7334.0,Lynnfield St opp Union Hospital
436,7334,0.0,0.0,1.25,time_period_07,-70.97941,42.5024040000001,7334.0,Lynnfield St opp Union Hospital
436,7334,0.05,0.1875,11.475,time_period_10,-70.97941,42.5024040000001,7334.0,Lynnfield St opp Union Hospital
436,7334,0.0,0.0,2.05,time_period_10,-70.97941,42.5024040000001,7334.0,Lynnfield St opp Union Hospital
436,7335,0.0,0.0,15.7,time_period_02,-70.9803229999999,42.5036460000001,7335.0,Lynnfield St opp Stocker Ave
436,7335,0.0,0.0,16.4,time_period_03,-70.9803229999999,42.5036460000001,7335.0,Lynnfield St opp Stocker Ave
436,7335,0.0,0.0,12.15,time_period_03,-70.9803229999999,42.5036460000001,7335.0,Lynnfield St opp Stocker Ave
436,7335,0.0,0.025,9.65,time_period_04,-70.9803229999999,42.5036460000001,7335.0,Lynnfield St opp Stocker Ave
436,7335,0.05,0.05,15.25,time_period_05,-70.9803229999999,42.5036460000001,7335.0,Lynnfield St opp Stocker Ave
436,7335,0.0,0.0,4.3,time_period_05,-70.9803229999999,42.5036460000001,7335.0,Lynnfield St opp Stocker Ave
436,7335,0.0,0.0666666666666667,6.3,time_period_06,-70.9803229999999,42.5036460000001,7335.0,Lynnfield St opp Stocker Ave
436,7335,0.0,0.1,1.15,time_period_07,-70.9803229999999,42.5036460000001,7335.0,Lynnfield St opp Stocker Ave
436,7335,0.0,0.0,11.475,time_period_10,-70.9803229999999,42.5036460000001,7335.0,Lynnfield St opp Stocker Ave
436,7335,0.0,0.0,2.05,time_period_10,-70.9803229999999,42.5036460000001,7335.0,Lynnfield St opp Stocker Ave
436,7336,0.1,0.0,15.8,time_period_02,-70.981115,42.504799,7336.0,Lynnfield St opp Gallo Rd
436,7336,0.0,0.0,16.4,time_period_03,-70.981115,42.504799,7336.0,Lynnfield St opp Gallo Rd
436,7336,0.0,0.05,12.15,time_period_03,-70.981115,42.504799,7336.0,Lynnfield St opp Gallo Rd
436,7336,0.0,0.025,9.625,time_period_04,-70.981115,42.504799,7336.0,Lynnfield St opp Gallo Rd
436,7336,0.0,0.05,15.2,time_period_05,-70.981115,42.504799,7336.0,Lynnfield St opp Gallo Rd
436,7336,0.0,0.3,4.0,time_period_05,-70.981115,42.504799,7336.0,Lynnfield St opp Gallo Rd
436,7336,0.0,0.233333333333333,6.13333333333333,time_period_06,-70.981115,42.504799,7336.0,Lynnfield St opp Gallo Rd
436,7336,0.0,0.35,0.9,time_period_07,-70.981115,42.504799,7336.0,Lynnfield St opp Gallo Rd
436,7336,0.0,0.025,11.4625,time_period_10,-70.981115,42.504799,7336.0,Lynnfield St opp Gallo Rd
436,7336,0.0,0.0,2.05,time_period_10,-70.981115,42.504799,7336.0,Lynnfield St opp Gallo Rd
436,7337,0.0,0.0,15.8,time_period_02,-70.982749,42.5059400000001,7337.0,Lynnfield St @ Tuscan Rd
436,7337,0.6,0.0,17.0,time_period_03,-70.982749,42.5059400000001,7337.0,Lynnfield St @ Tuscan Rd
436,7337,0.0,0.8,11.4,time_period_03,-70.982749,42.5059400000001,7337.0,Lynnfield St @ Tuscan Rd
436,7337,0.0,0.0,9.625,time_period_04,-70.982749,42.5059400000001,7337.0,Lynnfield St @ Tuscan Rd
436,7337,0.0,0.2,15.0,time_period_05,-70.982749,42.5059400000001,7337.0,Lynnfield St @ Tuscan Rd
436,7337,0.0,1.1,2.9,time_period_05,-70.982749,42.5059400000001,7337.0,Lynnfield St @ Tuscan Rd
436,7337,0.0,0.1,6.03333333333333,time_period_06,-70.982749,42.5059400000001,7337.0,Lynnfield St @ Tuscan Rd
436,7337,0.0,0.4,0.5,time_period_07,-70.982749,42.5059400000001,7337.0,Lynnfield St @ Tuscan Rd
436,7337,0.1375,0.125,11.4625,time_period_10,-70.982749,42.5059400000001,7337.0,Lynnfield St @ Tuscan Rd
436,7337,0.0,0.0,2.05,time_period_10,-70.982749,42.5059400000001,7337.0,Lynnfield St @ Tuscan Rd
436,7338,0.0,0.0,15.8,time_period_02,-70.985599,42.50789,7338.0,715 Lynnfield St
436,7338,0.0,0.0,17.0,time_period_03,-70.985599,42.50789,7338.0,715 Lynnfield St
436,7338,0.0,0.0,11.35,time_period_03,-70.985599,42.50789,7338.0,715 Lynnfield St
436,7338,0.0,0.0,9.6,time_period_04,-70.985599,42.50789,7338.0,715 Lynnfield St
436,7338,0.0,0.1,14.85,time_period_05,-70.985599,42.50789,7338.0,715 Lynnfield St
436,7338,0.0,0.9,2.0,time_period_05,-70.985599,42.50789,7338.0,715 Lynnfield St
436,7338,0.0,0.266666666666667,5.83333333333333,time_period_06,-70.985599,42.50789,7338.0,715 Lynnfield St
436,7338,0.0,0.1,0.4,time_period_07,-70.985599,42.50789,7338.0,715 Lynnfield St
436,7338,0.0,0.0625,11.4125,time_period_10,-70.985599,42.50789,7338.0,715 Lynnfield St
436,7338,0.0,0.0,2.05,time_period_10,-70.985599,42.50789,7338.0,715 Lynnfield St
436,7339,0.0,0.1,15.7,time_period_02,-70.987515,42.5090730000001,7339.0,Lynnfield St @ Cobb Ln
436,7339,0.0,0.0,17.0,time_period_03,-70.987515,42.5090730000001,7339.0,Lynnfield St @ Cobb Ln
436,7339,0.0,0.0,11.35,time_period_03,-70.987515,42.5090730000001,7339.0,Lynnfield St @ Cobb Ln
436,7339,0.0,0.025,9.575,time_period_04,-70.987515,42.5090730000001,7339.0,Lynnfield St @ Cobb Ln
436,7339,0.0,0.0,14.85,time_period_05,-70.987515,42.5090730000001,7339.0,Lynnfield St @ Cobb Ln
436,7339,0.0,1.0,1.0,time_period_05,-70.987515,42.5090730000001,7339.0,Lynnfield St @ Cobb Ln
436,7339,0.0,0.0666666666666667,5.76666666666667,time_period_06,-70.987515,42.5090730000001,7339.0,Lynnfield St @ Cobb Ln
436,7339,0.0,0.0,0.4,time_period_07,-70.987515,42.5090730000001,7339.0,Lynnfield St @ Cobb Ln
436,7339,0.025,0.1,11.3375,time_period_10,-70.987515,42.5090730000001,7339.0,Lynnfield St @ Cobb Ln
436,7339,0.0,0.05,2.0,time_period_10,-70.987515,42.5090730000001,7339.0,Lynnfield St @ Cobb Ln
436,7340,0.0,0.45,15.25,time_period_02,-70.989516,42.5101490000001,7340.0,Lynnfield St opp Lookout Terr
436,7340,0.0,0.5,16.5,time_period_03,-70.989516,42.5101490000001,7340.0,Lynnfield St opp Lookout Terr
436,7340,0.0,0.3,11.05,time_period_03,-70.989516,42.5101490000001,7340.0,Lynnfield St opp Lookout Terr
436,7340,0.0,0.125,9.425,time_period_04,-70.989516,42.5101490000001,7340.0,Lynnfield St opp Lookout Terr
436,7340,0.05,0.2,14.75,time_period_05,-70.989516,42.5101490000001,7340.0,Lynnfield St opp Lookout Terr
436,7340,0.0,0.9,0.2,time_period_05,-70.989516,42.5101490000001,7340.0,Lynnfield St opp Lookout Terr
436,7340,0.0333333333333333,0.133333333333333,5.66666666666667,time_period_06,-70.989516,42.5101490000001,7340.0,Lynnfield St opp Lookout Terr
436,7340,0.0,0.3,0.15,time_period_07,-70.989516,42.5101490000001,7340.0,Lynnfield St opp Lookout Terr
436,7340,0.0,0.2125,11.15,time_period_10,-70.989516,42.5101490000001,7340.0,Lynnfield St opp Lookout Terr
436,7340,0.0,1.7,0.3,time_period_10,-70.989516,42.5101490000001,7340.0,Lynnfield St opp Lookout Terr
436,4570,0.0,0.05,15.2,time_period_02,-70.980737,42.5128980000001,4570.0,Lynnfield St @ Bartholomew St
436,4570,0.0,0.1,16.4,time_period_03,-70.980737,42.5128980000001,4570.0,Lynnfield St @ Bartholomew St
436,4570,0.0,0.3,10.8,time_period_03,-70.980737,42.5128980000001,4570.0,Lynnfield St @ Bartholomew St
436,4570,0.0,0.1,9.325,time_period_04,-70.980737,42.5128980000001,4570.0,Lynnfield St @ Bartholomew St
436,4570,0.0,0.0,14.7,time_period_05,-70.980737,42.5128980000001,4570.0,Lynnfield St @ Bartholomew St
436,4570,0.0,0.1,5.56666666666667,time_period_06,-70.980737,42.5128980000001,4570.0,Lynnfield St @ Bartholomew St
436,4570,0.075,0.0875,11.1375,time_period_10,-70.980737,42.5128980000001,4570.0,Lynnfield St @ Bartholomew St
436,4572,0.25,4.05,11.45,time_period_02,-70.972292,42.516396,4572.0,First Ave @ Lynnfield St
436,4572,0.0,0.6,15.9,time_period_03,-70.972292,42.516396,4572.0,First Ave @ Lynnfield St
436,4572,0.05,1.5,9.3,time_period_03,-70.972292,42.516396,4572.0,First Ave @ Lynnfield St
436,4572,0.025,0.175,9.2,time_period_04,-70.972292,42.516396,4572.0,First Ave @ Lynnfield St
436,4572,0.05,1.0,13.75,time_period_05,-70.972292,42.516396,4572.0,First Ave @ Lynnfield St
436,4572,0.0,0.0666666666666667,5.56666666666667,time_period_06,-70.972292,42.516396,4572.0,First Ave @ Lynnfield St
436,4572,0.0125,0.2375,10.925,time_period_10,-70.972292,42.516396,4572.0,First Ave @ Lynnfield St
436,4573,0.05,3.15,8.35,time_period_02,-70.974484,42.519613,4573.0,Centennial Dr @ First Ave
436,4573,0.0,0.9,15.0,time_period_03,-70.974484,42.519613,4573.0,Centennial Dr @ First Ave
436,4573,0.0,2.7,6.65,time_period_03,-70.974484,42.519613,4573.0,Centennial Dr @ First Ave
436,4573,0.025,1.65,7.575,time_period_04,-70.974484,42.519613,4573.0,Centennial Dr @ First Ave
436,4573,0.15,0.55,13.4,time_period_05,-70.974484,42.519613,4573.0,Centennial Dr @ First Ave
436,4573,0.133333333333333,0.433333333333333,5.23333333333333,time_period_06,-70.974484,42.519613,4573.0,Centennial Dr @ First Ave
436,4573,0.125,0.2375,10.8125,time_period_10,-70.974484,42.519613,4573.0,Centennial Dr @ First Ave
436,4576,0.0,1.1,7.2,time_period_02,-70.961154,42.5219920000001,4576.0,Centennial Dr @ Corporation Way
436,4576,0.0,0.9,14.1,time_period_03,-70.961154,42.5219920000001,4576.0,Centennial Dr @ Corporation Way
436,4576,0.0,1.2,5.45,time_period_03,-70.961154,42.5219920000001,4576.0,Centennial Dr @ Corporation Way
436,4576,0.0,0.075,7.5,time_period_04,-70.961154,42.5219920000001,4576.0,Centennial Dr @ Corporation Way
436,4576,0.0,0.3,13.1,time_period_05,-70.961154,42.5219920000001,4576.0,Centennial Dr @ Corporation Way
436,4576,0.0333333333333333,0.5,4.76666666666667,time_period_06,-70.961154,42.5219920000001,4576.0,Centennial Dr @ Corporation Way
436,4576,0.1,0.0625,10.8375,time_period_10,-70.961154,42.5219920000001,4576.0,Centennial Dr @ Corporation Way
436,4577,0.0,1.6,5.6,time_period_02,-70.957076,42.523353,4577.0,Centennial Dr opp Marriott Dr
436,4577,0.0,0.0,14.1,time_period_03,-70.957076,42.523353,4577.0,Centennial Dr opp Marriott Dr
436,4577,0.0,0.4,5.05,time_period_03,-70.957076,42.523353,4577.0,Centennial Dr opp Marriott Dr
436,4577,0.025,0.0,7.525,time_period_04,-70.957076,42.523353,4577.0,Centennial Dr opp Marriott Dr
436,4577,0.05,0.1,13.0,time_period_05,-70.957076,42.523353,4577.0,Centennial Dr opp Marriott Dr
436,4577,0.0333333333333333,0.0,4.76666666666667,time_period_06,-70.957076,42.523353,4577.0,Centennial Dr opp Marriott Dr
436,4577,0.05,0.0,10.8875,time_period_10,-70.957076,42.523353,4577.0,Centennial Dr opp Marriott Dr
436,4578,0.0,3.7,1.9,time_period_02,-70.952657,42.5244450000001,4578.0,Centennial Dr opp Rt128 Ramp
436,4578,0.0,0.5,13.6,time_period_03,-70.952657,42.5244450000001,4578.0,Centennial Dr opp Rt128 Ramp
436,4578,0.0,2.15,3.0,time_period_03,-70.952657,42.5244450000001,4578.0,Centennial Dr opp Rt128 Ramp
436,4578,0.0,0.15,7.325,time_period_04,-70.952657,42.5244450000001,4578.0,Centennial Dr opp Rt128 Ramp
436,4578,0.0,0.0,13.0,time_period_05,-70.952657,42.5244450000001,4578.0,Centennial Dr opp Rt128 Ramp
436,4578,0.0,0.0,4.76666666666667,time_period_06,-70.952657,42.5244450000001,4578.0,Centennial Dr opp Rt128 Ramp
436,4578,0.0,0.075,10.8125,time_period_10,-70.952657,42.5244450000001,4578.0,Centennial Dr opp Rt128 Ramp
436,14586,0.0,0.0,1.95,time_period_02,-70.951632,42.5260450000001,14586.0,10 Centennial Drive - Boston Children's @ Peabody
436,14586,0.0,0.1,13.5,time_period_03,-70.951632,42.5260450000001,14586.0,10 Centennial Drive - Boston Children's @ Peabody
436,14586,0.0,0.6,2.35,time_period_03,-70.951632,42.5260450000001,14586.0,10 Centennial Drive - Boston Children's @ Peabody
436,14586,0.05,0.1,7.275,time_period_04,-70.951632,42.5260450000001,14586.0,10 Centennial Drive - Boston Children's @ Peabody
436,14586,0.15,0.05,13.0,time_period_05,-70.951632,42.5260450000001,14586.0,10 Centennial Drive - Boston Children's @ Peabody
436,14586,0.1,0.0666666666666667,4.83333333333333,time_period_06,-70.951632,42.5260450000001,14586.0,10 Centennial Drive - Boston Children's @ Peabody
436,14586,0.0,0.0,10.8125,time_period_10,-70.951632,42.5260450000001,14586.0,10 Centennial Drive - Boston Children's @ Peabody
436,24586,0.0,0.15,1.75,time_period_02,-70.954649,42.526993,24586.0,10 Centennial Drive - West
436,24586,0.0,0.0,13.5,time_period_03,-70.954649,42.526993,24586.0,10 Centennial Drive - West
436,24586,0.0,0.0,2.35,time_period_03,-70.954649,42.526993,24586.0,10 Centennial Drive - West
436,24586,0.0,0.0,7.275,time_period_04,-70.954649,42.526993,24586.0,10 Centennial Drive - West
436,24586,0.0,0.0,13.0,time_period_05,-70.954649,42.526993,24586.0,10 Centennial Drive - West
436,24586,0.0,0.0,4.86666666666667,time_period_06,-70.954649,42.526993,24586.0,10 Centennial Drive - West
436,24586,0.025,0.025,10.8125,time_period_10,-70.954649,42.526993,24586.0,10 Centennial Drive - West
436,4581,0.0,0.5,1.5,time_period_02,-70.950149,42.539921,4581.0,Essex Ctr Dr @ Essex Green Dr
436,4581,0.0,0.333333333333333,5.0,time_period_06,-70.950149,42.539921,4581.0,Essex Ctr Dr @ Essex Green Dr
436,4582,0.0,0.2,1.6,time_period_02,-70.9478589999999,42.5374610000001,4582.0,Lahey Clinic before Crosswalk
436,4582,0.0,0.2,13.3,time_period_03,-70.9478589999999,42.5374610000001,4582.0,Lahey Clinic before Crosswalk
436,4582,0.0,0.25,2.1,time_period_03,-70.9478589999999,42.5374610000001,4582.0,Lahey Clinic before Crosswalk
436,4582,0.0,0.025,7.225,time_period_04,-70.9478589999999,42.5374610000001,4582.0,Lahey Clinic before Crosswalk
436,4582,0.0,0.05,12.95,time_period_05,-70.9478589999999,42.5374610000001,4582.0,Lahey Clinic before Crosswalk
436,4582,0.0,0.0666666666666667,4.8,time_period_06,-70.9478589999999,42.5374610000001,4582.0,Lahey Clinic before Crosswalk
436,4582,0.0125,0.1125,10.7125,time_period_10,-70.9478589999999,42.5374610000001,4582.0,Lahey Clinic before Crosswalk
436,7269,0.0,1.55,0.0,time_period_02,-70.9439819999999,42.541007,7269.0,Northshore Mall @ Entrance F
436,7269,0.3,5.5,8.0,time_period_03,-70.9439819999999,42.541007,7269.0,Northshore Mall @ Entrance F
436,7269,0.0,1.85,0.25,time_period_03,-70.9439819999999,42.541007,7269.0,Northshore Mall @ Entrance F
436,7269,0.4,3.825,3.8,time_period_04,-70.9439819999999,42.541007,7269.0,Northshore Mall @ Entrance F
436,7269,0.6,7.0,6.6,time_period_05,-70.9439819999999,42.541007,7269.0,Northshore Mall @ Entrance F
436,7269,0.4,2.3,2.9,time_period_06,-70.9439819999999,42.541007,7269.0,Northshore Mall @ Entrance F
436,7269,0.5375,5.7875,5.4875,time_period_10,-70.9439819999999,42.541007,7269.0,Northshore Mall @ Entrance F
436,4596,0.1,2.1,6.1,time_period_03,-70.9452019999999,42.5465600000001,4596.0,Opp 10 Sylvan St
436,4596,0.025,0.45,3.375,time_period_04,-70.9452019999999,42.5465600000001,4596.0,Opp 10 Sylvan St
436,4596,0.0,2.15,4.5,time_period_05,-70.9452019999999,42.5465600000001,4596.0,Opp 10 Sylvan St
436,4596,0.0,0.233333333333333,2.73333333333333,time_period_06,-70.9452019999999,42.5465600000001,4596.0,Opp 10 Sylvan St
436,4596,0.025,0.75,4.775,time_period_10,-70.9452019999999,42.5465600000001,4596.0,Opp 10 Sylvan St
436,4615,0.0,1.3,4.8,time_period_03,-70.942572,42.548524,4615.0,Commonwealth Ave @ Endicott St
436,4615,0.0,0.325,3.0,time_period_04,-70.942572,42.548524,4615.0,Commonwealth Ave @ Endicott St
436,4615,0.0,0.9,3.6,time_period_05,-70.942572,42.548524,4615.0,Commonwealth Ave @ Endicott St
436,4615,0.0,0.166666666666667,2.53333333333333,time_period_06,-70.942572,42.548524,4615.0,Commonwealth Ave @ Endicott St
436,4615,0.0125,0.1875,4.6,time_period_10,-70.942572,42.548524,4615.0,Commonwealth Ave @ Endicott St
436,7270,0.0,4.8,0.0,time_period_03,-70.940985,42.5501650000001,7270.0,Liberty Tree Mall @ Best Buy
436,7270,0.0,3.0,0.0,time_period_04,-70.940985,42.5501650000001,7270.0,Liberty Tree Mall @ Best Buy
436,7270,0.0,3.55,0.05,time_period_05,-70.940985,42.5501650000001,7270.0,Liberty Tree Mall @ Best Buy
436,7270,0.0,2.3,0.266666666666667,time_period_06,-70.940985,42.5501650000001,7270.0,Liberty Tree Mall @ Best Buy
436,7270,0.0,4.5375,0.0625,time_period_10,-70.940985,42.5501650000001,7270.0,Liberty Tree Mall @ Best Buy
