route_id,stop_id,average_ons,average_offs,average_load,time_period_id,X,Y,Stop_ID,Stop_Name
24,334,2.7,0.0,2.7,time_period_01,-71.0733149,42.2845163,334.0,Ashmont Busway
24,334,8.35,0.0,8.35,time_period_02,-71.0733149,42.2845163,334.0,Ashmont Busway
24,334,14.78,0.0,14.78,time_period_03,-71.0733149,42.2845163,334.0,Ashmont Busway
24,334,7.62857142857143,0.0571428571428571,7.62857142857143,time_period_04,-71.0733149,42.2845163,334.0,Ashmont Busway
24,334,12.08,0.0,12.08,time_period_05,-71.0733149,42.2845163,334.0,Ashmont Busway
24,334,17.0,0.02,17.0,time_period_06,-71.0733149,42.2845163,334.0,Ashmont Busway
24,334,11.4,0.025,11.4,time_period_07,-71.0733149,42.2845163,334.0,Ashmont Busway
24,334,8.15,0.0,8.15,time_period_08,-71.0733149,42.2845163,334.0,Ashmont Busway
24,334,4.4,0.0,4.4,time_period_09,-71.0733149,42.2845163,334.0,Ashmont Busway
24,334,5.7,0.0461538461538461,5.7,time_period_10,-71.0733149,42.2845163,334.0,Ashmont Busway
24,334,5.85833333333333,0.0,5.85833333333333,time_period_11,-71.0733149,42.2845163,334.0,Ashmont Busway
24,536,0.0,0.0,2.7,time_period_01,-71.065378,42.2820770000001,536.0,Dorchester Ave @ Hurlcroft Ave
24,536,0.05,0.0,8.35,time_period_02,-71.065378,42.2820770000001,536.0,Dorchester Ave @ Hurlcroft Ave
24,536,0.1,0.02,14.94,time_period_03,-71.065378,42.2820770000001,536.0,Dorchester Ave @ Hurlcroft Ave
24,536,0.0428571428571429,0.0,7.75714285714286,time_period_04,-71.065378,42.2820770000001,536.0,Dorchester Ave @ Hurlcroft Ave
24,536,0.02,0.0,12.2,time_period_05,-71.065378,42.2820770000001,536.0,Dorchester Ave @ Hurlcroft Ave
24,536,0.1,0.04,17.06,time_period_06,-71.065378,42.2820770000001,536.0,Dorchester Ave @ Hurlcroft Ave
24,536,0.0,0.0,11.6,time_period_07,-71.065378,42.2820770000001,536.0,Dorchester Ave @ Hurlcroft Ave
24,536,0.0,0.0,8.15,time_period_08,-71.065378,42.2820770000001,536.0,Dorchester Ave @ Hurlcroft Ave
24,536,0.0,0.0,4.4,time_period_09,-71.065378,42.2820770000001,536.0,Dorchester Ave @ Hurlcroft Ave
24,536,0.0461538461538461,0.0423076923076923,5.73846153846154,time_period_10,-71.065378,42.2820770000001,536.0,Dorchester Ave @ Hurlcroft Ave
24,536,0.0583333333333333,0.0083333333333333,5.90833333333333,time_period_11,-71.065378,42.2820770000001,536.0,Dorchester Ave @ Hurlcroft Ave
24,537,0.0,0.0,2.7,time_period_01,-71.065961,42.280016,537.0,Dorchester Ave @ Gallivan Blvd
24,537,0.4,0.05,8.75,time_period_02,-71.065961,42.280016,537.0,Dorchester Ave @ Gallivan Blvd
24,537,0.32,0.08,15.28,time_period_03,-71.065961,42.280016,537.0,Dorchester Ave @ Gallivan Blvd
24,537,0.157142857142857,0.0285714285714286,7.87142857142857,time_period_04,-71.065961,42.280016,537.0,Dorchester Ave @ Gallivan Blvd
24,537,0.28,0.08,12.34,time_period_05,-71.065961,42.280016,537.0,Dorchester Ave @ Gallivan Blvd
24,537,0.2,0.08,17.14,time_period_06,-71.065961,42.280016,537.0,Dorchester Ave @ Gallivan Blvd
24,537,0.125,0.075,11.575,time_period_07,-71.065961,42.280016,537.0,Dorchester Ave @ Gallivan Blvd
24,537,0.25,0.0,8.4,time_period_08,-71.065961,42.280016,537.0,Dorchester Ave @ Gallivan Blvd
24,537,0.05,0.0,4.4,time_period_09,-71.065961,42.280016,537.0,Dorchester Ave @ Gallivan Blvd
24,537,0.153846153846154,0.0076923076923076,5.92307692307692,time_period_10,-71.065961,42.280016,537.0,Dorchester Ave @ Gallivan Blvd
24,537,0.0166666666666667,0.025,5.9,time_period_11,-71.065961,42.280016,537.0,Dorchester Ave @ Gallivan Blvd
24,569,0.1,0.5,2.3,time_period_01,-71.0665069999999,42.2780910000001,569.0,Dorchester Ave @ Valley Rd
24,569,0.15,0.1,8.85,time_period_02,-71.0665069999999,42.2780910000001,569.0,Dorchester Ave @ Valley Rd
24,569,0.12,0.3,15.2,time_period_03,-71.0665069999999,42.2780910000001,569.0,Dorchester Ave @ Valley Rd
24,569,0.3,0.271428571428571,7.88571428571429,time_period_04,-71.0665069999999,42.2780910000001,569.0,Dorchester Ave @ Valley Rd
24,569,0.38,0.28,12.42,time_period_05,-71.0665069999999,42.2780910000001,569.0,Dorchester Ave @ Valley Rd
24,569,0.18,0.22,17.1,time_period_06,-71.0665069999999,42.2780910000001,569.0,Dorchester Ave @ Valley Rd
24,569,0.025,0.125,11.525,time_period_07,-71.0665069999999,42.2780910000001,569.0,Dorchester Ave @ Valley Rd
24,569,0.0,0.1,8.35,time_period_08,-71.0665069999999,42.2780910000001,569.0,Dorchester Ave @ Valley Rd
24,569,0.0,0.0,4.4,time_period_09,-71.0665069999999,42.2780910000001,569.0,Dorchester Ave @ Valley Rd
24,569,0.126923076923077,0.115384615384615,5.91153846153846,time_period_10,-71.0665069999999,42.2780910000001,569.0,Dorchester Ave @ Valley Rd
24,569,0.0833333333333333,0.0666666666666667,5.91666666666667,time_period_11,-71.0665069999999,42.2780910000001,569.0,Dorchester Ave @ Valley Rd
24,10569,0.0,0.0,2.3,time_period_01,-71.0670289999999,42.276285,10569.0,2165 Dorchester Ave
24,10569,0.0,0.0,8.85,time_period_02,-71.0670289999999,42.276285,10569.0,2165 Dorchester Ave
24,10569,0.0,0.02,15.08,time_period_03,-71.0670289999999,42.276285,10569.0,2165 Dorchester Ave
24,10569,0.0857142857142857,0.0285714285714286,7.95714285714286,time_period_04,-71.0670289999999,42.276285,10569.0,2165 Dorchester Ave
24,10569,0.12,0.18,12.38,time_period_05,-71.0670289999999,42.276285,10569.0,2165 Dorchester Ave
24,10569,0.06,0.1,17.04,time_period_06,-71.0670289999999,42.276285,10569.0,2165 Dorchester Ave
24,10569,0.0,0.025,11.525,time_period_07,-71.0670289999999,42.276285,10569.0,2165 Dorchester Ave
24,10569,0.05,0.0,8.35,time_period_08,-71.0670289999999,42.276285,10569.0,2165 Dorchester Ave
24,10569,0.0,0.0,4.4,time_period_09,-71.0670289999999,42.276285,10569.0,2165 Dorchester Ave
24,10569,0.0115384615384615,0.0115384615384615,5.91538461538462,time_period_10,-71.0670289999999,42.276285,10569.0,2165 Dorchester Ave
24,10569,0.0,0.05,5.86666666666667,time_period_11,-71.0670289999999,42.276285,10569.0,2165 Dorchester Ave
24,570,0.0,0.0,2.3,time_period_01,-71.0672289999999,42.2755940000001,570.0,Dorchester Ave @ St Gregory St
24,570,0.1,0.05,8.9,time_period_02,-71.0672289999999,42.2755940000001,570.0,Dorchester Ave @ St Gregory St
24,570,0.54,0.14,15.5,time_period_03,-71.0672289999999,42.2755940000001,570.0,Dorchester Ave @ St Gregory St
24,570,0.0,0.114285714285714,7.87142857142857,time_period_04,-71.0672289999999,42.2755940000001,570.0,Dorchester Ave @ St Gregory St
24,570,0.02,0.2,12.26,time_period_05,-71.0672289999999,42.2755940000001,570.0,Dorchester Ave @ St Gregory St
24,570,0.04,0.24,16.82,time_period_06,-71.0672289999999,42.2755940000001,570.0,Dorchester Ave @ St Gregory St
24,570,0.0,0.1,11.4,time_period_07,-71.0672289999999,42.2755940000001,570.0,Dorchester Ave @ St Gregory St
24,570,0.0,0.15,8.25,time_period_08,-71.0672289999999,42.2755940000001,570.0,Dorchester Ave @ St Gregory St
24,570,0.0,0.0,4.4,time_period_09,-71.0672289999999,42.2755940000001,570.0,Dorchester Ave @ St Gregory St
24,570,0.0307692307692308,0.0884615384615385,5.85769230769231,time_period_10,-71.0672289999999,42.2755940000001,570.0,Dorchester Ave @ St Gregory St
24,570,0.0833333333333333,0.116666666666667,5.83333333333333,time_period_11,-71.0672289999999,42.2755940000001,570.0,Dorchester Ave @ St Gregory St
24,883,0.0,0.0,2.3,time_period_01,-71.067662,42.273982,883.0,Dorchester Ave @ Richmond St
24,883,0.0,0.3,8.6,time_period_02,-71.067662,42.273982,883.0,Dorchester Ave @ Richmond St
24,883,0.34,0.24,15.6,time_period_03,-71.067662,42.273982,883.0,Dorchester Ave @ Richmond St
24,883,0.142857142857143,0.6,7.37142857142857,time_period_04,-71.067662,42.273982,883.0,Dorchester Ave @ Richmond St
24,883,0.34,0.92,11.78,time_period_05,-71.067662,42.273982,883.0,Dorchester Ave @ Richmond St
24,883,0.3,1.04,16.1,time_period_06,-71.067662,42.273982,883.0,Dorchester Ave @ Richmond St
24,883,0.225,0.35,11.25,time_period_07,-71.067662,42.273982,883.0,Dorchester Ave @ Richmond St
24,883,0.05,0.7,7.6,time_period_08,-71.067662,42.273982,883.0,Dorchester Ave @ Richmond St
24,883,0.0,0.0,4.4,time_period_09,-71.067662,42.273982,883.0,Dorchester Ave @ Richmond St
24,883,0.1,0.465384615384615,5.5,time_period_10,-71.067662,42.273982,883.0,Dorchester Ave @ Richmond St
24,883,0.0333333333333333,0.191666666666667,5.675,time_period_11,-71.067662,42.273982,883.0,Dorchester Ave @ Richmond St
24,571,0.1,0.1,2.3,time_period_01,-71.068076,42.272302,571.0,Dorchester Ave @ Washington St
24,571,0.05,0.3,8.35,time_period_02,-71.068076,42.272302,571.0,Dorchester Ave @ Washington St
24,571,0.14,0.22,15.54,time_period_03,-71.068076,42.272302,571.0,Dorchester Ave @ Washington St
24,571,0.328571428571429,0.3,7.4,time_period_04,-71.068076,42.272302,571.0,Dorchester Ave @ Washington St
24,571,0.54,0.38,11.94,time_period_05,-71.068076,42.272302,571.0,Dorchester Ave @ Washington St
24,571,0.22,0.22,16.14,time_period_06,-71.068076,42.272302,571.0,Dorchester Ave @ Washington St
24,571,0.125,0.3,11.1,time_period_07,-71.068076,42.272302,571.0,Dorchester Ave @ Washington St
24,571,0.1,0.15,7.6,time_period_08,-71.068076,42.272302,571.0,Dorchester Ave @ Washington St
24,571,0.0,0.0,4.4,time_period_09,-71.068076,42.272302,571.0,Dorchester Ave @ Washington St
24,571,0.261538461538462,0.180769230769231,5.58076923076923,time_period_10,-71.068076,42.272302,571.0,Dorchester Ave @ Washington St
24,571,0.15,0.175,5.65,time_period_11,-71.068076,42.272302,571.0,Dorchester Ave @ Washington St
24,572,0.6,0.0,2.9,time_period_01,-71.0695679999999,42.272455,572.0,River St @ Wichita Ter
24,572,0.0,0.05,8.3,time_period_02,-71.0695679999999,42.272455,572.0,River St @ Wichita Ter
24,572,0.2,0.14,15.6,time_period_03,-71.0695679999999,42.272455,572.0,River St @ Wichita Ter
24,572,0.3,0.371428571428571,7.32857142857143,time_period_04,-71.0695679999999,42.272455,572.0,River St @ Wichita Ter
24,572,0.26,0.32,11.84,time_period_05,-71.0695679999999,42.272455,572.0,River St @ Wichita Ter
24,572,0.44,0.38,16.16,time_period_06,-71.0695679999999,42.272455,572.0,River St @ Wichita Ter
24,572,0.175,0.375,10.9,time_period_07,-71.0695679999999,42.272455,572.0,River St @ Wichita Ter
24,572,0.6,0.1,8.1,time_period_08,-71.0695679999999,42.272455,572.0,River St @ Wichita Ter
24,572,0.0,0.05,4.35,time_period_09,-71.0695679999999,42.272455,572.0,River St @ Wichita Ter
24,572,0.269230769230769,0.207692307692308,5.63846153846154,time_period_10,-71.0695679999999,42.272455,572.0,River St @ Wichita Ter
24,572,0.283333333333333,0.325,5.60833333333333,time_period_11,-71.0695679999999,42.272455,572.0,River St @ Wichita Ter
24,574,0.1,0.0,3.0,time_period_01,-71.074869,42.271399,574.0,River St @ Cedar St
24,574,0.5,0.05,8.75,time_period_02,-71.074869,42.271399,574.0,River St @ Cedar St
24,574,1.0,0.24,16.38,time_period_03,-71.074869,42.271399,574.0,River St @ Cedar St
24,574,0.342857142857143,0.171428571428571,7.52857142857143,time_period_04,-71.074869,42.271399,574.0,River St @ Cedar St
24,574,0.26,0.42,11.72,time_period_05,-71.074869,42.271399,574.0,River St @ Cedar St
24,574,0.46,0.48,16.18,time_period_06,-71.074869,42.271399,574.0,River St @ Cedar St
24,574,0.25,0.35,10.8,time_period_07,-71.074869,42.271399,574.0,River St @ Cedar St
24,574,0.25,0.3,8.05,time_period_08,-71.074869,42.271399,574.0,River St @ Cedar St
24,574,0.0,0.05,4.3,time_period_09,-71.074869,42.271399,574.0,River St @ Cedar St
24,574,0.284615384615385,0.153846153846154,5.77307692307692,time_period_10,-71.074869,42.271399,574.0,River St @ Cedar St
24,574,0.291666666666667,0.116666666666667,5.78333333333333,time_period_11,-71.074869,42.271399,574.0,River St @ Cedar St
24,575,0.1,0.0,3.1,time_period_01,-71.078388,42.2717420000001,575.0,River St @ Standard St
24,575,0.3,0.8,8.25,time_period_02,-71.078388,42.2717420000001,575.0,River St @ Standard St
24,575,1.88,0.2,18.06,time_period_03,-71.078388,42.2717420000001,575.0,River St @ Standard St
24,575,1.44285714285714,0.442857142857143,8.54285714285714,time_period_04,-71.078388,42.2717420000001,575.0,River St @ Standard St
24,575,0.72,1.1,11.26,time_period_05,-71.078388,42.2717420000001,575.0,River St @ Standard St
24,575,0.62,1.04,15.76,time_period_06,-71.078388,42.2717420000001,575.0,River St @ Standard St
24,575,0.25,0.6,10.45,time_period_07,-71.078388,42.2717420000001,575.0,River St @ Standard St
24,575,0.05,0.85,7.3,time_period_08,-71.078388,42.2717420000001,575.0,River St @ Standard St
24,575,0.0,0.05,4.2,time_period_09,-71.078388,42.2717420000001,575.0,River St @ Standard St
24,575,0.626923076923077,0.3,6.09615384615385,time_period_10,-71.078388,42.2717420000001,575.0,River St @ Standard St
24,575,0.683333333333333,0.4,6.06666666666667,time_period_11,-71.078388,42.2717420000001,575.0,River St @ Standard St
24,576,0.0,0.0,3.1,time_period_01,-71.0807809999999,42.2714050000001,576.0,River St opp Duxbury Rd
24,576,0.5,0.1,8.6,time_period_02,-71.0807809999999,42.2714050000001,576.0,River St opp Duxbury Rd
24,576,0.62,0.1,18.54,time_period_03,-71.0807809999999,42.2714050000001,576.0,River St opp Duxbury Rd
24,576,0.342857142857143,0.171428571428571,8.74285714285714,time_period_04,-71.0807809999999,42.2714050000001,576.0,River St opp Duxbury Rd
24,576,0.16,0.16,11.38,time_period_05,-71.0807809999999,42.2714050000001,576.0,River St opp Duxbury Rd
24,576,0.24,0.42,15.58,time_period_06,-71.0807809999999,42.2714050000001,576.0,River St opp Duxbury Rd
24,576,0.075,0.675,9.875,time_period_07,-71.0807809999999,42.2714050000001,576.0,River St opp Duxbury Rd
24,576,0.0,0.15,7.2,time_period_08,-71.0807809999999,42.2714050000001,576.0,River St opp Duxbury Rd
24,576,0.0,0.05,4.15,time_period_09,-71.0807809999999,42.2714050000001,576.0,River St opp Duxbury Rd
24,576,0.123076923076923,0.192307692307692,6.02692307692308,time_period_10,-71.0807809999999,42.2714050000001,576.0,River St opp Duxbury Rd
24,576,0.225,0.166666666666667,6.125,time_period_11,-71.0807809999999,42.2714050000001,576.0,River St opp Duxbury Rd
24,577,0.0,0.0,3.1,time_period_01,-71.082411,42.27135,577.0,River St opp Leahaven Rd
24,577,0.05,0.0,8.65,time_period_02,-71.082411,42.27135,577.0,River St opp Leahaven Rd
24,577,0.24,0.08,18.68,time_period_03,-71.082411,42.27135,577.0,River St opp Leahaven Rd
24,577,0.0571428571428571,0.1,8.7,time_period_04,-71.082411,42.27135,577.0,River St opp Leahaven Rd
24,577,0.06,0.2,11.26,time_period_05,-71.082411,42.27135,577.0,River St opp Leahaven Rd
24,577,0.04,0.2,15.42,time_period_06,-71.082411,42.27135,577.0,River St opp Leahaven Rd
24,577,0.0,0.125,9.775,time_period_07,-71.082411,42.27135,577.0,River St opp Leahaven Rd
24,577,0.0,0.05,7.15,time_period_08,-71.082411,42.27135,577.0,River St opp Leahaven Rd
24,577,0.0,0.0,4.15,time_period_09,-71.082411,42.27135,577.0,River St opp Leahaven Rd
24,577,0.0269230769230769,0.0307692307692308,6.02307692307692,time_period_10,-71.082411,42.27135,577.0,River St opp Leahaven Rd
24,577,0.025,0.0916666666666667,6.05833333333333,time_period_11,-71.082411,42.27135,577.0,River St opp Leahaven Rd
24,578,0.7,0.0,3.8,time_period_01,-71.0844549999999,42.271152,578.0,River St @ Newcroft Circle
24,578,0.2,0.0,8.85,time_period_02,-71.0844549999999,42.271152,578.0,River St @ Newcroft Circle
24,578,0.92,0.1,19.48,time_period_03,-71.0844549999999,42.271152,578.0,River St @ Newcroft Circle
24,578,0.271428571428571,0.2,8.75714285714286,time_period_04,-71.0844549999999,42.271152,578.0,River St @ Newcroft Circle
24,578,0.24,0.28,11.2,time_period_05,-71.0844549999999,42.271152,578.0,River St @ Newcroft Circle
24,578,0.26,0.72,14.96,time_period_06,-71.0844549999999,42.271152,578.0,River St @ Newcroft Circle
24,578,0.0,0.375,9.425,time_period_07,-71.0844549999999,42.271152,578.0,River St @ Newcroft Circle
24,578,0.0,0.25,6.9,time_period_08,-71.0844549999999,42.271152,578.0,River St @ Newcroft Circle
24,578,0.15,0.25,4.0,time_period_09,-71.0844549999999,42.271152,578.0,River St @ Newcroft Circle
24,578,0.261538461538462,0.138461538461538,6.14615384615385,time_period_10,-71.0844549999999,42.271152,578.0,River St @ Newcroft Circle
24,578,0.0916666666666667,0.1,6.05,time_period_11,-71.0844549999999,42.271152,578.0,River St @ Newcroft Circle
24,579,0.0,0.0,3.8,time_period_01,-71.0878309999999,42.270226,579.0,River St @ Gladeside Ave
24,579,0.05,0.0,8.95,time_period_02,-71.0878309999999,42.270226,579.0,River St @ Gladeside Ave
24,579,0.5,0.0,19.96,time_period_03,-71.0878309999999,42.270226,579.0,River St @ Gladeside Ave
24,579,0.0142857142857143,0.128571428571429,8.64285714285714,time_period_04,-71.0878309999999,42.270226,579.0,River St @ Gladeside Ave
24,579,0.02,0.44,10.76,time_period_05,-71.0878309999999,42.270226,579.0,River St @ Gladeside Ave
24,579,0.0,0.18,14.78,time_period_06,-71.0878309999999,42.270226,579.0,River St @ Gladeside Ave
24,579,0.0,0.15,9.325,time_period_07,-71.0878309999999,42.270226,579.0,River St @ Gladeside Ave
24,579,0.0,0.25,6.7,time_period_08,-71.0878309999999,42.270226,579.0,River St @ Gladeside Ave
24,579,0.0,0.2,3.8,time_period_09,-71.0878309999999,42.270226,579.0,River St @ Gladeside Ave
24,579,0.0384615384615385,0.0730769230769231,6.11153846153846,time_period_10,-71.0878309999999,42.270226,579.0,River St @ Gladeside Ave
24,579,0.05,0.133333333333333,5.96666666666667,time_period_11,-71.0878309999999,42.270226,579.0,River St @ Gladeside Ave
24,580,0.7,0.3,4.2,time_period_01,-71.090009,42.270027,580.0,River St @ Fremont St
24,580,0.05,0.15,8.85,time_period_02,-71.090009,42.270027,580.0,River St @ Fremont St
24,580,0.66,0.14,20.5,time_period_03,-71.090009,42.270027,580.0,River St @ Fremont St
24,580,0.0285714285714286,0.171428571428571,8.5,time_period_04,-71.090009,42.270027,580.0,River St @ Fremont St
24,580,0.18,0.22,10.76,time_period_05,-71.090009,42.270027,580.0,River St @ Fremont St
24,580,0.06,0.34,14.48,time_period_06,-71.090009,42.270027,580.0,River St @ Fremont St
24,580,0.025,0.275,9.075,time_period_07,-71.090009,42.270027,580.0,River St @ Fremont St
24,580,0.0,0.15,6.55,time_period_08,-71.090009,42.270027,580.0,River St @ Fremont St
24,580,0.0,0.0,3.8,time_period_09,-71.090009,42.270027,580.0,River St @ Fremont St
24,580,0.0115384615384615,0.123076923076923,6.0,time_period_10,-71.090009,42.270027,580.0,River St @ Fremont St
24,580,0.0166666666666667,0.075,5.90833333333333,time_period_11,-71.090009,42.270027,580.0,River St @ Fremont St
24,185,1.4,2.6,1.4,time_period_01,,,,
24,185,1.7,1.45,1.7,time_period_02,,,,
24,185,6.96,2.04,6.96,time_period_03,,,,
24,185,3.37142857142857,2.55714285714286,3.37142857142857,time_period_04,,,,
24,185,4.96,2.22,4.96,time_period_05,,,,
24,185,5.04,2.08,5.04,time_period_06,,,,
24,185,3.1,0.95,3.1,time_period_07,,,,
24,185,1.95,0.8,5.25,time_period_08,,,,
24,185,0.7,0.3,1.7,time_period_09,,,,
24,185,0.1,0.4,0.1,time_period_10,,,,
24,185,2.15,1.39615384615385,6.75384615384615,time_period_10,,,,
24,185,2.21666666666667,1.19166666666667,6.93333333333333,time_period_11,,,,
24,6368,0.1,0.1,1.5,time_period_01,-71.094318,42.267439,6368.0,River St @ Cummings Hwy
24,6368,1.9,0.05,3.55,time_period_02,-71.094318,42.267439,6368.0,River St @ Cummings Hwy
24,6368,3.4,0.34,10.04,time_period_03,-71.094318,42.267439,6368.0,River St @ Cummings Hwy
24,6368,6.28571428571429,0.514285714285714,9.17142857142857,time_period_04,-71.094318,42.267439,6368.0,River St @ Cummings Hwy
24,6368,6.9,0.6,11.46,time_period_05,-71.094318,42.267439,6368.0,River St @ Cummings Hwy
24,6368,7.66,0.48,12.2,time_period_06,-71.094318,42.267439,6368.0,River St @ Cummings Hwy
24,6368,3.6,0.25,6.45,time_period_07,-71.094318,42.267439,6368.0,River St @ Cummings Hwy
24,6368,1.75,0.15,6.8,time_period_08,-71.094318,42.267439,6368.0,River St @ Cummings Hwy
24,6368,0.35,0.0,2.05,time_period_09,-71.094318,42.267439,6368.0,River St @ Cummings Hwy
24,6368,0.0,0.0,0.1,time_period_10,-71.094318,42.267439,6368.0,River St @ Cummings Hwy
24,6368,3.60769230769231,0.330769230769231,10.0307692307692,time_period_10,-71.094318,42.267439,6368.0,River St @ Cummings Hwy
24,6368,3.33333333333333,0.258333333333333,10.0083333333333,time_period_11,-71.094318,42.267439,6368.0,River St @ Cummings Hwy
24,16369,0.0,0.0,1.5,time_period_01,-71.097269,42.266533,16369.0,River St @ Violante St
24,16369,0.15,0.0,3.7,time_period_02,-71.097269,42.266533,16369.0,River St @ Violante St
24,16369,0.26,0.2,10.12,time_period_03,-71.097269,42.266533,16369.0,River St @ Violante St
24,16369,0.3,0.128571428571429,9.34285714285714,time_period_04,-71.097269,42.266533,16369.0,River St @ Violante St
24,16369,0.22,0.12,11.36,time_period_05,-71.097269,42.266533,16369.0,River St @ Violante St
24,16369,0.3,0.04,12.46,time_period_06,-71.097269,42.266533,16369.0,River St @ Violante St
24,16369,0.2,0.125,6.5,time_period_07,-71.097269,42.266533,16369.0,River St @ Violante St
24,16369,0.0,0.0,6.75,time_period_08,-71.097269,42.266533,16369.0,River St @ Violante St
24,16369,0.0,0.2,1.85,time_period_09,-71.097269,42.266533,16369.0,River St @ Violante St
24,16369,0.0,0.0,0.1,time_period_10,-71.097269,42.266533,16369.0,River St @ Violante St
24,16369,0.130769230769231,0.0538461538461538,10.1076923076923,time_period_10,-71.097269,42.266533,16369.0,River St @ Violante St
24,16369,0.183333333333333,0.0416666666666667,10.15,time_period_11,-71.097269,42.266533,16369.0,River St @ Violante St
24,6369,0.0,0.0,1.5,time_period_01,-71.099618,42.264916,6369.0,River St @ Caton St
24,6369,0.35,0.15,3.9,time_period_02,-71.099618,42.264916,6369.0,River St @ Caton St
24,6369,0.3,0.06,10.32,time_period_03,-71.099618,42.264916,6369.0,River St @ Caton St
24,6369,0.371428571428571,0.257142857142857,9.45714285714286,time_period_04,-71.099618,42.264916,6369.0,River St @ Caton St
24,6369,0.24,0.62,11.16,time_period_05,-71.099618,42.264916,6369.0,River St @ Caton St
24,6369,0.28,0.74,12.04,time_period_06,-71.099618,42.264916,6369.0,River St @ Caton St
24,6369,0.2,0.4,6.325,time_period_07,-71.099618,42.264916,6369.0,River St @ Caton St
24,6369,0.0,0.3,6.45,time_period_08,-71.099618,42.264916,6369.0,River St @ Caton St
24,6369,0.0,0.45,1.65,time_period_09,-71.099618,42.264916,6369.0,River St @ Caton St
24,6369,0.0,0.0,0.1,time_period_10,-71.099618,42.264916,6369.0,River St @ Caton St
24,6369,0.219230769230769,0.242307692307692,10.0807692307692,time_period_10,-71.099618,42.264916,6369.0,River St @ Caton St
24,6369,0.191666666666667,0.258333333333333,10.0833333333333,time_period_11,-71.099618,42.264916,6369.0,River St @ Caton St
24,6371,0.1,0.1,1.5,time_period_01,-71.102855,42.2636350000001,6371.0,River St opp Wachusett St
24,6371,0.45,0.75,3.6,time_period_02,-71.102855,42.2636350000001,6371.0,River St opp Wachusett St
24,6371,0.54,0.68,10.22,time_period_03,-71.102855,42.2636350000001,6371.0,River St opp Wachusett St
24,6371,0.557142857142857,1.28571428571429,8.75714285714286,time_period_04,-71.102855,42.2636350000001,6371.0,River St opp Wachusett St
24,6371,0.48,2.26,9.5,time_period_05,-71.102855,42.2636350000001,6371.0,River St opp Wachusett St
24,6371,0.46,3.02,9.54,time_period_06,-71.102855,42.2636350000001,6371.0,River St opp Wachusett St
24,6371,0.175,1.5,5.025,time_period_07,-71.102855,42.2636350000001,6371.0,River St opp Wachusett St
24,6371,0.05,0.95,5.6,time_period_08,-71.102855,42.2636350000001,6371.0,River St opp Wachusett St
24,6371,0.0,0.2,1.5,time_period_09,-71.102855,42.2636350000001,6371.0,River St opp Wachusett St
24,6371,0.3,0.0,0.4,time_period_10,-71.102855,42.2636350000001,6371.0,River St opp Wachusett St
24,6371,0.288461538461538,1.00769230769231,9.36153846153846,time_period_10,-71.102855,42.2636350000001,6371.0,River St opp Wachusett St
24,6371,0.316666666666667,1.0,9.4,time_period_11,-71.102855,42.2636350000001,6371.0,River St opp Wachusett St
24,6372,0.0,0.0,1.5,time_period_01,-71.105151,42.2635910000001,6372.0,River St @ Tileston St
24,6372,0.25,0.1,3.75,time_period_02,-71.105151,42.2635910000001,6372.0,River St @ Tileston St
24,6372,0.18,0.3,10.14,time_period_03,-71.105151,42.2635910000001,6372.0,River St @ Tileston St
24,6372,0.2,0.571428571428571,8.35714285714286,time_period_04,-71.105151,42.2635910000001,6372.0,River St @ Tileston St
24,6372,0.32,0.86,8.92,time_period_05,-71.105151,42.2635910000001,6372.0,River St @ Tileston St
24,6372,0.18,1.44,8.38,time_period_06,-71.105151,42.2635910000001,6372.0,River St @ Tileston St
24,6372,0.15,1.15,4.15,time_period_07,-71.105151,42.2635910000001,6372.0,River St @ Tileston St
24,6372,0.0,0.5,5.25,time_period_08,-71.105151,42.2635910000001,6372.0,River St @ Tileston St
24,6372,0.0,0.2,1.4,time_period_09,-71.105151,42.2635910000001,6372.0,River St @ Tileston St
24,6372,0.0,0.0,0.4,time_period_10,-71.105151,42.2635910000001,6372.0,River St @ Tileston St
24,6372,0.0769230769230769,0.469230769230769,8.97307692307692,time_period_10,-71.105151,42.2635910000001,6372.0,River St @ Tileston St
24,6372,0.133333333333333,0.683333333333333,8.85,time_period_11,-71.105151,42.2635910000001,6372.0,River St @ Tileston St
24,6373,0.1,0.0,1.6,time_period_01,-71.107674,42.263048,6373.0,River St @ George St
24,6373,0.25,0.5,3.5,time_period_02,-71.107674,42.263048,6373.0,River St @ George St
24,6373,0.4,1.32,9.3,time_period_03,-71.107674,42.263048,6373.0,River St @ George St
24,6373,1.17142857142857,2.08571428571429,7.51428571428571,time_period_04,-71.107674,42.263048,6373.0,River St @ George St
24,6373,0.96,2.32,7.64,time_period_05,-71.107674,42.263048,6373.0,River St @ George St
24,6373,0.5,2.22,6.8,time_period_06,-71.107674,42.263048,6373.0,River St @ George St
24,6373,0.2,1.35,3.175,time_period_07,-71.107674,42.263048,6373.0,River St @ George St
24,6373,0.15,1.6,3.95,time_period_08,-71.107674,42.263048,6373.0,River St @ George St
24,6373,0.0,0.05,1.35,time_period_09,-71.107674,42.263048,6373.0,River St @ George St
24,6373,0.0,0.0,0.4,time_period_10,-71.107674,42.263048,6373.0,River St @ George St
24,6373,0.526923076923077,1.17692307692308,8.31923076923077,time_period_10,-71.107674,42.263048,6373.0,River St @ George St
24,6373,0.708333333333333,0.816666666666667,8.74166666666667,time_period_11,-71.107674,42.263048,6373.0,River St @ George St
24,6374,0.0,0.8,0.9,time_period_01,-71.111146,42.2616570000001,6374.0,River St @ Reddy Ave
24,6374,0.15,1.7,2.25,time_period_02,-71.111146,42.2616570000001,6374.0,River St @ Reddy Ave
24,6374,1.02,7.68,4.24,time_period_03,-71.111146,42.2616570000001,6374.0,River St @ Reddy Ave
24,6374,0.985714285714286,0.828571428571429,7.68571428571429,time_period_04,-71.111146,42.2616570000001,6374.0,River St @ Reddy Ave
24,6374,3.42,0.8,10.24,time_period_05,-71.111146,42.2616570000001,6374.0,River St @ Reddy Ave
24,6374,1.4,1.12,7.2,time_period_06,-71.111146,42.2616570000001,6374.0,River St @ Reddy Ave
24,6374,0.475,0.7,3.05,time_period_07,-71.111146,42.2616570000001,6374.0,River St @ Reddy Ave
24,6374,0.2,0.4,3.75,time_period_08,-71.111146,42.2616570000001,6374.0,River St @ Reddy Ave
24,6374,0.1,0.05,1.45,time_period_09,-71.111146,42.2616570000001,6374.0,River St @ Reddy Ave
24,6374,0.0,0.0,0.4,time_period_10,-71.111146,42.2616570000001,6374.0,River St @ Reddy Ave
24,6374,0.323076923076923,0.511538461538461,8.13076923076923,time_period_10,-71.111146,42.2616570000001,6374.0,River St @ Reddy Ave
24,6374,0.191666666666667,0.45,8.48333333333333,time_period_11,-71.111146,42.2616570000001,6374.0,River St @ Reddy Ave
24,6375,0.0,0.0,0.9,time_period_01,-71.11341,42.261174,6375.0,River St @ Huntington Ave
24,6375,0.2,0.2,2.3,time_period_02,-71.11341,42.261174,6375.0,River St @ Huntington Ave
24,6375,0.1,0.16,4.16,time_period_03,-71.11341,42.261174,6375.0,River St @ Huntington Ave
24,6375,0.128571428571429,0.442857142857143,7.44285714285714,time_period_04,-71.11341,42.261174,6375.0,River St @ Huntington Ave
24,6375,0.26,0.68,9.84,time_period_05,-71.11341,42.261174,6375.0,River St @ Huntington Ave
24,6375,0.04,1.06,6.26,time_period_06,-71.11341,42.261174,6375.0,River St @ Huntington Ave
24,6375,0.1,0.8,2.5,time_period_07,-71.11341,42.261174,6375.0,River St @ Huntington Ave
24,6375,0.0,0.6,3.45,time_period_08,-71.11341,42.261174,6375.0,River St @ Huntington Ave
24,6375,0.0,0.2,1.35,time_period_09,-71.11341,42.261174,6375.0,River St @ Huntington Ave
24,6375,0.2,0.0,0.6,time_period_10,-71.11341,42.261174,6375.0,River St @ Huntington Ave
24,6375,0.0730769230769231,0.384615384615385,7.81923076923077,time_period_10,-71.11341,42.261174,6375.0,River St @ Huntington Ave
24,6375,0.075,0.25,8.30833333333333,time_period_11,-71.11341,42.261174,6375.0,River St @ Huntington Ave
24,6376,0.1,0.2,0.9,time_period_01,-71.115601,42.2604920000001,6376.0,River St @ Metropolitan Ave
24,6376,0.45,3.3,1.2,time_period_02,-71.115601,42.2604920000001,6376.0,River St @ Metropolitan Ave
24,6376,1.22,9.08,1.66,time_period_03,-71.115601,42.2604920000001,6376.0,River St @ Metropolitan Ave
24,6376,0.328571428571429,1.2,6.65714285714286,time_period_04,-71.115601,42.2604920000001,6376.0,River St @ Metropolitan Ave
24,6376,1.78,1.32,10.42,time_period_05,-71.115601,42.2604920000001,6376.0,River St @ Metropolitan Ave
24,6376,0.32,1.44,5.36,time_period_06,-71.115601,42.2604920000001,6376.0,River St @ Metropolitan Ave
24,6376,0.1,1.125,1.825,time_period_07,-71.115601,42.2604920000001,6376.0,River St @ Metropolitan Ave
24,6376,0.1,0.8,3.05,time_period_08,-71.115601,42.2604920000001,6376.0,River St @ Metropolitan Ave
24,6376,0.0,0.35,1.25,time_period_09,-71.115601,42.2604920000001,6376.0,River St @ Metropolitan Ave
24,6376,0.3,0.0,0.9,time_period_10,-71.115601,42.2604920000001,6376.0,River St @ Metropolitan Ave
24,6376,0.169230769230769,0.773076923076923,7.21538461538462,time_period_10,-71.115601,42.2604920000001,6376.0,River St @ Metropolitan Ave
24,6376,0.141666666666667,0.675,7.775,time_period_11,-71.115601,42.2604920000001,6376.0,River St @ Metropolitan Ave
24,6377,0.0,0.1,0.9,time_period_01,-71.117983,42.2588180000001,6377.0,River St @ West St
24,6377,0.05,0.05,1.15,time_period_02,-71.117983,42.2588180000001,6377.0,River St @ West St
24,6377,0.18,0.32,1.64,time_period_03,-71.117983,42.2588180000001,6377.0,River St @ West St
24,6377,0.114285714285714,0.728571428571429,6.1,time_period_04,-71.117983,42.2588180000001,6377.0,River St @ West St
24,6377,0.18,0.7,10.0,time_period_05,-71.117983,42.2588180000001,6377.0,River St @ West St
24,6377,0.08,1.32,4.38,time_period_06,-71.117983,42.2588180000001,6377.0,River St @ West St
24,6377,0.1,0.625,1.55,time_period_07,-71.117983,42.2588180000001,6377.0,River St @ West St
24,6377,0.15,0.5,2.85,time_period_08,-71.117983,42.2588180000001,6377.0,River St @ West St
24,6377,0.0,0.2,1.15,time_period_09,-71.117983,42.2588180000001,6377.0,River St @ West St
24,6377,0.0,0.0,0.9,time_period_10,-71.117983,42.2588180000001,6377.0,River St @ West St
24,6377,0.0961538461538462,0.534615384615385,6.77692307692308,time_period_10,-71.117983,42.2588180000001,6377.0,River St @ West St
24,6377,0.0833333333333333,0.841666666666667,7.01666666666667,time_period_11,-71.117983,42.2588180000001,6377.0,River St @ West St
24,76378,0.0,0.0,0.9,time_period_01,-71.1198199999999,42.257442,76378.0,River St @ Webster St
24,76378,0.0,0.15,1.1,time_period_02,-71.1198199999999,42.257442,76378.0,River St @ Webster St
24,76378,0.22,0.4,1.64,time_period_03,-71.1198199999999,42.257442,76378.0,River St @ Webster St
24,76378,0.0285714285714286,0.671428571428571,5.54285714285714,time_period_04,-71.1198199999999,42.257442,76378.0,River St @ Webster St
24,76378,0.1,1.14,9.04,time_period_05,-71.1198199999999,42.257442,76378.0,River St @ Webster St
24,76378,0.08,1.24,3.54,time_period_06,-71.1198199999999,42.257442,76378.0,River St @ Webster St
24,76378,0.05,0.55,1.275,time_period_07,-71.1198199999999,42.257442,76378.0,River St @ Webster St
24,76378,0.0,0.3,2.65,time_period_08,-71.1198199999999,42.257442,76378.0,River St @ Webster St
24,76378,0.0,0.05,1.15,time_period_09,-71.1198199999999,42.257442,76378.0,River St @ Webster St
24,76378,0.0,0.0,0.9,time_period_10,-71.1198199999999,42.257442,76378.0,River St @ Webster St
24,76378,0.0115384615384615,0.365384615384615,6.42307692307692,time_period_10,-71.1198199999999,42.257442,76378.0,River St @ Webster St
24,76378,0.025,0.291666666666667,6.75,time_period_11,-71.1198199999999,42.257442,76378.0,River St @ Webster St
24,6390,0.0,0.9,0.4,time_period_01,-71.1212169999999,42.2557350000001,6390.0,River St @ Fairmount Ave
24,6390,0.15,3.2,0.3,time_period_02,-71.1212169999999,42.2557350000001,6390.0,River St @ Fairmount Ave
24,6390,1.1,4.08,0.94,time_period_03,-71.1212169999999,42.2557350000001,6390.0,River St @ Fairmount Ave
24,6390,0.985714285714286,5.4,2.02857142857143,time_period_04,-71.1212169999999,42.2557350000001,6390.0,River St @ Fairmount Ave
24,6390,3.24,6.72,6.06,time_period_05,-71.1212169999999,42.2557350000001,6390.0,River St @ Fairmount Ave
24,6390,1.74,3.96,2.36,time_period_06,-71.1212169999999,42.2557350000001,6390.0,River St @ Fairmount Ave
24,6390,1.15,2.8,0.9,time_period_07,-71.1212169999999,42.2557350000001,6390.0,River St @ Fairmount Ave
24,6390,0.2,1.35,1.8,time_period_08,-71.1212169999999,42.2557350000001,6390.0,River St @ Fairmount Ave
24,6390,0.1,0.65,1.1,time_period_09,-71.1212169999999,42.2557350000001,6390.0,River St @ Fairmount Ave
24,6390,0.0,0.7,0.2,time_period_10,-71.1212169999999,42.2557350000001,6390.0,River St @ Fairmount Ave
24,6390,0.546153846153846,2.65384615384615,4.31538461538462,time_period_10,-71.1212169999999,42.2557350000001,6390.0,River St @ Fairmount Ave
24,6390,0.483333333333333,3.21666666666667,4.01666666666667,time_period_11,-71.1212169999999,42.2557350000001,6390.0,River St @ Fairmount Ave
24,16391,0.1,0.1,0.4,time_period_01,-71.119861,42.2542090000001,16391.0,Fairmount Ave opp Pierce St
24,16391,0.0,0.15,0.25,time_period_02,-71.119861,42.2542090000001,16391.0,Fairmount Ave opp Pierce St
24,16391,0.04,0.18,0.92,time_period_03,-71.119861,42.2542090000001,16391.0,Fairmount Ave opp Pierce St
24,16391,0.0857142857142857,0.428571428571429,1.78571428571429,time_period_04,-71.119861,42.2542090000001,16391.0,Fairmount Ave opp Pierce St
24,16391,0.2,0.58,5.8,time_period_05,-71.119861,42.2542090000001,16391.0,Fairmount Ave opp Pierce St
24,16391,0.18,0.54,2.24,time_period_06,-71.119861,42.2542090000001,16391.0,Fairmount Ave opp Pierce St
24,16391,0.15,0.2,0.95,time_period_07,-71.119861,42.2542090000001,16391.0,Fairmount Ave opp Pierce St
24,16391,0.0,0.1,1.8,time_period_08,-71.119861,42.2542090000001,16391.0,Fairmount Ave opp Pierce St
24,16391,0.05,0.05,1.15,time_period_09,-71.119861,42.2542090000001,16391.0,Fairmount Ave opp Pierce St
24,16391,0.0,0.2,0.0,time_period_10,-71.119861,42.2542090000001,16391.0,Fairmount Ave opp Pierce St
24,16391,0.0769230769230769,0.369230769230769,4.02692307692308,time_period_10,-71.119861,42.2542090000001,16391.0,Fairmount Ave opp Pierce St
24,16391,0.0416666666666667,0.333333333333333,3.725,time_period_11,-71.119861,42.2542090000001,16391.0,Fairmount Ave opp Pierce St
24,6392,0.0,1.1,0.1,time_period_01,-71.1179759999999,42.252485,6392.0,Beacon St @ Fairmount Ave
24,6392,0.2,0.15,0.35,time_period_02,-71.1179759999999,42.252485,6392.0,Beacon St @ Fairmount Ave
24,6392,0.36,0.3,1.16,time_period_03,-71.1179759999999,42.252485,6392.0,Beacon St @ Fairmount Ave
24,6392,0.157142857142857,0.8,1.44285714285714,time_period_04,-71.1179759999999,42.252485,6392.0,Beacon St @ Fairmount Ave
24,6392,0.38,1.66,4.86,time_period_05,-71.1179759999999,42.252485,6392.0,Beacon St @ Fairmount Ave
24,6392,0.38,1.08,1.96,time_period_06,-71.1179759999999,42.252485,6392.0,Beacon St @ Fairmount Ave
24,6392,0.3,0.8,0.875,time_period_07,-71.1179759999999,42.252485,6392.0,Beacon St @ Fairmount Ave
24,6392,0.0,0.4,1.55,time_period_08,-71.1179759999999,42.252485,6392.0,Beacon St @ Fairmount Ave
24,6392,0.0,0.15,1.1,time_period_09,-71.1179759999999,42.252485,6392.0,Beacon St @ Fairmount Ave
24,6392,0.0,0.0,0.0,time_period_10,-71.1179759999999,42.252485,6392.0,Beacon St @ Fairmount Ave
24,6392,0.223076923076923,0.534615384615385,3.71538461538462,time_period_10,-71.1179759999999,42.252485,6392.0,Beacon St @ Fairmount Ave
24,6392,0.108333333333333,0.516666666666667,3.31666666666667,time_period_11,-71.1179759999999,42.252485,6392.0,Beacon St @ Fairmount Ave
24,6393,0.0,0.0,0.1,time_period_01,-71.115552,42.2538650000001,6393.0,Beacon St @ Albion St
24,6393,0.0,0.05,0.35,time_period_02,-71.115552,42.2538650000001,6393.0,Beacon St @ Albion St
24,6393,0.04,0.16,1.16,time_period_03,-71.115552,42.2538650000001,6393.0,Beacon St @ Albion St
24,6393,0.0285714285714286,0.0857142857142857,1.47142857142857,time_period_04,-71.115552,42.2538650000001,6393.0,Beacon St @ Albion St
24,6393,0.06,0.1,4.88,time_period_05,-71.115552,42.2538650000001,6393.0,Beacon St @ Albion St
24,6393,0.02,0.24,1.84,time_period_06,-71.115552,42.2538650000001,6393.0,Beacon St @ Albion St
24,6393,0.025,0.1,0.825,time_period_07,-71.115552,42.2538650000001,6393.0,Beacon St @ Albion St
24,6393,0.0,0.05,1.45,time_period_08,-71.115552,42.2538650000001,6393.0,Beacon St @ Albion St
24,6393,0.0,0.0,1.1,time_period_09,-71.115552,42.2538650000001,6393.0,Beacon St @ Albion St
24,6393,0.0,0.0,0.0,time_period_10,-71.115552,42.2538650000001,6393.0,Beacon St @ Albion St
24,6393,0.0461538461538461,0.0692307692307692,3.69230769230769,time_period_10,-71.115552,42.2538650000001,6393.0,Beacon St @ Albion St
24,6393,0.025,0.025,3.31666666666667,time_period_11,-71.115552,42.2538650000001,6393.0,Beacon St @ Albion St
24,6394,0.0,0.0,0.1,time_period_01,-71.1124799999999,42.2556480000001,6394.0,Beacon St @ Metropolitan Ave
24,6394,0.05,0.0,0.4,time_period_02,-71.1124799999999,42.2556480000001,6394.0,Beacon St @ Metropolitan Ave
24,6394,0.1,0.24,1.14,time_period_03,-71.1124799999999,42.2556480000001,6394.0,Beacon St @ Metropolitan Ave
24,6394,0.0428571428571429,0.0428571428571429,1.47142857142857,time_period_04,-71.1124799999999,42.2556480000001,6394.0,Beacon St @ Metropolitan Ave
24,6394,0.06,0.34,4.7,time_period_05,-71.1124799999999,42.2556480000001,6394.0,Beacon St @ Metropolitan Ave
24,6394,0.0,0.16,1.76,time_period_06,-71.1124799999999,42.2556480000001,6394.0,Beacon St @ Metropolitan Ave
24,6394,0.075,0.075,0.875,time_period_07,-71.1124799999999,42.2556480000001,6394.0,Beacon St @ Metropolitan Ave
24,6394,0.05,0.0,1.55,time_period_08,-71.1124799999999,42.2556480000001,6394.0,Beacon St @ Metropolitan Ave
24,6394,0.0,0.0,1.1,time_period_09,-71.1124799999999,42.2556480000001,6394.0,Beacon St @ Metropolitan Ave
24,6394,0.0,0.0,0.0,time_period_10,-71.1124799999999,42.2556480000001,6394.0,Beacon St @ Metropolitan Ave
24,6394,0.0269230769230769,0.0846153846153846,3.63461538461538,time_period_10,-71.1124799999999,42.2556480000001,6394.0,Beacon St @ Metropolitan Ave
24,6394,0.05,0.1,3.26666666666667,time_period_11,-71.1124799999999,42.2556480000001,6394.0,Beacon St @ Metropolitan Ave
24,6396,0.9,0.8,0.2,time_period_01,-71.111082,42.2538900000001,6396.0,Metropolitan Ave @ Highland St
24,6396,0.05,0.1,0.4,time_period_02,-71.111082,42.2538900000001,6396.0,Metropolitan Ave @ Highland St
24,6396,0.04,0.04,1.18,time_period_03,-71.111082,42.2538900000001,6396.0,Metropolitan Ave @ Highland St
24,6396,0.0,0.0142857142857143,1.48571428571429,time_period_04,-71.111082,42.2538900000001,6396.0,Metropolitan Ave @ Highland St
24,6396,0.0,0.2,4.54,time_period_05,-71.111082,42.2538900000001,6396.0,Metropolitan Ave @ Highland St
24,6396,0.0,0.18,1.64,time_period_06,-71.111082,42.2538900000001,6396.0,Metropolitan Ave @ Highland St
24,6396,0.025,0.075,0.875,time_period_07,-71.111082,42.2538900000001,6396.0,Metropolitan Ave @ Highland St
24,6396,0.0,0.0,1.55,time_period_08,-71.111082,42.2538900000001,6396.0,Metropolitan Ave @ Highland St
24,6396,0.0,0.0,1.1,time_period_09,-71.111082,42.2538900000001,6396.0,Metropolitan Ave @ Highland St
24,6396,0.0,0.0,0.0,time_period_10,-71.111082,42.2538900000001,6396.0,Metropolitan Ave @ Highland St
24,6396,0.0038461538461538,0.0192307692307692,3.61923076923077,time_period_10,-71.111082,42.2538900000001,6396.0,Metropolitan Ave @ Highland St
24,6396,0.0083333333333333,0.0416666666666667,3.23333333333333,time_period_11,-71.111082,42.2538900000001,6396.0,Metropolitan Ave @ Highland St
24,6397,0.0,0.0,0.2,time_period_01,-71.109476,42.252143,6397.0,Summit St @ Metropolitan Ave
24,6397,0.1,0.3,0.3,time_period_02,-71.109476,42.252143,6397.0,Summit St @ Metropolitan Ave
24,6397,0.0,0.08,1.1,time_period_03,-71.109476,42.252143,6397.0,Summit St @ Metropolitan Ave
24,6397,0.0571428571428571,0.0428571428571429,1.5,time_period_04,-71.109476,42.252143,6397.0,Summit St @ Metropolitan Ave
24,6397,0.0,0.26,4.28,time_period_05,-71.109476,42.252143,6397.0,Summit St @ Metropolitan Ave
24,6397,0.0,0.12,1.52,time_period_06,-71.109476,42.252143,6397.0,Summit St @ Metropolitan Ave
24,6397,0.0,0.05,0.825,time_period_07,-71.109476,42.252143,6397.0,Summit St @ Metropolitan Ave
24,6397,0.0,0.0,1.55,time_period_08,-71.109476,42.252143,6397.0,Summit St @ Metropolitan Ave
24,6397,0.0,0.1,1.0,time_period_09,-71.109476,42.252143,6397.0,Summit St @ Metropolitan Ave
24,6397,0.2,0.0,0.2,time_period_10,-71.109476,42.252143,6397.0,Summit St @ Metropolitan Ave
24,6397,0.0153846153846154,0.0615384615384615,3.57307692307692,time_period_10,-71.109476,42.252143,6397.0,Summit St @ Metropolitan Ave
24,6397,0.0083333333333333,0.0666666666666667,3.175,time_period_11,-71.109476,42.252143,6397.0,Summit St @ Metropolitan Ave
24,6398,0.1,0.0,0.3,time_period_01,-71.1116509999999,42.250886,6398.0,Summit St @ Milton Ave
24,6398,0.25,0.0,0.55,time_period_02,-71.1116509999999,42.250886,6398.0,Summit St @ Milton Ave
24,6398,0.24,0.08,1.26,time_period_03,-71.1116509999999,42.250886,6398.0,Summit St @ Milton Ave
24,6398,0.357142857142857,0.257142857142857,1.6,time_period_04,-71.1116509999999,42.250886,6398.0,Summit St @ Milton Ave
24,6398,0.06,0.72,3.62,time_period_05,-71.1116509999999,42.250886,6398.0,Summit St @ Milton Ave
24,6398,0.04,0.78,0.78,time_period_06,-71.1116509999999,42.250886,6398.0,Summit St @ Milton Ave
24,6398,0.025,0.625,0.4,time_period_07,-71.1116509999999,42.250886,6398.0,Summit St @ Milton Ave
24,6398,0.0,0.05,1.5,time_period_08,-71.1116509999999,42.250886,6398.0,Summit St @ Milton Ave
24,6398,0.0,0.0,1.0,time_period_09,-71.1116509999999,42.250886,6398.0,Summit St @ Milton Ave
24,6398,0.0,0.0,0.2,time_period_10,-71.1116509999999,42.250886,6398.0,Summit St @ Milton Ave
24,6398,0.119230769230769,0.238461538461538,3.45384615384615,time_period_10,-71.1116509999999,42.250886,6398.0,Summit St @ Milton Ave
24,6398,0.0333333333333333,0.216666666666667,2.99166666666667,time_period_11,-71.1116509999999,42.250886,6398.0,Summit St @ Milton Ave
24,6399,0.0,0.0,0.3,time_period_01,-71.113466,42.2525680000001,6399.0,Milton Ave @ Highland St
24,6399,0.1,0.05,0.6,time_period_02,-71.113466,42.2525680000001,6399.0,Milton Ave @ Highland St
24,6399,0.0,0.0,1.26,time_period_03,-71.113466,42.2525680000001,6399.0,Milton Ave @ Highland St
24,6399,0.0,0.0,1.6,time_period_04,-71.113466,42.2525680000001,6399.0,Milton Ave @ Highland St
24,6399,0.02,0.04,3.6,time_period_05,-71.113466,42.2525680000001,6399.0,Milton Ave @ Highland St
24,6399,0.0,0.02,0.76,time_period_06,-71.113466,42.2525680000001,6399.0,Milton Ave @ Highland St
24,6399,0.0,0.025,0.375,time_period_07,-71.113466,42.2525680000001,6399.0,Milton Ave @ Highland St
24,6399,0.0,0.0,1.5,time_period_08,-71.113466,42.2525680000001,6399.0,Milton Ave @ Highland St
24,6399,0.0,0.0,1.0,time_period_09,-71.113466,42.2525680000001,6399.0,Milton Ave @ Highland St
24,6399,0.0,0.0,0.2,time_period_10,-71.113466,42.2525680000001,6399.0,Milton Ave @ Highland St
24,6399,0.0192307692307692,0.0230769230769231,3.45,time_period_10,-71.113466,42.2525680000001,6399.0,Milton Ave @ Highland St
24,6399,0.0083333333333333,0.0083333333333333,2.99166666666667,time_period_11,-71.113466,42.2525680000001,6399.0,Milton Ave @ Highland St
24,6400,0.0,0.0,0.3,time_period_01,-71.114406,42.252256,6400.0,Highland St @ Albion St
24,6400,0.0,0.0,0.6,time_period_02,-71.114406,42.252256,6400.0,Highland St @ Albion St
24,6400,0.0,0.02,1.24,time_period_03,-71.114406,42.252256,6400.0,Highland St @ Albion St
24,6400,0.0,0.0571428571428571,1.54285714285714,time_period_04,-71.114406,42.252256,6400.0,Highland St @ Albion St
24,6400,0.0,0.12,3.48,time_period_05,-71.114406,42.252256,6400.0,Highland St @ Albion St
24,6400,0.0,0.12,0.64,time_period_06,-71.114406,42.252256,6400.0,Highland St @ Albion St
24,6400,0.0,0.0,0.375,time_period_07,-71.114406,42.252256,6400.0,Highland St @ Albion St
24,6400,0.0,0.0,1.5,time_period_08,-71.114406,42.252256,6400.0,Highland St @ Albion St
24,6400,0.0,0.0,1.0,time_period_09,-71.114406,42.252256,6400.0,Highland St @ Albion St
24,6400,0.0,0.0,0.2,time_period_10,-71.114406,42.252256,6400.0,Highland St @ Albion St
24,6400,0.0192307692307692,0.0192307692307692,3.45,time_period_10,-71.114406,42.252256,6400.0,Highland St @ Albion St
24,6400,0.0,0.0,2.99166666666667,time_period_11,-71.114406,42.252256,6400.0,Highland St @ Albion St
24,64001,0.0,0.0,0.3,time_period_01,-71.115692,42.2515000000001,64001.0,Highland St @ Warren Ave
24,64001,0.1,0.0,0.7,time_period_02,-71.115692,42.2515000000001,64001.0,Highland St @ Warren Ave
24,64001,0.2,0.06,1.38,time_period_03,-71.115692,42.2515000000001,64001.0,Highland St @ Warren Ave
24,64001,0.0142857142857143,0.0428571428571429,1.51428571428571,time_period_04,-71.115692,42.2515000000001,64001.0,Highland St @ Warren Ave
24,64001,0.06,0.14,3.4,time_period_05,-71.115692,42.2515000000001,64001.0,Highland St @ Warren Ave
24,64001,0.0,0.08,0.56,time_period_06,-71.115692,42.2515000000001,64001.0,Highland St @ Warren Ave
24,64001,0.0,0.175,0.25,time_period_07,-71.115692,42.2515000000001,64001.0,Highland St @ Warren Ave
24,64001,0.0,0.1,1.4,time_period_08,-71.115692,42.2515000000001,64001.0,Highland St @ Warren Ave
24,64001,0.0,0.0,1.0,time_period_09,-71.115692,42.2515000000001,64001.0,Highland St @ Warren Ave
24,64001,0.0,0.0,0.2,time_period_10,-71.115692,42.2515000000001,64001.0,Highland St @ Warren Ave
24,64001,0.0076923076923076,0.0576923076923077,3.4,time_period_10,-71.115692,42.2515000000001,64001.0,Highland St @ Warren Ave
24,64001,0.05,0.0333333333333333,3.00833333333333,time_period_11,-71.115692,42.2515000000001,64001.0,Highland St @ Warren Ave
24,6401,0.1,0.0,0.4,time_period_01,-71.116815,42.2508750000001,6401.0,Highland St @ Fairmount Ave
24,6401,0.25,0.0,0.95,time_period_02,-71.116815,42.2508750000001,6401.0,Highland St @ Fairmount Ave
24,6401,0.08,0.0,1.46,time_period_03,-71.116815,42.2508750000001,6401.0,Highland St @ Fairmount Ave
24,6401,0.0142857142857143,0.0571428571428571,1.47142857142857,time_period_04,-71.116815,42.2508750000001,6401.0,Highland St @ Fairmount Ave
24,6401,0.04,0.36,3.08,time_period_05,-71.116815,42.2508750000001,6401.0,Highland St @ Fairmount Ave
24,6401,0.02,0.36,0.3,time_period_06,-71.116815,42.2508750000001,6401.0,Highland St @ Fairmount Ave
24,6401,0.025,0.05,0.225,time_period_07,-71.116815,42.2508750000001,6401.0,Highland St @ Fairmount Ave
24,6401,0.0,0.0,1.4,time_period_08,-71.116815,42.2508750000001,6401.0,Highland St @ Fairmount Ave
24,6401,0.0,0.0,1.0,time_period_09,-71.116815,42.2508750000001,6401.0,Highland St @ Fairmount Ave
24,6401,0.0,0.0,0.2,time_period_10,-71.116815,42.2508750000001,6401.0,Highland St @ Fairmount Ave
24,6401,0.0192307692307692,0.0461538461538461,3.37307692307692,time_period_10,-71.116815,42.2508750000001,6401.0,Highland St @ Fairmount Ave
24,6401,0.0,0.05,2.95833333333333,time_period_11,-71.116815,42.2508750000001,6401.0,Highland St @ Fairmount Ave
24,6402,0.3,0.0,0.7,time_period_01,-71.117192,42.2502180000001,6402.0,17 Pond St
24,6402,0.05,0.0,1.0,time_period_02,-71.117192,42.2502180000001,6402.0,17 Pond St
24,6402,0.0,0.0,1.46,time_period_03,-71.117192,42.2502180000001,6402.0,17 Pond St
24,6402,0.0142857142857143,0.0,1.48571428571429,time_period_04,-71.117192,42.2502180000001,6402.0,17 Pond St
24,6402,0.0,0.1,2.98,time_period_05,-71.117192,42.2502180000001,6402.0,17 Pond St
24,6402,0.0,0.16,0.24,time_period_06,-71.117192,42.2502180000001,6402.0,17 Pond St
24,6402,0.0,0.1,0.15,time_period_07,-71.117192,42.2502180000001,6402.0,17 Pond St
24,6402,0.0,0.0,1.4,time_period_08,-71.117192,42.2502180000001,6402.0,17 Pond St
24,6402,0.0,0.0,1.0,time_period_09,-71.117192,42.2502180000001,6402.0,17 Pond St
24,6402,0.0,0.0,0.2,time_period_10,-71.117192,42.2502180000001,6402.0,17 Pond St
24,6402,0.0076923076923076,0.0346153846153846,3.34615384615385,time_period_10,-71.117192,42.2502180000001,6402.0,17 Pond St
24,6402,0.0083333333333333,0.025,2.94166666666667,time_period_11,-71.117192,42.2502180000001,6402.0,17 Pond St
24,6403,0.5,0.0,1.2,time_period_01,-71.116594,42.2480830000001,6403.0,Williams St @ Summit St
24,6403,0.3,0.0,1.3,time_period_02,-71.116594,42.2480830000001,6403.0,Williams St @ Summit St
24,6403,0.46,0.06,1.86,time_period_03,-71.116594,42.2480830000001,6403.0,Williams St @ Summit St
24,6403,0.1,0.114285714285714,1.47142857142857,time_period_04,-71.116594,42.2480830000001,6403.0,Williams St @ Summit St
24,6403,0.14,0.42,2.74,time_period_05,-71.116594,42.2480830000001,6403.0,Williams St @ Summit St
24,6403,0.18,0.4,0.28,time_period_06,-71.116594,42.2480830000001,6403.0,Williams St @ Summit St
24,6403,0.0,0.15,0.075,time_period_07,-71.116594,42.2480830000001,6403.0,Williams St @ Summit St
24,6403,0.0,0.0,1.4,time_period_08,-71.116594,42.2480830000001,6403.0,Williams St @ Summit St
24,6403,0.0,0.0,1.0,time_period_09,-71.116594,42.2480830000001,6403.0,Williams St @ Summit St
24,6403,0.0,0.0,0.2,time_period_10,-71.116594,42.2480830000001,6403.0,Williams St @ Summit St
24,6403,0.107692307692308,0.0884615384615385,3.36538461538462,time_period_10,-71.116594,42.2480830000001,6403.0,Williams St @ Summit St
24,6403,0.1,0.075,2.96666666666667,time_period_11,-71.116594,42.2480830000001,6403.0,Williams St @ Summit St
24,16403,0.0,0.0,1.2,time_period_01,-71.117607,42.247466,16403.0,Summit St @ Neponset Ave
24,16403,0.4,0.35,1.35,time_period_02,-71.117607,42.247466,16403.0,Summit St @ Neponset Ave
24,16403,0.04,0.06,1.84,time_period_03,-71.117607,42.247466,16403.0,Summit St @ Neponset Ave
24,16403,0.0571428571428571,0.0142857142857143,1.51428571428571,time_period_04,-71.117607,42.247466,16403.0,Summit St @ Neponset Ave
24,16403,0.04,0.34,2.44,time_period_05,-71.117607,42.247466,16403.0,Summit St @ Neponset Ave
24,16403,0.02,0.2,0.24,time_period_06,-71.117607,42.247466,16403.0,Summit St @ Neponset Ave
24,16403,0.0,0.075,0.05,time_period_07,-71.117607,42.247466,16403.0,Summit St @ Neponset Ave
24,16403,0.0,0.05,1.35,time_period_08,-71.117607,42.247466,16403.0,Summit St @ Neponset Ave
24,16403,0.0,0.0,1.0,time_period_09,-71.117607,42.247466,16403.0,Summit St @ Neponset Ave
24,16403,0.0,0.0,0.2,time_period_10,-71.117607,42.247466,16403.0,Summit St @ Neponset Ave
24,16403,0.0692307692307692,0.0961538461538462,3.33846153846154,time_period_10,-71.117607,42.247466,16403.0,Summit St @ Neponset Ave
24,16403,0.0416666666666667,0.05,2.95833333333333,time_period_11,-71.117607,42.247466,16403.0,Summit St @ Neponset Ave
24,6405,0.0,0.0,1.2,time_period_01,-71.119131,42.2465690000001,6405.0,Washington St @ Dana Ave
24,6405,0.15,0.1,1.4,time_period_02,-71.119131,42.2465690000001,6405.0,Washington St @ Dana Ave
24,6405,0.16,0.14,1.86,time_period_03,-71.119131,42.2465690000001,6405.0,Washington St @ Dana Ave
24,6405,0.0571428571428571,0.1,1.47142857142857,time_period_04,-71.119131,42.2465690000001,6405.0,Washington St @ Dana Ave
24,6405,0.04,0.34,2.14,time_period_05,-71.119131,42.2465690000001,6405.0,Washington St @ Dana Ave
24,6405,0.04,0.26,0.16,time_period_06,-71.119131,42.2465690000001,6405.0,Washington St @ Dana Ave
24,6405,0.0,0.1,0.025,time_period_07,-71.119131,42.2465690000001,6405.0,Washington St @ Dana Ave
24,6405,0.0,0.1,1.25,time_period_08,-71.119131,42.2465690000001,6405.0,Washington St @ Dana Ave
24,6405,0.0,0.0,1.0,time_period_09,-71.119131,42.2465690000001,6405.0,Washington St @ Dana Ave
24,6405,0.0,0.0,0.2,time_period_10,-71.119131,42.2465690000001,6405.0,Washington St @ Dana Ave
24,6405,0.0423076923076923,0.0461538461538461,3.33461538461538,time_period_10,-71.119131,42.2465690000001,6405.0,Washington St @ Dana Ave
24,6405,0.075,0.0666666666666667,2.96666666666667,time_period_11,-71.119131,42.2465690000001,6405.0,Washington St @ Dana Ave
24,6406,1.1,0.0,2.3,time_period_01,-71.120291,42.2459060000001,6406.0,Washington St @ Garfield Ave
24,6406,1.05,0.0,2.45,time_period_02,-71.120291,42.2459060000001,6406.0,Washington St @ Garfield Ave
24,6406,1.28,0.1,3.04,time_period_03,-71.120291,42.2459060000001,6406.0,Washington St @ Garfield Ave
24,6406,0.614285714285714,0.557142857142857,1.52857142857143,time_period_04,-71.120291,42.2459060000001,6406.0,Washington St @ Garfield Ave
24,6406,0.44,1.38,1.2,time_period_05,-71.120291,42.2459060000001,6406.0,Washington St @ Garfield Ave
24,6406,0.16,1.3,0.0,time_period_06,-71.120291,42.2459060000001,6406.0,Washington St @ Garfield Ave
24,6406,0.15,1.1,0.0,time_period_07,-71.120291,42.2459060000001,6406.0,Washington St @ Garfield Ave
24,6406,0.05,0.55,0.8,time_period_08,-71.120291,42.2459060000001,6406.0,Washington St @ Garfield Ave
24,6406,0.0,0.05,1.0,time_period_09,-71.120291,42.2459060000001,6406.0,Washington St @ Garfield Ave
24,6406,0.3,0.0,0.5,time_period_10,-71.120291,42.2459060000001,6406.0,Washington St @ Garfield Ave
24,6406,0.353846153846154,0.480769230769231,3.20769230769231,time_period_10,-71.120291,42.2459060000001,6406.0,Washington St @ Garfield Ave
24,6406,0.341666666666667,0.425,2.88333333333333,time_period_11,-71.120291,42.2459060000001,6406.0,Washington St @ Garfield Ave
24,6407,0.8,0.0,3.1,time_period_01,-71.121132,42.2454260000001,6407.0,Washington St @ Chittick Rd
24,6407,0.1,0.05,2.5,time_period_02,-71.121132,42.2454260000001,6407.0,Washington St @ Chittick Rd
24,6407,0.08,0.0,3.12,time_period_03,-71.121132,42.2454260000001,6407.0,Washington St @ Chittick Rd
24,6407,0.0285714285714286,0.157142857142857,1.4,time_period_04,-71.121132,42.2454260000001,6407.0,Washington St @ Chittick Rd
24,6407,0.1,0.34,0.96,time_period_05,-71.121132,42.2454260000001,6407.0,Washington St @ Chittick Rd
24,6407,0.04,0.24,0.0,time_period_06,-71.121132,42.2454260000001,6407.0,Washington St @ Chittick Rd
24,6407,0.0,0.125,0.0,time_period_07,-71.121132,42.2454260000001,6407.0,Washington St @ Chittick Rd
24,6407,0.0,0.05,0.75,time_period_08,-71.121132,42.2454260000001,6407.0,Washington St @ Chittick Rd
24,6407,0.0,0.0,1.0,time_period_09,-71.121132,42.2454260000001,6407.0,Washington St @ Chittick Rd
24,6407,0.0,0.0,0.5,time_period_10,-71.121132,42.2454260000001,6407.0,Washington St @ Chittick Rd
24,6407,0.0269230769230769,0.0576923076923077,3.17692307692308,time_period_10,-71.121132,42.2454260000001,6407.0,Washington St @ Chittick Rd
24,6407,0.0416666666666667,0.125,2.8,time_period_11,-71.121132,42.2454260000001,6407.0,Washington St @ Chittick Rd
24,6408,0.2,0.0,3.3,time_period_01,-71.122396,42.244739,6408.0,Washington St @ Woodglen Rd
24,6408,1.05,0.05,3.5,time_period_02,-71.122396,42.244739,6408.0,Washington St @ Woodglen Rd
24,6408,1.02,0.1,4.04,time_period_03,-71.122396,42.244739,6408.0,Washington St @ Woodglen Rd
24,6408,0.5,0.728571428571429,1.17142857142857,time_period_04,-71.122396,42.244739,6408.0,Washington St @ Woodglen Rd
24,6408,0.36,1.18,0.54,time_period_05,-71.122396,42.244739,6408.0,Washington St @ Woodglen Rd
24,6408,0.22,1.48,0.0,time_period_06,-71.122396,42.244739,6408.0,Washington St @ Woodglen Rd
24,6408,0.125,0.675,0.0,time_period_07,-71.122396,42.244739,6408.0,Washington St @ Woodglen Rd
24,6408,0.0,0.75,0.35,time_period_08,-71.122396,42.244739,6408.0,Washington St @ Woodglen Rd
24,6408,0.0,0.05,1.0,time_period_09,-71.122396,42.244739,6408.0,Washington St @ Woodglen Rd
24,6408,0.0,0.0,0.5,time_period_10,-71.122396,42.244739,6408.0,Washington St @ Woodglen Rd
24,6408,0.319230769230769,0.465384615384615,3.03076923076923,time_period_10,-71.122396,42.244739,6408.0,Washington St @ Woodglen Rd
24,6408,0.225,0.433333333333333,2.59166666666667,time_period_11,-71.122396,42.244739,6408.0,Washington St @ Woodglen Rd
24,6409,0.0,0.0,3.3,time_period_01,-71.1236039999999,42.2440590000001,6409.0,Washington St @ Faraday St
24,6409,1.0,0.0,4.5,time_period_02,-71.1236039999999,42.2440590000001,6409.0,Washington St @ Faraday St
24,6409,0.08,0.2,3.92,time_period_03,-71.1236039999999,42.2440590000001,6409.0,Washington St @ Faraday St
24,6409,0.0428571428571429,0.214285714285714,1.01428571428571,time_period_04,-71.1236039999999,42.2440590000001,6409.0,Washington St @ Faraday St
24,6409,0.12,0.3,0.46,time_period_05,-71.1236039999999,42.2440590000001,6409.0,Washington St @ Faraday St
24,6409,0.0,0.3,0.0,time_period_06,-71.1236039999999,42.2440590000001,6409.0,Washington St @ Faraday St
24,6409,0.125,0.1,0.075,time_period_07,-71.1236039999999,42.2440590000001,6409.0,Washington St @ Faraday St
24,6409,0.1,0.05,0.4,time_period_08,-71.1236039999999,42.2440590000001,6409.0,Washington St @ Faraday St
24,6409,0.05,0.0,1.05,time_period_09,-71.1236039999999,42.2440590000001,6409.0,Washington St @ Faraday St
24,6409,0.0,0.0,0.5,time_period_10,-71.1236039999999,42.2440590000001,6409.0,Washington St @ Faraday St
24,6409,0.0076923076923076,0.0730769230769231,2.96538461538462,time_period_10,-71.1236039999999,42.2440590000001,6409.0,Washington St @ Faraday St
24,6409,0.0083333333333333,0.116666666666667,2.48333333333333,time_period_11,-71.1236039999999,42.2440590000001,6409.0,Washington St @ Faraday St
24,6410,0.3,0.1,3.5,time_period_01,-71.124308,42.2436690000001,6410.0,Washington St @ Needham Rd
24,6410,0.45,0.05,4.9,time_period_02,-71.124308,42.2436690000001,6410.0,Washington St @ Needham Rd
24,6410,0.16,2.6,1.48,time_period_03,-71.124308,42.2436690000001,6410.0,Washington St @ Needham Rd
24,6410,0.0571428571428571,0.171428571428571,0.971428571428571,time_period_04,-71.124308,42.2436690000001,6410.0,Washington St @ Needham Rd
24,6410,1.0,0.52,1.06,time_period_05,-71.124308,42.2436690000001,6410.0,Washington St @ Needham Rd
24,6410,0.08,0.34,0.0,time_period_06,-71.124308,42.2436690000001,6410.0,Washington St @ Needham Rd
24,6410,0.025,0.2,0.075,time_period_07,-71.124308,42.2436690000001,6410.0,Washington St @ Needham Rd
24,6410,0.0,0.2,0.25,time_period_08,-71.124308,42.2436690000001,6410.0,Washington St @ Needham Rd
24,6410,0.0,0.0,1.05,time_period_09,-71.124308,42.2436690000001,6410.0,Washington St @ Needham Rd
24,6410,0.0,0.0,0.5,time_period_10,-71.124308,42.2436690000001,6410.0,Washington St @ Needham Rd
24,6410,0.0538461538461538,0.0615384615384615,2.95769230769231,time_period_10,-71.124308,42.2436690000001,6410.0,Washington St @ Needham Rd
24,6410,0.0333333333333333,0.075,2.44166666666667,time_period_11,-71.124308,42.2436690000001,6410.0,Washington St @ Needham Rd
24,6411,0.0,0.4,3.1,time_period_01,-71.1261479999999,42.2428110000001,6411.0,Truman Hwy @ Wakefield Ave
24,6411,0.0,0.9,4.0,time_period_02,-71.1261479999999,42.2428110000001,6411.0,Truman Hwy @ Wakefield Ave
24,6411,0.0,1.38,0.4,time_period_03,-71.1261479999999,42.2428110000001,6411.0,Truman Hwy @ Wakefield Ave
24,6411,0.0,0.985714285714286,0.285714285714286,time_period_04,-71.1261479999999,42.2428110000001,6411.0,Truman Hwy @ Wakefield Ave
24,6411,0.0,1.8,0.56,time_period_05,-71.1261479999999,42.2428110000001,6411.0,Truman Hwy @ Wakefield Ave
24,6411,0.0,1.78,0.0,time_period_06,-71.1261479999999,42.2428110000001,6411.0,Truman Hwy @ Wakefield Ave
24,6411,0.0,1.1,0.0,time_period_07,-71.1261479999999,42.2428110000001,6411.0,Truman Hwy @ Wakefield Ave
24,6411,0.0,0.65,0.0,time_period_08,-71.1261479999999,42.2428110000001,6411.0,Truman Hwy @ Wakefield Ave
24,6411,0.0,1.4,0.0,time_period_09,-71.1261479999999,42.2428110000001,6411.0,Truman Hwy @ Wakefield Ave
24,6411,0.0,0.0,0.5,time_period_10,-71.1261479999999,42.2428110000001,6411.0,Truman Hwy @ Wakefield Ave
24,6411,0.0,0.876923076923077,2.08846153846154,time_period_10,-71.1261479999999,42.2428110000001,6411.0,Truman Hwy @ Wakefield Ave
24,6411,0.0,0.791666666666667,1.66666666666667,time_period_11,-71.1261479999999,42.2428110000001,6411.0,Truman Hwy @ Wakefield Ave
