route_id,stop_id,average_ons,average_offs,average_load,time_period_id,X,Y,Stop_ID,Stop_Name
83,1431,21.0,0.0,21.0,time_period_05,-71.1126649999999,42.373954,1431.0,Broadway @ Felton St
83,2310,0.4,0.25,21.2,time_period_05,-71.119941,42.3778050000001,2310.0,Massachusetts Ave opp Waterhouse St
83,2312,0.05,0.1,21.35,time_period_05,-71.119571,42.381631,2312.0,Massachusetts Ave @ Wendell St
83,2314,0.05,0.2,21.2,time_period_05,-71.1192629999999,42.384891,2314.0,Massachusetts Ave @ Exeter Park
83,23151,0.15,1.5,19.9,time_period_05,-71.119253,42.3880340000001,23151.0,Massachusetts Ave @ Porter Red Line Sta
83,1060,2.3,0.0,2.3,time_period_01,-71.1043109999999,42.3651140000001,1060.0,Magazine St @ Green St
83,1060,3.7,0.0,3.7,time_period_02,-71.1043109999999,42.3651140000001,1060.0,Magazine St @ Green St
83,1060,4.81666666666667,0.0,4.86666666666667,time_period_03,-71.1043109999999,42.3651140000001,1060.0,Magazine St @ Green St
83,1060,6.1,0.0,6.15555555555556,time_period_04,-71.1043109999999,42.3651140000001,1060.0,Magazine St @ Green St
83,1060,8.56,0.0,8.64,time_period_05,-71.1043109999999,42.3651140000001,1060.0,Magazine St @ Green St
83,1060,9.76666666666667,0.0,9.76666666666667,time_period_06,-71.1043109999999,42.3651140000001,1060.0,Magazine St @ Green St
83,1060,5.7,0.0,5.74285714285714,time_period_07,-71.1043109999999,42.3651140000001,1060.0,Magazine St @ Green St
83,1060,6.1,0.0,6.2,time_period_08,-71.1043109999999,42.3651140000001,1060.0,Magazine St @ Green St
83,1060,1.8,0.0,1.8,time_period_09,-71.1043109999999,42.3651140000001,1060.0,Magazine St @ Green St
83,1060,5.96060606060606,0.0,6.0030303030303,time_period_10,-71.1043109999999,42.3651140000001,1060.0,Magazine St @ Green St
83,1060,4.46190476190476,0.0,4.4952380952381,time_period_11,-71.1043109999999,42.3651140000001,1060.0,Magazine St @ Green St
83,2446,0.05,0.0,2.35,time_period_01,-71.103015,42.3663940000001,2446.0,Prospect St @ Bishop Allen Dr
83,2446,0.2,0.0,3.95,time_period_02,-71.103015,42.3663940000001,2446.0,Prospect St @ Bishop Allen Dr
83,2446,1.08333333333333,0.0166666666666667,5.91666666666667,time_period_03,-71.103015,42.3663940000001,2446.0,Prospect St @ Bishop Allen Dr
83,2446,0.988888888888889,0.0222222222222222,7.12222222222222,time_period_04,-71.103015,42.3663940000001,2446.0,Prospect St @ Bishop Allen Dr
83,2446,1.68,0.0,10.3,time_period_05,-71.103015,42.3663940000001,2446.0,Prospect St @ Bishop Allen Dr
83,2446,2.58333333333333,0.05,12.3,time_period_06,-71.103015,42.3663940000001,2446.0,Prospect St @ Bishop Allen Dr
83,2446,1.52857142857143,0.0142857142857143,7.27142857142857,time_period_07,-71.103015,42.3663940000001,2446.0,Prospect St @ Bishop Allen Dr
83,2446,0.6,0.0,6.8,time_period_08,-71.103015,42.3663940000001,2446.0,Prospect St @ Bishop Allen Dr
83,2446,0.15,0.0,1.95,time_period_09,-71.103015,42.3663940000001,2446.0,Prospect St @ Bishop Allen Dr
83,2446,1.23939393939394,0.009090909090909,7.22727272727273,time_period_10,-71.103015,42.3663940000001,2446.0,Prospect St @ Bishop Allen Dr
83,2446,1.00952380952381,0.0238095238095238,5.5047619047619,time_period_11,-71.103015,42.3663940000001,2446.0,Prospect St @ Bishop Allen Dr
83,2447,0.5,0.0,2.9,time_period_01,-71.101754,42.368187,2447.0,Prospect St @ Harvard St
83,2447,0.3,0.0,4.2,time_period_02,-71.101754,42.368187,2447.0,Prospect St @ Harvard St
83,2447,0.616666666666667,0.05,6.5,time_period_03,-71.101754,42.368187,2447.0,Prospect St @ Harvard St
83,2447,0.611111111111111,0.0555555555555556,7.7,time_period_04,-71.101754,42.368187,2447.0,Prospect St @ Harvard St
83,2447,1.1,0.1,11.32,time_period_05,-71.101754,42.368187,2447.0,Prospect St @ Harvard St
83,2447,0.733333333333333,0.15,12.9,time_period_06,-71.101754,42.368187,2447.0,Prospect St @ Harvard St
83,2447,0.4,0.0857142857142857,7.6,time_period_07,-71.101754,42.368187,2447.0,Prospect St @ Harvard St
83,2447,0.2,0.0,6.95,time_period_08,-71.101754,42.368187,2447.0,Prospect St @ Harvard St
83,2447,0.0,0.0,2.0,time_period_09,-71.101754,42.368187,2447.0,Prospect St @ Harvard St
83,2447,0.548484848484848,0.0727272727272727,7.71212121212121,time_period_10,-71.101754,42.368187,2447.0,Prospect St @ Harvard St
83,2447,0.542857142857143,0.080952380952381,5.98571428571429,time_period_11,-71.101754,42.368187,2447.0,Prospect St @ Harvard St
83,2448,0.05,0.0,2.95,time_period_01,-71.101015,42.369203,2448.0,Prospect St @ Broadway
83,2448,0.15,0.0,4.35,time_period_02,-71.101015,42.369203,2448.0,Prospect St @ Broadway
83,2448,0.483333333333333,0.15,6.83333333333333,time_period_03,-71.101015,42.369203,2448.0,Prospect St @ Broadway
83,2448,0.344444444444444,0.155555555555556,7.88888888888889,time_period_04,-71.101015,42.369203,2448.0,Prospect St @ Broadway
83,2448,0.78,0.22,11.86,time_period_05,-71.101015,42.369203,2448.0,Prospect St @ Broadway
83,2448,0.683333333333333,0.3,13.2833333333333,time_period_06,-71.101015,42.369203,2448.0,Prospect St @ Broadway
83,2448,0.385714285714286,0.114285714285714,7.87142857142857,time_period_07,-71.101015,42.369203,2448.0,Prospect St @ Broadway
83,2448,0.25,0.1,7.15,time_period_08,-71.101015,42.369203,2448.0,Prospect St @ Broadway
83,2448,0.0,0.05,1.95,time_period_09,-71.101015,42.369203,2448.0,Prospect St @ Broadway
83,2448,0.318181818181818,0.0757575757575758,7.95454545454545,time_period_10,-71.101015,42.369203,2448.0,Prospect St @ Broadway
83,2448,0.376190476190476,0.0857142857142857,6.2952380952381,time_period_11,-71.101015,42.369203,2448.0,Prospect St @ Broadway
83,2449,0.0,0.1,2.85,time_period_01,-71.099925,42.370757,2449.0,Prospect St @ Gardner Rd
83,2449,0.0,0.05,4.35,time_period_02,-71.099925,42.370757,2449.0,Prospect St @ Gardner Rd
83,2449,0.0666666666666667,0.133333333333333,6.73333333333333,time_period_03,-71.099925,42.370757,2449.0,Prospect St @ Gardner Rd
83,2449,0.144444444444444,0.2,7.84444444444444,time_period_04,-71.099925,42.370757,2449.0,Prospect St @ Gardner Rd
83,2449,0.3,0.18,11.96,time_period_05,-71.099925,42.370757,2449.0,Prospect St @ Gardner Rd
83,2449,0.216666666666667,0.25,13.3166666666667,time_period_06,-71.099925,42.370757,2449.0,Prospect St @ Gardner Rd
83,2449,0.2,0.157142857142857,7.9,time_period_07,-71.099925,42.370757,2449.0,Prospect St @ Gardner Rd
83,2449,0.05,0.1,7.1,time_period_08,-71.099925,42.370757,2449.0,Prospect St @ Gardner Rd
83,2449,0.0,0.05,1.9,time_period_09,-71.099925,42.370757,2449.0,Prospect St @ Gardner Rd
83,2449,0.266666666666667,0.151515151515152,8.10909090909091,time_period_10,-71.099925,42.370757,2449.0,Prospect St @ Gardner Rd
83,2449,0.180952380952381,0.1,6.36190476190476,time_period_11,-71.099925,42.370757,2449.0,Prospect St @ Gardner Rd
83,2451,1.05,0.4,3.55,time_period_01,-71.100422,42.3734370000001,2451.0,Hampshire St @ Cambridge St
83,2451,0.45,0.3,4.5,time_period_02,-71.100422,42.3734370000001,2451.0,Hampshire St @ Cambridge St
83,2451,0.7,0.733333333333333,6.7,time_period_03,-71.100422,42.3734370000001,2451.0,Hampshire St @ Cambridge St
83,2451,0.988888888888889,1.28888888888889,7.54444444444444,time_period_04,-71.100422,42.3734370000001,2451.0,Hampshire St @ Cambridge St
83,2451,1.7,1.8,11.88,time_period_05,-71.100422,42.3734370000001,2451.0,Hampshire St @ Cambridge St
83,2451,1.43333333333333,1.46666666666667,13.2333333333333,time_period_06,-71.100422,42.3734370000001,2451.0,Hampshire St @ Cambridge St
83,2451,0.714285714285714,0.714285714285714,7.94285714285714,time_period_07,-71.100422,42.3734370000001,2451.0,Hampshire St @ Cambridge St
83,2451,1.05,0.8,7.25,time_period_08,-71.100422,42.3734370000001,2451.0,Hampshire St @ Cambridge St
83,2451,0.15,0.15,1.95,time_period_09,-71.100422,42.3734370000001,2451.0,Hampshire St @ Cambridge St
83,2451,1.26363636363636,0.833333333333333,8.53939393939394,time_period_10,-71.100422,42.3734370000001,2451.0,Hampshire St @ Cambridge St
83,2451,0.666666666666667,0.561904761904762,6.46190476190476,time_period_11,-71.100422,42.3734370000001,2451.0,Hampshire St @ Cambridge St
83,2453,0.05,0.65,2.95,time_period_01,-71.1032949999999,42.375861,2453.0,45 Beacon St
83,2453,0.2,0.4,4.3,time_period_02,-71.1032949999999,42.375861,2453.0,45 Beacon St
83,2453,1.43333333333333,0.533333333333333,7.55,time_period_03,-71.1032949999999,42.375861,2453.0,45 Beacon St
83,2453,1.01111111111111,0.577777777777778,8.0,time_period_04,-71.1032949999999,42.375861,2453.0,45 Beacon St
83,2453,1.4,1.1,12.16,time_period_05,-71.1032949999999,42.375861,2453.0,45 Beacon St
83,2453,1.38333333333333,1.31666666666667,13.25,time_period_06,-71.1032949999999,42.375861,2453.0,45 Beacon St
83,2453,0.5,0.928571428571429,7.52857142857143,time_period_07,-71.1032949999999,42.375861,2453.0,45 Beacon St
83,2453,0.3,0.5,7.05,time_period_08,-71.1032949999999,42.375861,2453.0,45 Beacon St
83,2453,0.1,0.05,1.95,time_period_09,-71.1032949999999,42.375861,2453.0,45 Beacon St
83,2453,0.781818181818182,0.487878787878788,8.81818181818182,time_period_10,-71.1032949999999,42.375861,2453.0,45 Beacon St
83,2453,0.757142857142857,0.519047619047619,6.71428571428571,time_period_11,-71.1032949999999,42.375861,2453.0,45 Beacon St
83,2454,0.0,0.0,2.95,time_period_01,-71.1050759999999,42.3772650000001,2454.0,Beacon St @ Calvin St
83,2454,0.1,0.5,3.9,time_period_02,-71.1050759999999,42.3772650000001,2454.0,Beacon St @ Calvin St
83,2454,0.3,0.116666666666667,7.76666666666667,time_period_03,-71.1050759999999,42.3772650000001,2454.0,Beacon St @ Calvin St
83,2454,0.288888888888889,0.166666666666667,8.14444444444444,time_period_04,-71.1050759999999,42.3772650000001,2454.0,Beacon St @ Calvin St
83,2454,0.24,0.26,12.16,time_period_05,-71.1050759999999,42.3772650000001,2454.0,Beacon St @ Calvin St
83,2454,0.233333333333333,1.03333333333333,12.45,time_period_06,-71.1050759999999,42.3772650000001,2454.0,Beacon St @ Calvin St
83,2454,0.1,0.671428571428571,6.94285714285714,time_period_07,-71.1050759999999,42.3772650000001,2454.0,Beacon St @ Calvin St
83,2454,0.05,0.3,6.8,time_period_08,-71.1050759999999,42.3772650000001,2454.0,Beacon St @ Calvin St
83,2454,0.05,0.1,1.9,time_period_09,-71.1050759999999,42.3772650000001,2454.0,Beacon St @ Calvin St
83,2454,0.309090909090909,0.336363636363636,8.8,time_period_10,-71.1050759999999,42.3772650000001,2454.0,Beacon St @ Calvin St
83,2454,0.233333333333333,0.247619047619048,6.7,time_period_11,-71.1050759999999,42.3772650000001,2454.0,Beacon St @ Calvin St
83,2455,0.1,0.35,2.65,time_period_01,-71.106479,42.3784170000001,2455.0,Beacon St @ Washington St
83,2455,0.15,0.7,3.4,time_period_02,-71.106479,42.3784170000001,2455.0,Beacon St @ Washington St
83,2455,0.433333333333333,0.183333333333333,8.01666666666667,time_period_03,-71.106479,42.3784170000001,2455.0,Beacon St @ Washington St
83,2455,0.311111111111111,0.2,8.25555555555556,time_period_04,-71.106479,42.3784170000001,2455.0,Beacon St @ Washington St
83,2455,0.82,0.36,12.6,time_period_05,-71.106479,42.3784170000001,2455.0,Beacon St @ Washington St
83,2455,0.6,0.433333333333333,12.6333333333333,time_period_06,-71.106479,42.3784170000001,2455.0,Beacon St @ Washington St
83,2455,0.228571428571429,0.328571428571429,6.84285714285714,time_period_07,-71.106479,42.3784170000001,2455.0,Beacon St @ Washington St
83,2455,0.1,0.3,6.65,time_period_08,-71.106479,42.3784170000001,2455.0,Beacon St @ Washington St
83,2455,0.05,0.1,1.85,time_period_09,-71.106479,42.3784170000001,2455.0,Beacon St @ Washington St
83,2455,0.281818181818182,0.287878787878788,8.7969696969697,time_period_10,-71.106479,42.3784170000001,2455.0,Beacon St @ Washington St
83,2455,0.2,0.171428571428571,6.71904761904762,time_period_11,-71.106479,42.3784170000001,2455.0,Beacon St @ Washington St
83,2457,0.0,0.0,2.65,time_period_01,-71.108581,42.3801310000001,2457.0,Beacon St @ Park St
83,2457,0.05,0.35,3.05,time_period_02,-71.108581,42.3801310000001,2457.0,Beacon St @ Park St
83,2457,0.5,0.466666666666667,8.06666666666667,time_period_03,-71.108581,42.3801310000001,2457.0,Beacon St @ Park St
83,2457,0.155555555555556,0.333333333333333,8.06666666666667,time_period_04,-71.108581,42.3801310000001,2457.0,Beacon St @ Park St
83,2457,0.24,0.38,12.5,time_period_05,-71.108581,42.3801310000001,2457.0,Beacon St @ Park St
83,2457,0.266666666666667,0.75,12.1666666666667,time_period_06,-71.108581,42.3801310000001,2457.0,Beacon St @ Park St
83,2457,0.185714285714286,0.428571428571429,6.6,time_period_07,-71.108581,42.3801310000001,2457.0,Beacon St @ Park St
83,2457,0.0,0.1,6.55,time_period_08,-71.108581,42.3801310000001,2457.0,Beacon St @ Park St
83,2457,0.0,0.05,1.85,time_period_09,-71.108581,42.3801310000001,2457.0,Beacon St @ Park St
83,2457,0.139393939393939,0.251515151515152,8.68787878787879,time_period_10,-71.108581,42.3801310000001,2457.0,Beacon St @ Park St
83,2457,0.128571428571429,0.247619047619048,6.6,time_period_11,-71.108581,42.3801310000001,2457.0,Beacon St @ Park St
83,2618,1.45,0.35,3.7,time_period_01,-71.107062,42.383388,2618.0,Somerville Ave @ Central St
83,2618,1.1,0.3,3.85,time_period_02,-71.107062,42.383388,2618.0,Somerville Ave @ Central St
83,2618,1.88333333333333,1.11666666666667,8.83333333333333,time_period_03,-71.107062,42.383388,2618.0,Somerville Ave @ Central St
83,2618,0.922222222222222,1.51111111111111,7.46666666666667,time_period_04,-71.107062,42.383388,2618.0,Somerville Ave @ Central St
83,2618,1.0,2.36,11.16,time_period_05,-71.107062,42.383388,2618.0,Somerville Ave @ Central St
83,2618,1.43333333333333,3.08333333333333,10.4833333333333,time_period_06,-71.107062,42.383388,2618.0,Somerville Ave @ Central St
83,2618,0.557142857142857,1.37142857142857,5.78571428571429,time_period_07,-71.107062,42.383388,2618.0,Somerville Ave @ Central St
83,2618,0.25,1.6,5.3,time_period_08,-71.107062,42.383388,2618.0,Somerville Ave @ Central St
83,2618,0.25,0.2,1.9,time_period_09,-71.107062,42.383388,2618.0,Somerville Ave @ Central St
83,2618,0.845454545454545,1.66969696969697,7.85757575757576,time_period_10,-71.107062,42.383388,2618.0,Somerville Ave @ Central St
83,2618,0.852380952380952,1.36666666666667,6.09047619047619,time_period_11,-71.107062,42.383388,2618.0,Somerville Ave @ Central St
83,2620,0.0,0.0,3.75,time_period_01,-71.109672,42.3839760000001,2620.0,Somerville Ave @ Spring St
83,2620,0.0,0.0,3.85,time_period_02,-71.109672,42.3839760000001,2620.0,Somerville Ave @ Spring St
83,2620,0.0,0.0166666666666667,8.81666666666667,time_period_03,-71.109672,42.3839760000001,2620.0,Somerville Ave @ Spring St
83,2620,0.0,0.0222222222222222,7.44444444444444,time_period_04,-71.109672,42.3839760000001,2620.0,Somerville Ave @ Spring St
83,2620,0.0,0.02,11.1,time_period_05,-71.109672,42.3839760000001,2620.0,Somerville Ave @ Spring St
83,2620,0.0166666666666667,0.0166666666666667,10.5,time_period_06,-71.109672,42.3839760000001,2620.0,Somerville Ave @ Spring St
83,2620,0.0,0.0428571428571429,5.74285714285714,time_period_07,-71.109672,42.3839760000001,2620.0,Somerville Ave @ Spring St
83,2620,0.0,0.05,5.25,time_period_08,-71.109672,42.3839760000001,2620.0,Somerville Ave @ Spring St
83,2620,0.0,0.0,1.9,time_period_09,-71.109672,42.3839760000001,2620.0,Somerville Ave @ Spring St
83,2620,0.003030303030303,0.0363636363636364,7.81818181818182,time_period_10,-71.109672,42.3839760000001,2620.0,Somerville Ave @ Spring St
83,2620,0.0,0.0095238095238095,6.08571428571429,time_period_11,-71.109672,42.3839760000001,2620.0,Somerville Ave @ Spring St
83,2621,0.45,0.0,4.2,time_period_01,-71.1120129999999,42.3847200000001,2621.0,Somerville Ave @ Lowell St
83,2621,0.1,0.25,3.7,time_period_02,-71.1120129999999,42.3847200000001,2621.0,Somerville Ave @ Lowell St
83,2621,0.816666666666667,0.35,9.3,time_period_03,-71.1120129999999,42.3847200000001,2621.0,Somerville Ave @ Lowell St
83,2621,0.511111111111111,0.4,7.53333333333333,time_period_04,-71.1120129999999,42.3847200000001,2621.0,Somerville Ave @ Lowell St
83,2621,0.5,0.58,10.98,time_period_05,-71.1120129999999,42.3847200000001,2621.0,Somerville Ave @ Lowell St
83,2621,0.433333333333333,0.916666666666667,10.0166666666667,time_period_06,-71.1120129999999,42.3847200000001,2621.0,Somerville Ave @ Lowell St
83,2621,0.114285714285714,0.628571428571429,5.21428571428571,time_period_07,-71.1120129999999,42.3847200000001,2621.0,Somerville Ave @ Lowell St
83,2621,0.0,0.25,5.0,time_period_08,-71.1120129999999,42.3847200000001,2621.0,Somerville Ave @ Lowell St
83,2621,0.0,0.1,1.8,time_period_09,-71.1120129999999,42.3847200000001,2621.0,Somerville Ave @ Lowell St
83,2621,0.345454545454545,0.587878787878788,7.59393939393939,time_period_10,-71.1120129999999,42.3847200000001,2621.0,Somerville Ave @ Lowell St
83,2621,0.252380952380952,0.452380952380952,5.89047619047619,time_period_11,-71.1120129999999,42.3847200000001,2621.0,Somerville Ave @ Lowell St
83,24581,0.0,0.0,4.2,time_period_01,-71.114294,42.385969,24581.0,Somerville Ave @ Elm St
83,24581,0.05,0.0,3.75,time_period_02,-71.114294,42.385969,24581.0,Somerville Ave @ Elm St
83,24581,0.133333333333333,0.1,9.33333333333333,time_period_03,-71.114294,42.385969,24581.0,Somerville Ave @ Elm St
83,24581,0.0111111111111111,0.0777777777777778,7.48888888888889,time_period_04,-71.114294,42.385969,24581.0,Somerville Ave @ Elm St
83,24581,0.06,0.18,10.88,time_period_05,-71.114294,42.385969,24581.0,Somerville Ave @ Elm St
83,24581,0.05,0.166666666666667,9.9,time_period_06,-71.114294,42.385969,24581.0,Somerville Ave @ Elm St
83,24581,0.0,0.171428571428571,5.04285714285714,time_period_07,-71.114294,42.385969,24581.0,Somerville Ave @ Elm St
83,24581,0.05,0.0,5.05,time_period_08,-71.114294,42.385969,24581.0,Somerville Ave @ Elm St
83,24581,0.0,0.0,1.8,time_period_09,-71.114294,42.385969,24581.0,Somerville Ave @ Elm St
83,24581,0.0484848484848485,0.160606060606061,7.47878787878788,time_period_10,-71.114294,42.385969,24581.0,Somerville Ave @ Elm St
83,24581,0.0571428571428571,0.114285714285714,5.83809523809524,time_period_11,-71.114294,42.385969,24581.0,Somerville Ave @ Elm St
83,2459,0.0,0.0,4.2,time_period_01,-71.117312,42.387594,2459.0,Somerville Ave @ Mossland St
83,2459,0.0,0.0,3.75,time_period_02,-71.117312,42.387594,2459.0,Somerville Ave @ Mossland St
83,2459,0.0,0.2,9.13333333333333,time_period_03,-71.117312,42.387594,2459.0,Somerville Ave @ Mossland St
83,2459,0.0,0.0555555555555556,7.43333333333333,time_period_04,-71.117312,42.387594,2459.0,Somerville Ave @ Mossland St
83,2459,0.02,0.18,10.7,time_period_05,-71.117312,42.387594,2459.0,Somerville Ave @ Mossland St
83,2459,0.0166666666666667,0.233333333333333,9.68333333333333,time_period_06,-71.117312,42.387594,2459.0,Somerville Ave @ Mossland St
83,2459,0.0142857142857143,0.1,5.0,time_period_07,-71.117312,42.387594,2459.0,Somerville Ave @ Mossland St
83,2459,0.0,0.1,5.0,time_period_08,-71.117312,42.387594,2459.0,Somerville Ave @ Mossland St
83,2459,0.0,0.0,1.8,time_period_09,-71.117312,42.387594,2459.0,Somerville Ave @ Mossland St
83,2459,0.0515151515151515,0.281818181818182,7.23939393939394,time_period_10,-71.117312,42.387594,2459.0,Somerville Ave @ Mossland St
83,2459,0.0142857142857143,0.10952380952381,5.73809523809524,time_period_11,-71.117312,42.387594,2459.0,Somerville Ave @ Mossland St
83,2460,0.0,0.65,3.6,time_period_01,-71.118917,42.3885340000001,2460.0,Somerville Ave @ White St (Porter Sq)
83,2460,0.05,1.45,2.35,time_period_02,-71.118917,42.3885340000001,2460.0,Somerville Ave @ White St (Porter Sq)
83,2460,0.15,3.35,5.96666666666667,time_period_03,-71.118917,42.3885340000001,2460.0,Somerville Ave @ White St (Porter Sq)
83,2460,0.155555555555556,1.72222222222222,5.85555555555556,time_period_04,-71.118917,42.3885340000001,2460.0,Somerville Ave @ White St (Porter Sq)
83,2460,0.42,2.02,9.1,time_period_05,-71.118917,42.3885340000001,2460.0,Somerville Ave @ White St (Porter Sq)
83,2460,0.55,2.36666666666667,7.9,time_period_06,-71.118917,42.3885340000001,2460.0,Somerville Ave @ White St (Porter Sq)
83,2460,0.557142857142857,0.971428571428571,4.58571428571429,time_period_07,-71.118917,42.3885340000001,2460.0,Somerville Ave @ White St (Porter Sq)
83,2460,0.0,0.35,4.65,time_period_08,-71.118917,42.3885340000001,2460.0,Somerville Ave @ White St (Porter Sq)
83,2460,0.15,0.1,1.85,time_period_09,-71.118917,42.3885340000001,2460.0,Somerville Ave @ White St (Porter Sq)
83,2460,0.263636363636364,1.82121212121212,5.69090909090909,time_period_10,-71.118917,42.3885340000001,2460.0,Somerville Ave @ White St (Porter Sq)
83,2460,0.204761904761905,1.5047619047619,4.44285714285714,time_period_11,-71.118917,42.3885340000001,2460.0,Somerville Ave @ White St (Porter Sq)
83,2316,0.15,0.65,3.15,time_period_01,-71.119806,42.389308,2316.0,Massachusetts Ave @ Davenport St
83,2316,0.35,0.65,2.1,time_period_02,-71.119806,42.389308,2316.0,Massachusetts Ave @ Davenport St
83,2316,0.383333333333333,0.7,5.66666666666667,time_period_03,-71.119806,42.389308,2316.0,Massachusetts Ave @ Davenport St
83,2316,0.911111111111111,0.666666666666667,6.11111111111111,time_period_04,-71.119806,42.389308,2316.0,Massachusetts Ave @ Davenport St
83,2316,1.42,0.86,9.64,time_period_05,-71.119806,42.389308,2316.0,Massachusetts Ave @ Davenport St
83,2316,0.6,0.25,20.25,time_period_05,-71.119806,42.389308,2316.0,Massachusetts Ave @ Davenport St
83,2316,1.4,0.583333333333333,8.71666666666667,time_period_06,-71.119806,42.389308,2316.0,Massachusetts Ave @ Davenport St
83,2316,0.871428571428571,0.4,5.05714285714286,time_period_07,-71.119806,42.389308,2316.0,Massachusetts Ave @ Davenport St
83,2316,0.15,0.4,4.35,time_period_08,-71.119806,42.389308,2316.0,Massachusetts Ave @ Davenport St
83,2316,0.35,0.05,2.2,time_period_09,-71.119806,42.389308,2316.0,Massachusetts Ave @ Davenport St
83,2316,0.772727272727273,0.718181818181818,5.73636363636364,time_period_10,-71.119806,42.389308,2316.0,Massachusetts Ave @ Davenport St
83,2316,0.747619047619048,0.766666666666667,4.43333333333333,time_period_11,-71.119806,42.389308,2316.0,Massachusetts Ave @ Davenport St
83,2318,0.0,0.0,3.15,time_period_01,-71.123104,42.3914280000001,2318.0,Massachusetts Ave opp Walden St
83,2318,0.05,0.1,2.1,time_period_02,-71.123104,42.3914280000001,2318.0,Massachusetts Ave opp Walden St
83,2318,0.05,0.8,4.93333333333333,time_period_03,-71.123104,42.3914280000001,2318.0,Massachusetts Ave opp Walden St
83,2318,0.211111111111111,0.644444444444444,5.68888888888889,time_period_04,-71.123104,42.3914280000001,2318.0,Massachusetts Ave opp Walden St
83,2318,0.22,0.92,8.98,time_period_05,-71.123104,42.3914280000001,2318.0,Massachusetts Ave opp Walden St
83,2318,0.15,0.9,19.4,time_period_05,-71.123104,42.3914280000001,2318.0,Massachusetts Ave opp Walden St
83,2318,0.216666666666667,0.683333333333333,8.2,time_period_06,-71.123104,42.3914280000001,2318.0,Massachusetts Ave opp Walden St
83,2318,0.0142857142857143,0.371428571428571,4.7,time_period_07,-71.123104,42.3914280000001,2318.0,Massachusetts Ave opp Walden St
83,2318,0.0,0.15,4.2,time_period_08,-71.123104,42.3914280000001,2318.0,Massachusetts Ave opp Walden St
83,2318,0.0,0.1,2.05,time_period_09,-71.123104,42.3914280000001,2318.0,Massachusetts Ave opp Walden St
83,2318,0.0909090909090909,0.696969696969697,5.12424242424242,time_period_10,-71.123104,42.3914280000001,2318.0,Massachusetts Ave opp Walden St
83,2318,0.0571428571428571,0.457142857142857,4.04761904761905,time_period_11,-71.123104,42.3914280000001,2318.0,Massachusetts Ave opp Walden St
83,2461,0.05,0.1,3.2,time_period_01,-71.1254739999999,42.3926090000001,2461.0,Rindge Ave @ Massachusetts Ave
83,2461,0.0,0.2,1.9,time_period_02,-71.1254739999999,42.3926090000001,2461.0,Rindge Ave @ Massachusetts Ave
83,2461,0.0333333333333333,0.25,4.73333333333333,time_period_03,-71.1254739999999,42.3926090000001,2461.0,Rindge Ave @ Massachusetts Ave
83,2461,0.122222222222222,0.444444444444444,5.36666666666667,time_period_04,-71.1254739999999,42.3926090000001,2461.0,Rindge Ave @ Massachusetts Ave
83,2461,0.2,0.72,8.4,time_period_05,-71.1254739999999,42.3926090000001,2461.0,Rindge Ave @ Massachusetts Ave
83,2461,0.1,0.6,18.9,time_period_05,-71.1254739999999,42.3926090000001,2461.0,Rindge Ave @ Massachusetts Ave
83,2461,0.166666666666667,0.616666666666667,7.78333333333333,time_period_06,-71.1254739999999,42.3926090000001,2461.0,Rindge Ave @ Massachusetts Ave
83,2461,0.0285714285714286,0.371428571428571,4.37142857142857,time_period_07,-71.1254739999999,42.3926090000001,2461.0,Rindge Ave @ Massachusetts Ave
83,2461,0.0,0.15,4.05,time_period_08,-71.1254739999999,42.3926090000001,2461.0,Rindge Ave @ Massachusetts Ave
83,2461,0.05,0.05,2.0,time_period_09,-71.1254739999999,42.3926090000001,2461.0,Rindge Ave @ Massachusetts Ave
83,2461,0.136363636363636,0.442424242424242,4.8030303030303,time_period_10,-71.1254739999999,42.3926090000001,2461.0,Rindge Ave @ Massachusetts Ave
83,2461,0.0714285714285714,0.495238095238095,3.61904761904762,time_period_11,-71.1254739999999,42.3926090000001,2461.0,Rindge Ave @ Massachusetts Ave
83,24610,0.0,0.05,3.1,time_period_01,-71.128818,42.39295,24610.0,Rindge Ave @ Hollis St
83,24610,0.0,0.1,1.8,time_period_02,-71.128818,42.39295,24610.0,Rindge Ave @ Hollis St
83,24610,0.0333333333333333,1.4,3.36666666666667,time_period_03,-71.128818,42.39295,24610.0,Rindge Ave @ Hollis St
83,24610,0.0444444444444444,0.633333333333333,4.75555555555556,time_period_04,-71.128818,42.39295,24610.0,Rindge Ave @ Hollis St
83,24610,0.1,1.12,7.44,time_period_05,-71.128818,42.39295,24610.0,Rindge Ave @ Hollis St
83,24610,0.25,5.25,14.0,time_period_05,-71.128818,42.39295,24610.0,Rindge Ave @ Hollis St
83,24610,0.1,1.13333333333333,6.75,time_period_06,-71.128818,42.39295,24610.0,Rindge Ave @ Hollis St
83,24610,0.0142857142857143,0.571428571428571,3.81428571428571,time_period_07,-71.128818,42.39295,24610.0,Rindge Ave @ Hollis St
83,24610,0.05,0.6,3.45,time_period_08,-71.128818,42.39295,24610.0,Rindge Ave @ Hollis St
83,24610,0.05,0.2,1.95,time_period_09,-71.128818,42.39295,24610.0,Rindge Ave @ Hollis St
83,24610,0.0454545454545454,0.587878787878788,4.26060606060606,time_period_10,-71.128818,42.39295,24610.0,Rindge Ave @ Hollis St
83,24610,0.0428571428571429,0.476190476190476,3.17619047619048,time_period_11,-71.128818,42.39295,24610.0,Rindge Ave @ Hollis St
83,2462,0.0,0.0,3.1,time_period_01,-71.131424,42.393429,2462.0,Rindge Ave @ Reed St
83,2462,0.0,0.4,1.4,time_period_02,-71.131424,42.393429,2462.0,Rindge Ave @ Reed St
83,2462,0.0333333333333333,0.766666666666667,2.65,time_period_03,-71.131424,42.393429,2462.0,Rindge Ave @ Reed St
83,2462,0.0,0.355555555555556,4.42222222222222,time_period_04,-71.131424,42.393429,2462.0,Rindge Ave @ Reed St
83,2462,0.12,1.08,6.54,time_period_05,-71.131424,42.393429,2462.0,Rindge Ave @ Reed St
83,2462,0.05,1.8,12.25,time_period_05,-71.131424,42.393429,2462.0,Rindge Ave @ Reed St
83,2462,0.05,1.28333333333333,5.51666666666667,time_period_06,-71.131424,42.393429,2462.0,Rindge Ave @ Reed St
83,2462,0.0142857142857143,0.885714285714286,2.94285714285714,time_period_07,-71.131424,42.393429,2462.0,Rindge Ave @ Reed St
83,2462,0.0,0.15,3.3,time_period_08,-71.131424,42.393429,2462.0,Rindge Ave @ Reed St
83,2462,0.0,0.15,1.8,time_period_09,-71.131424,42.393429,2462.0,Rindge Ave @ Reed St
83,2462,0.0333333333333333,0.660606060606061,3.63939393939394,time_period_10,-71.131424,42.393429,2462.0,Rindge Ave @ Reed St
83,2462,0.0047619047619047,0.638095238095238,2.54761904761905,time_period_11,-71.131424,42.393429,2462.0,Rindge Ave @ Reed St
83,24621,0.0,0.05,3.1,time_period_01,-71.134038,42.393584,24621.0,Rindge Ave @ Clay St
83,24621,0.0,0.05,1.35,time_period_02,-71.134038,42.393584,24621.0,Rindge Ave @ Clay St
83,24621,0.0,0.0666666666666667,2.56666666666667,time_period_03,-71.134038,42.393584,24621.0,Rindge Ave @ Clay St
83,24621,0.0,0.266666666666667,4.11111111111111,time_period_04,-71.134038,42.393584,24621.0,Rindge Ave @ Clay St
83,24621,0.0,0.84,5.68,time_period_05,-71.134038,42.393584,24621.0,Rindge Ave @ Clay St
83,24621,0.05,0.6,11.7,time_period_05,-71.134038,42.393584,24621.0,Rindge Ave @ Clay St
83,24621,0.0,0.666666666666667,4.86666666666667,time_period_06,-71.134038,42.393584,24621.0,Rindge Ave @ Clay St
83,24621,0.0,0.3,2.64285714285714,time_period_07,-71.134038,42.393584,24621.0,Rindge Ave @ Clay St
83,24621,0.0,0.1,3.2,time_period_08,-71.134038,42.393584,24621.0,Rindge Ave @ Clay St
83,24621,0.0,0.05,1.75,time_period_09,-71.134038,42.393584,24621.0,Rindge Ave @ Clay St
83,24621,0.003030303030303,0.315151515151515,3.33333333333333,time_period_10,-71.134038,42.393584,24621.0,Rindge Ave @ Clay St
83,24621,0.0095238095238095,0.271428571428571,2.28571428571429,time_period_11,-71.134038,42.393584,24621.0,Rindge Ave @ Clay St
83,2463,0.0,0.0,3.1,time_period_01,-71.1363739999999,42.3937910000001,2463.0,Rindge Ave @ Clifton St
83,2463,0.0,0.05,1.35,time_period_02,-71.1363739999999,42.3937910000001,2463.0,Rindge Ave @ Clifton St
83,2463,0.0,0.25,2.33333333333333,time_period_03,-71.1363739999999,42.3937910000001,2463.0,Rindge Ave @ Clifton St
83,2463,0.0,0.966666666666667,3.17777777777778,time_period_04,-71.1363739999999,42.3937910000001,2463.0,Rindge Ave @ Clifton St
83,2463,0.0,1.78,3.88,time_period_05,-71.1363739999999,42.3937910000001,2463.0,Rindge Ave @ Clifton St
83,2463,0.0,2.75,8.95,time_period_05,-71.1363739999999,42.3937910000001,2463.0,Rindge Ave @ Clifton St
83,2463,0.0166666666666667,1.41666666666667,3.46666666666667,time_period_06,-71.1363739999999,42.3937910000001,2463.0,Rindge Ave @ Clifton St
83,2463,0.0142857142857143,0.728571428571429,1.95714285714286,time_period_07,-71.1363739999999,42.3937910000001,2463.0,Rindge Ave @ Clifton St
83,2463,0.0,0.4,2.8,time_period_08,-71.1363739999999,42.3937910000001,2463.0,Rindge Ave @ Clifton St
83,2463,0.0,0.7,1.05,time_period_09,-71.1363739999999,42.3937910000001,2463.0,Rindge Ave @ Clifton St
83,2463,0.0121212121212121,0.660606060606061,2.68181818181818,time_period_10,-71.1363739999999,42.3937910000001,2463.0,Rindge Ave @ Clifton St
83,2463,0.0095238095238095,0.580952380952381,1.71428571428571,time_period_11,-71.1363739999999,42.3937910000001,2463.0,Rindge Ave @ Clifton St
83,2425,0.0,3.0,0.05,time_period_01,-71.138336,42.39397,2425.0,Rindge Ave @ Russell Field
83,2425,0.0,1.3,0.0,time_period_02,-71.138336,42.39397,2425.0,Rindge Ave @ Russell Field
83,2425,0.0,2.23333333333333,0.0666666666666667,time_period_03,-71.138336,42.39397,2425.0,Rindge Ave @ Russell Field
83,2425,0.0,3.07777777777778,0.1,time_period_04,-71.138336,42.39397,2425.0,Rindge Ave @ Russell Field
83,2425,0.0,3.76,0.14,time_period_05,-71.138336,42.39397,2425.0,Rindge Ave @ Russell Field
83,2425,0.0,8.95,0.0,time_period_05,-71.138336,42.39397,2425.0,Rindge Ave @ Russell Field
83,2425,0.0,3.38333333333333,0.0666666666666667,time_period_06,-71.138336,42.39397,2425.0,Rindge Ave @ Russell Field
83,2425,0.0,1.87142857142857,0.0571428571428571,time_period_07,-71.138336,42.39397,2425.0,Rindge Ave @ Russell Field
83,2425,0.0,2.8,0.0,time_period_08,-71.138336,42.39397,2425.0,Rindge Ave @ Russell Field
83,2425,0.0,1.0,0.05,time_period_09,-71.138336,42.39397,2425.0,Rindge Ave @ Russell Field
83,2425,0.0,2.57878787878788,0.109090909090909,time_period_10,-71.138336,42.39397,2425.0,Rindge Ave @ Russell Field
83,2425,0.0,1.64285714285714,0.0904761904761905,time_period_11,-71.138336,42.39397,2425.0,Rindge Ave @ Russell Field
