route_id,stop_id,average_ons,average_offs,average_load,time_period_id,X,Y,Stop_ID,Stop_Name
109,29008,5.26666666666667,0.0,5.33333333333333,time_period_01,,,,
109,29008,11.6333333333333,0.0,11.6333333333333,time_period_02,,,,
109,29008,9.92857142857143,0.0,10.0571428571429,time_period_03,,,,
109,29008,9.84615384615385,0.0,9.87692307692308,time_period_04,,,,
109,29008,24.8375,0.0,24.8625,time_period_05,,,,
109,29008,28.77,0.0,28.8,time_period_06,,,,
109,29008,22.19,0.0,22.28,time_period_07,,,,
109,29008,27.85,0.0,27.85,time_period_08,,,,
109,29008,14.4333333333333,0.0,14.4333333333333,time_period_09,,,,
109,29008,16.9888888888889,0.0,17.0155555555556,time_period_10,,,,
109,29008,15.7675675675676,0.0,15.8972972972973,time_period_11,,,,
109,5504,0.0333333333333333,0.0,5.33333333333333,time_period_01,-71.072459,42.38602,5504.0,Alford St @ Main St
109,5504,0.0,0.0,11.6333333333333,time_period_02,-71.072459,42.38602,5504.0,Alford St @ Main St
109,5504,0.0714285714285714,0.0857142857142857,10.0857142857143,time_period_03,-71.072459,42.38602,5504.0,Alford St @ Main St
109,5504,0.107692307692308,0.0384615384615385,9.95384615384615,time_period_04,-71.072459,42.38602,5504.0,Alford St @ Main St
109,5504,0.275,0.05,25.25,time_period_05,-71.072459,42.38602,5504.0,Alford St @ Main St
109,5504,0.26,0.06,29.01,time_period_06,-71.072459,42.38602,5504.0,Alford St @ Main St
109,5504,0.12,0.02,22.36,time_period_07,-71.072459,42.38602,5504.0,Alford St @ Main St
109,5504,0.05,0.025,27.925,time_period_08,-71.072459,42.38602,5504.0,Alford St @ Main St
109,5504,0.0,0.0,14.4333333333333,time_period_09,-71.072459,42.38602,5504.0,Alford St @ Main St
109,5504,0.108888888888889,0.0622222222222222,17.1244444444444,time_period_10,-71.072459,42.38602,5504.0,Alford St @ Main St
109,5504,0.0783783783783784,0.0486486486486487,15.9378378378378,time_period_11,-71.072459,42.38602,5504.0,Alford St @ Main St
109,5505,0.0,0.0,5.36666666666667,time_period_01,-71.0687809999999,42.3923280000001,5505.0,173 Alford St
109,5505,0.0,0.0666666666666667,11.6,time_period_02,-71.0687809999999,42.3923280000001,5505.0,173 Alford St
109,5505,0.0,0.0142857142857143,10.4142857142857,time_period_03,-71.0687809999999,42.3923280000001,5505.0,173 Alford St
109,5505,0.0,0.0076923076923076,9.97692307692308,time_period_04,-71.0687809999999,42.3923280000001,5505.0,173 Alford St
109,5505,0.0,0.025,25.15,time_period_05,-71.0687809999999,42.3923280000001,5505.0,173 Alford St
109,5505,0.03,0.01,29.05,time_period_06,-71.0687809999999,42.3923280000001,5505.0,173 Alford St
109,5505,0.0,0.0,22.4,time_period_07,-71.0687809999999,42.3923280000001,5505.0,173 Alford St
109,5505,0.0,0.025,28.0,time_period_08,-71.0687809999999,42.3923280000001,5505.0,173 Alford St
109,5505,0.0,0.0,14.4333333333333,time_period_09,-71.0687809999999,42.3923280000001,5505.0,173 Alford St
109,5505,0.0088888888888888,0.0533333333333333,17.0844444444444,time_period_10,-71.0687809999999,42.3923280000001,5505.0,173 Alford St
109,5505,0.0054054054054054,0.0405405405405405,15.9513513513514,time_period_11,-71.0687809999999,42.3923280000001,5505.0,173 Alford St
109,5506,0.166666666666667,0.7,4.86666666666667,time_period_01,-71.0672049999999,42.3942930000001,5506.0,Broadway @ Dexter St
109,5506,0.566666666666667,1.16666666666667,10.9666666666667,time_period_02,-71.0672049999999,42.3942930000001,5506.0,Broadway @ Dexter St
109,5506,0.357142857142857,1.61428571428571,9.17142857142857,time_period_03,-71.0672049999999,42.3942930000001,5506.0,Broadway @ Dexter St
109,5506,0.215384615384615,1.03846153846154,9.15384615384615,time_period_04,-71.0672049999999,42.3942930000001,5506.0,Broadway @ Dexter St
109,5506,0.725,1.325,24.525,time_period_05,-71.0672049999999,42.3942930000001,5506.0,Broadway @ Dexter St
109,5506,0.73,0.72,29.07,time_period_06,-71.0672049999999,42.3942930000001,5506.0,Broadway @ Dexter St
109,5506,0.68,0.64,22.44,time_period_07,-71.0672049999999,42.3942930000001,5506.0,Broadway @ Dexter St
109,5506,1.325,0.35,28.95,time_period_08,-71.0672049999999,42.3942930000001,5506.0,Broadway @ Dexter St
109,5506,0.7,0.2,14.9,time_period_09,-71.0672049999999,42.3942930000001,5506.0,Broadway @ Dexter St
109,5506,0.608888888888889,1.00666666666667,16.6866666666667,time_period_10,-71.0672049999999,42.3942930000001,5506.0,Broadway @ Dexter St
109,5506,0.943243243243243,0.948648648648649,15.9702702702703,time_period_11,-71.0672049999999,42.3942930000001,5506.0,Broadway @ Dexter St
109,5507,0.0666666666666667,0.0333333333333333,4.86666666666667,time_period_01,-71.064982,42.3968170000001,5507.0,Broadway @ Thorndike St
109,5507,0.166666666666667,0.1,11.0333333333333,time_period_02,-71.064982,42.3968170000001,5507.0,Broadway @ Thorndike St
109,5507,0.742857142857143,0.2,9.72857142857143,time_period_03,-71.064982,42.3968170000001,5507.0,Broadway @ Thorndike St
109,5507,0.176923076923077,0.153846153846154,9.18461538461538,time_period_04,-71.064982,42.3968170000001,5507.0,Broadway @ Thorndike St
109,5507,0.5625,0.3125,24.775,time_period_05,-71.064982,42.3968170000001,5507.0,Broadway @ Thorndike St
109,5507,0.39,0.42,29.04,time_period_06,-71.064982,42.3968170000001,5507.0,Broadway @ Thorndike St
109,5507,0.19,0.42,22.19,time_period_07,-71.064982,42.3968170000001,5507.0,Broadway @ Thorndike St
109,5507,0.25,0.325,28.85,time_period_08,-71.064982,42.3968170000001,5507.0,Broadway @ Thorndike St
109,5507,0.133333333333333,0.2,14.8666666666667,time_period_09,-71.064982,42.3968170000001,5507.0,Broadway @ Thorndike St
109,5507,0.282222222222222,0.268888888888889,16.7088888888889,time_period_10,-71.064982,42.3968170000001,5507.0,Broadway @ Thorndike St
109,5507,0.372972972972973,0.535135135135135,15.7972972972973,time_period_11,-71.064982,42.3968170000001,5507.0,Broadway @ Thorndike St
109,5508,0.2,1.23333333333333,3.83333333333333,time_period_01,-71.06301,42.398888,5508.0,Broadway @ Langdon St
109,5508,0.433333333333333,0.8,10.6666666666667,time_period_02,-71.06301,42.398888,5508.0,Broadway @ Langdon St
109,5508,0.885714285714286,0.342857142857143,10.2428571428571,time_period_03,-71.06301,42.398888,5508.0,Broadway @ Langdon St
109,5508,0.253846153846154,0.307692307692308,9.1,time_period_04,-71.06301,42.398888,5508.0,Broadway @ Langdon St
109,5508,0.8,0.575,25.0,time_period_05,-71.06301,42.398888,5508.0,Broadway @ Langdon St
109,5508,0.59,0.49,29.12,time_period_06,-71.06301,42.398888,5508.0,Broadway @ Langdon St
109,5508,0.28,0.43,22.04,time_period_07,-71.06301,42.398888,5508.0,Broadway @ Langdon St
109,5508,0.275,0.6,28.525,time_period_08,-71.06301,42.398888,5508.0,Broadway @ Langdon St
109,5508,0.4,0.233333333333333,15.0333333333333,time_period_09,-71.06301,42.398888,5508.0,Broadway @ Langdon St
109,5508,0.477777777777778,0.364444444444444,16.8133333333333,time_period_10,-71.06301,42.398888,5508.0,Broadway @ Langdon St
109,5508,0.445945945945946,0.418918918918919,15.8324324324324,time_period_11,-71.06301,42.398888,5508.0,Broadway @ Langdon St
109,5509,0.0,0.0,3.83333333333333,time_period_01,-71.0615989999999,42.400396,5509.0,Broadway St @ Bartlett St
109,5509,0.2,0.266666666666667,10.6,time_period_02,-71.0615989999999,42.400396,5509.0,Broadway St @ Bartlett St
109,5509,0.771428571428571,0.1,10.8714285714286,time_period_03,-71.0615989999999,42.400396,5509.0,Broadway St @ Bartlett St
109,5509,0.1,0.0923076923076923,9.1,time_period_04,-71.0615989999999,42.400396,5509.0,Broadway St @ Bartlett St
109,5509,0.3375,0.15,25.2,time_period_05,-71.0615989999999,42.400396,5509.0,Broadway St @ Bartlett St
109,5509,0.21,0.39,28.98,time_period_06,-71.0615989999999,42.400396,5509.0,Broadway St @ Bartlett St
109,5509,0.1,0.32,21.85,time_period_07,-71.0615989999999,42.400396,5509.0,Broadway St @ Bartlett St
109,5509,0.0,0.225,28.35,time_period_08,-71.0615989999999,42.400396,5509.0,Broadway St @ Bartlett St
109,5509,0.0333333333333333,0.0666666666666667,14.9666666666667,time_period_09,-71.0615989999999,42.400396,5509.0,Broadway St @ Bartlett St
109,5509,0.128888888888889,0.16,16.7888888888889,time_period_10,-71.0615989999999,42.400396,5509.0,Broadway St @ Bartlett St
109,5509,0.1,0.143243243243243,15.7756756756757,time_period_11,-71.0615989999999,42.400396,5509.0,Broadway St @ Bartlett St
109,5565,0.0,0.1,3.73333333333333,time_period_01,-71.0583829999999,42.4038640000001,5565.0,Broadway @ Gladstone St
109,5565,0.466666666666667,0.466666666666667,10.7,time_period_02,-71.0583829999999,42.4038640000001,5565.0,Broadway @ Gladstone St
109,5565,1.38571428571429,1.68571428571429,10.6142857142857,time_period_03,-71.0583829999999,42.4038640000001,5565.0,Broadway @ Gladstone St
109,5565,0.307692307692308,0.592307692307692,8.83076923076923,time_period_04,-71.0583829999999,42.4038640000001,5565.0,Broadway @ Gladstone St
109,5565,0.7875,1.4375,24.5375,time_period_05,-71.0583829999999,42.4038640000001,5565.0,Broadway @ Gladstone St
109,5565,0.5,1.35,28.16,time_period_06,-71.0583829999999,42.4038640000001,5565.0,Broadway @ Gladstone St
109,5565,0.31,1.15,21.03,time_period_07,-71.0583829999999,42.4038640000001,5565.0,Broadway @ Gladstone St
109,5565,0.15,1.275,27.2,time_period_08,-71.0583829999999,42.4038640000001,5565.0,Broadway @ Gladstone St
109,5565,0.0666666666666667,0.9,14.1333333333333,time_period_09,-71.0583829999999,42.4038640000001,5565.0,Broadway @ Gladstone St
109,5565,0.302222222222222,0.931111111111111,16.1666666666667,time_period_10,-71.0583829999999,42.4038640000001,5565.0,Broadway @ Gladstone St
109,5565,0.3,0.897297297297297,15.1810810810811,time_period_11,-71.0583829999999,42.4038640000001,5565.0,Broadway @ Gladstone St
109,5695,0.233333333333333,0.333333333333333,3.66666666666667,time_period_01,-71.0557009999999,42.406792,5695.0,Broadway @ Everett Sq
109,5695,1.4,0.7,11.3333333333333,time_period_02,-71.0557009999999,42.406792,5695.0,Broadway @ Everett Sq
109,5695,1.82857142857143,1.12857142857143,11.3142857142857,time_period_03,-71.0557009999999,42.406792,5695.0,Broadway @ Everett Sq
109,5695,1.46153846153846,1.49230769230769,8.78461538461539,time_period_04,-71.0557009999999,42.406792,5695.0,Broadway @ Everett Sq
109,5695,2.3875,3.55,23.4,time_period_05,-71.0557009999999,42.406792,5695.0,Broadway @ Everett Sq
109,5695,1.79,3.56,26.35,time_period_06,-71.0557009999999,42.406792,5695.0,Broadway @ Everett Sq
109,5695,0.85,2.7,19.12,time_period_07,-71.0557009999999,42.406792,5695.0,Broadway @ Everett Sq
109,5695,0.725,3.375,24.55,time_period_08,-71.0557009999999,42.406792,5695.0,Broadway @ Everett Sq
109,5695,0.4,2.2,12.3333333333333,time_period_09,-71.0557009999999,42.406792,5695.0,Broadway @ Everett Sq
109,5695,1.04444444444444,2.34,14.8755555555556,time_period_10,-71.0557009999999,42.406792,5695.0,Broadway @ Everett Sq
109,5695,0.945945945945946,2.27837837837838,13.8567567567568,time_period_11,-71.0557009999999,42.406792,5695.0,Broadway @ Everett Sq
109,5510,0.266666666666667,0.1,3.83333333333333,time_period_01,-71.0547569999999,42.407768,5510.0,Broadway @ Mansfield St
109,5510,0.3,0.633333333333333,11.0,time_period_02,-71.0547569999999,42.407768,5510.0,Broadway @ Mansfield St
109,5510,0.942857142857143,0.485714285714286,11.8,time_period_03,-71.0547569999999,42.407768,5510.0,Broadway @ Mansfield St
109,5510,1.13846153846154,0.630769230769231,9.28461538461538,time_period_04,-71.0547569999999,42.407768,5510.0,Broadway @ Mansfield St
109,5510,1.8125,1.85,23.35,time_period_05,-71.0547569999999,42.407768,5510.0,Broadway @ Mansfield St
109,5510,1.12,1.76,25.71,time_period_06,-71.0547569999999,42.407768,5510.0,Broadway @ Mansfield St
109,5510,0.57,1.64,18.05,time_period_07,-71.0547569999999,42.407768,5510.0,Broadway @ Mansfield St
109,5510,0.225,1.975,22.8,time_period_08,-71.0547569999999,42.407768,5510.0,Broadway @ Mansfield St
109,5510,0.166666666666667,0.733333333333333,11.7666666666667,time_period_09,-71.0547569999999,42.407768,5510.0,Broadway @ Mansfield St
109,5510,0.924444444444444,1.12222222222222,14.6755555555556,time_period_10,-71.0547569999999,42.407768,5510.0,Broadway @ Mansfield St
109,5510,0.762162162162162,1.28108108108108,13.3054054054054,time_period_11,-71.0547569999999,42.407768,5510.0,Broadway @ Mansfield St
109,5513,0.0666666666666667,0.166666666666667,3.7,time_period_01,-71.052194,42.4105330000001,5513.0,Broadway @ High St
109,5513,0.4,0.733333333333333,10.6666666666667,time_period_02,-71.052194,42.4105330000001,5513.0,Broadway @ High St
109,5513,0.642857142857143,0.885714285714286,11.5428571428571,time_period_03,-71.052194,42.4105330000001,5513.0,Broadway @ High St
109,5513,0.484615384615385,0.923076923076923,8.86923076923077,time_period_04,-71.052194,42.4105330000001,5513.0,Broadway @ High St
109,5513,0.95,2.6875,21.6375,time_period_05,-71.052194,42.4105330000001,5513.0,Broadway @ High St
109,5513,0.57,2.57,23.69,time_period_06,-71.052194,42.4105330000001,5513.0,Broadway @ High St
109,5513,0.28,2.28,16.04,time_period_07,-71.052194,42.4105330000001,5513.0,Broadway @ High St
109,5513,0.1,3.1,19.8,time_period_08,-71.052194,42.4105330000001,5513.0,Broadway @ High St
109,5513,0.0333333333333333,2.0,9.8,time_period_09,-71.052194,42.4105330000001,5513.0,Broadway @ High St
109,5513,0.351111111111111,1.83555555555556,13.2044444444444,time_period_10,-71.052194,42.4105330000001,5513.0,Broadway @ High St
109,5513,0.383783783783784,1.57297297297297,12.1189189189189,time_period_11,-71.052194,42.4105330000001,5513.0,Broadway @ High St
109,5514,0.1,0.333333333333333,3.5,time_period_01,-71.050917,42.4119190000001,5514.0,Broadway @ Lexington St
109,5514,0.133333333333333,0.766666666666667,10.0333333333333,time_period_02,-71.050917,42.4119190000001,5514.0,Broadway @ Lexington St
109,5514,0.157142857142857,0.357142857142857,11.3428571428571,time_period_03,-71.050917,42.4119190000001,5514.0,Broadway @ Lexington St
109,5514,0.161538461538462,0.576923076923077,8.43846153846154,time_period_04,-71.050917,42.4119190000001,5514.0,Broadway @ Lexington St
109,5514,0.3375,2.05,19.9125,time_period_05,-71.050917,42.4119190000001,5514.0,Broadway @ Lexington St
109,5514,0.23,2.06,21.87,time_period_06,-71.050917,42.4119190000001,5514.0,Broadway @ Lexington St
109,5514,0.2,1.39,14.84,time_period_07,-71.050917,42.4119190000001,5514.0,Broadway @ Lexington St
109,5514,0.025,1.7,18.125,time_period_08,-71.050917,42.4119190000001,5514.0,Broadway @ Lexington St
109,5514,0.0,0.833333333333333,9.03333333333333,time_period_09,-71.050917,42.4119190000001,5514.0,Broadway @ Lexington St
109,5514,0.233333333333333,1.06,12.3733333333333,time_period_10,-71.050917,42.4119190000001,5514.0,Broadway @ Lexington St
109,5514,0.162162162162162,1.06486486486486,11.2027027027027,time_period_11,-71.050917,42.4119190000001,5514.0,Broadway @ Lexington St
109,5517,0.6,0.2,3.93333333333333,time_period_01,-71.049529,42.4134140000001,5517.0,Broadway @ Reed Ave
109,5517,0.4,0.6,9.8,time_period_02,-71.049529,42.4134140000001,5517.0,Broadway @ Reed Ave
109,5517,0.228571428571429,0.228571428571429,11.3571428571429,time_period_03,-71.049529,42.4134140000001,5517.0,Broadway @ Reed Ave
109,5517,0.223076923076923,0.423076923076923,8.22307692307692,time_period_04,-71.049529,42.4134140000001,5517.0,Broadway @ Reed Ave
109,5517,0.3375,1.525,18.7625,time_period_05,-71.049529,42.4134140000001,5517.0,Broadway @ Reed Ave
109,5517,0.28,1.78,20.42,time_period_06,-71.049529,42.4134140000001,5517.0,Broadway @ Reed Ave
109,5517,0.13,1.37,13.59,time_period_07,-71.049529,42.4134140000001,5517.0,Broadway @ Reed Ave
109,5517,0.125,2.125,16.15,time_period_08,-71.049529,42.4134140000001,5517.0,Broadway @ Reed Ave
109,5517,0.0,0.666666666666667,8.33333333333333,time_period_09,-71.049529,42.4134140000001,5517.0,Broadway @ Reed Ave
109,5517,0.277777777777778,0.968888888888889,11.6644444444444,time_period_10,-71.049529,42.4134140000001,5517.0,Broadway @ Reed Ave
109,5517,0.181081081081081,0.716216216216216,10.6567567567568,time_period_11,-71.049529,42.4134140000001,5517.0,Broadway @ Reed Ave
109,5518,0.366666666666667,0.4,3.86666666666667,time_period_01,-71.0483149999999,42.4148860000001,5518.0,Broadway @ Ferry St
109,5518,0.333333333333333,1.83333333333333,8.26666666666667,time_period_02,-71.0483149999999,42.4148860000001,5518.0,Broadway @ Ferry St
109,5518,0.314285714285714,4.17142857142857,7.5,time_period_03,-71.0483149999999,42.4148860000001,5518.0,Broadway @ Ferry St
109,5518,0.730769230769231,1.23846153846154,7.7,time_period_04,-71.0483149999999,42.4148860000001,5518.0,Broadway @ Ferry St
109,5518,1.2,2.8875,17.05,time_period_05,-71.0483149999999,42.4148860000001,5518.0,Broadway @ Ferry St
109,5518,0.67,2.67,18.43,time_period_06,-71.0483149999999,42.4148860000001,5518.0,Broadway @ Ferry St
109,5518,0.25,2.44,11.39,time_period_07,-71.0483149999999,42.4148860000001,5518.0,Broadway @ Ferry St
109,5518,0.075,3.95,12.3,time_period_08,-71.0483149999999,42.4148860000001,5518.0,Broadway @ Ferry St
109,5518,0.0666666666666667,1.83333333333333,6.56666666666667,time_period_09,-71.0483149999999,42.4148860000001,5518.0,Broadway @ Ferry St
109,5518,0.506666666666667,2.03777777777778,10.1288888888889,time_period_10,-71.0483149999999,42.4148860000001,5518.0,Broadway @ Ferry St
109,5518,0.335135135135135,2.01891891891892,8.97837837837838,time_period_11,-71.0483149999999,42.4148860000001,5518.0,Broadway @ Ferry St
109,5519,0.0666666666666667,0.0333333333333333,3.93333333333333,time_period_01,-71.047355,42.416054,5519.0,Broadway @ Coburn Terr
109,5519,0.233333333333333,0.533333333333333,7.96666666666667,time_period_02,-71.047355,42.416054,5519.0,Broadway @ Coburn Terr
109,5519,0.328571428571429,0.314285714285714,7.5,time_period_03,-71.047355,42.416054,5519.0,Broadway @ Coburn Terr
109,5519,0.276923076923077,0.192307692307692,7.79230769230769,time_period_04,-71.047355,42.416054,5519.0,Broadway @ Coburn Terr
109,5519,0.825,0.6375,17.225,time_period_05,-71.047355,42.416054,5519.0,Broadway @ Coburn Terr
109,5519,0.29,0.84,17.88,time_period_06,-71.047355,42.416054,5519.0,Broadway @ Coburn Terr
109,5519,0.17,0.33,11.2,time_period_07,-71.047355,42.416054,5519.0,Broadway @ Coburn Terr
109,5519,0.1,0.2,12.15,time_period_08,-71.047355,42.416054,5519.0,Broadway @ Coburn Terr
109,5519,0.0,0.166666666666667,6.36666666666667,time_period_09,-71.047355,42.416054,5519.0,Broadway @ Coburn Terr
109,5519,0.177777777777778,0.271111111111111,10.0355555555556,time_period_10,-71.047355,42.416054,5519.0,Broadway @ Coburn Terr
109,5519,0.191891891891892,0.372972972972973,8.79189189189189,time_period_11,-71.047355,42.416054,5519.0,Broadway @ Coburn Terr
109,5515,0.0333333333333333,0.0,3.96666666666667,time_period_01,-71.046701,42.416817,5515.0,Broadway @ Gledhill St
109,5515,0.0666666666666667,0.0666666666666667,7.93333333333333,time_period_02,-71.046701,42.416817,5515.0,Broadway @ Gledhill St
109,5515,0.114285714285714,0.171428571428571,7.44285714285714,time_period_03,-71.046701,42.416817,5515.0,Broadway @ Gledhill St
109,5515,0.1,0.223076923076923,7.65384615384615,time_period_04,-71.046701,42.416817,5515.0,Broadway @ Gledhill St
109,5515,0.3125,0.7625,16.7875,time_period_05,-71.046701,42.416817,5515.0,Broadway @ Gledhill St
109,5515,0.15,0.96,17.1,time_period_06,-71.046701,42.416817,5515.0,Broadway @ Gledhill St
109,5515,0.03,0.65,10.58,time_period_07,-71.046701,42.416817,5515.0,Broadway @ Gledhill St
109,5515,0.0,1.25,10.925,time_period_08,-71.046701,42.416817,5515.0,Broadway @ Gledhill St
109,5515,0.0,0.7,5.73333333333333,time_period_09,-71.046701,42.416817,5515.0,Broadway @ Gledhill St
109,5515,0.148888888888889,0.506666666666667,9.67555555555556,time_period_10,-71.046701,42.416817,5515.0,Broadway @ Gledhill St
109,5515,0.116216216216216,0.42972972972973,8.47837837837838,time_period_11,-71.046701,42.416817,5515.0,Broadway @ Gledhill St
109,5520,0.0,0.1,3.83333333333333,time_period_01,-71.045566,42.418193,5520.0,Broadway @ Summit Ave
109,5520,0.533333333333333,0.233333333333333,8.26666666666667,time_period_02,-71.045566,42.418193,5520.0,Broadway @ Summit Ave
109,5520,0.0571428571428571,0.214285714285714,7.31428571428571,time_period_03,-71.045566,42.418193,5520.0,Broadway @ Summit Ave
109,5520,0.0538461538461538,0.330769230769231,7.4,time_period_04,-71.045566,42.418193,5520.0,Broadway @ Summit Ave
109,5520,0.0875,1.1,15.7875,time_period_05,-71.045566,42.418193,5520.0,Broadway @ Summit Ave
109,5520,0.08,1.35,15.83,time_period_06,-71.045566,42.418193,5520.0,Broadway @ Summit Ave
109,5520,0.01,0.85,9.78,time_period_07,-71.045566,42.418193,5520.0,Broadway @ Summit Ave
109,5520,0.0,1.175,9.775,time_period_08,-71.045566,42.418193,5520.0,Broadway @ Summit Ave
109,5520,0.0,0.4,5.36666666666667,time_period_09,-71.045566,42.418193,5520.0,Broadway @ Summit Ave
109,5520,0.0733333333333333,0.631111111111111,9.11111111111111,time_period_10,-71.045566,42.418193,5520.0,Broadway @ Summit Ave
109,5520,0.0756756756756757,0.540540540540541,8.01081081081081,time_period_11,-71.045566,42.418193,5520.0,Broadway @ Summit Ave
109,5521,0.0,0.233333333333333,3.63333333333333,time_period_01,-71.044255,42.4196910000001,5521.0,Broadway @ Lynn St
109,5521,0.3,0.3,8.2,time_period_02,-71.044255,42.4196910000001,5521.0,Broadway @ Lynn St
109,5521,0.0857142857142857,0.371428571428571,7.02857142857143,time_period_03,-71.044255,42.4196910000001,5521.0,Broadway @ Lynn St
109,5521,0.0846153846153846,0.730769230769231,6.75384615384615,time_period_04,-71.044255,42.4196910000001,5521.0,Broadway @ Lynn St
109,5521,0.1625,1.9125,14.0,time_period_05,-71.044255,42.4196910000001,5521.0,Broadway @ Lynn St
109,5521,0.07,1.84,14.13,time_period_06,-71.044255,42.4196910000001,5521.0,Broadway @ Lynn St
109,5521,0.09,1.12,8.77,time_period_07,-71.044255,42.4196910000001,5521.0,Broadway @ Lynn St
109,5521,0.025,1.05,8.775,time_period_08,-71.044255,42.4196910000001,5521.0,Broadway @ Lynn St
109,5521,0.0,0.1,5.26666666666667,time_period_09,-71.044255,42.4196910000001,5521.0,Broadway @ Lynn St
109,5521,0.0933333333333333,0.788888888888889,8.40888888888889,time_period_10,-71.044255,42.4196910000001,5521.0,Broadway @ Lynn St
109,5521,0.0783783783783784,0.513513513513513,7.58378378378378,time_period_11,-71.044255,42.4196910000001,5521.0,Broadway @ Lynn St
109,5522,0.166666666666667,0.0666666666666667,3.76666666666667,time_period_01,-71.0432989999999,42.42182,5522.0,Broadway @ Shute St
109,5522,0.133333333333333,0.2,8.13333333333333,time_period_02,-71.0432989999999,42.42182,5522.0,Broadway @ Shute St
109,5522,0.157142857142857,0.242857142857143,6.94285714285714,time_period_03,-71.0432989999999,42.42182,5522.0,Broadway @ Shute St
109,5522,0.0846153846153846,0.530769230769231,6.3,time_period_04,-71.0432989999999,42.42182,5522.0,Broadway @ Shute St
109,5522,0.1375,1.6625,12.475,time_period_05,-71.0432989999999,42.42182,5522.0,Broadway @ Shute St
109,5522,0.13,2.03,12.27,time_period_06,-71.0432989999999,42.42182,5522.0,Broadway @ Shute St
109,5522,0.06,1.04,7.8,time_period_07,-71.0432989999999,42.42182,5522.0,Broadway @ Shute St
109,5522,0.025,1.0,7.775,time_period_08,-71.0432989999999,42.42182,5522.0,Broadway @ Shute St
109,5522,0.0,0.4,4.86666666666667,time_period_09,-71.0432989999999,42.42182,5522.0,Broadway @ Shute St
109,5522,0.188888888888889,0.84,7.79333333333333,time_period_10,-71.0432989999999,42.42182,5522.0,Broadway @ Shute St
109,5522,0.110810810810811,0.686486486486486,7.0027027027027,time_period_11,-71.0432989999999,42.42182,5522.0,Broadway @ Shute St
109,5523,0.0666666666666667,0.466666666666667,3.4,time_period_01,-71.042819,42.423102,5523.0,Broadway @ Estes St
109,5523,0.0666666666666667,0.3,7.93333333333333,time_period_02,-71.042819,42.423102,5523.0,Broadway @ Estes St
109,5523,0.157142857142857,0.257142857142857,6.81428571428571,time_period_03,-71.042819,42.423102,5523.0,Broadway @ Estes St
109,5523,0.0384615384615385,0.523076923076923,5.83076923076923,time_period_04,-71.042819,42.423102,5523.0,Broadway @ Estes St
109,5523,0.1125,1.0875,11.5125,time_period_05,-71.042819,42.423102,5523.0,Broadway @ Estes St
109,5523,0.09,1.5,10.86,time_period_06,-71.042819,42.423102,5523.0,Broadway @ Estes St
109,5523,0.06,0.98,6.9,time_period_07,-71.042819,42.423102,5523.0,Broadway @ Estes St
109,5523,0.025,1.025,6.775,time_period_08,-71.042819,42.423102,5523.0,Broadway @ Estes St
109,5523,0.0,0.466666666666667,4.4,time_period_09,-71.042819,42.423102,5523.0,Broadway @ Estes St
109,5523,0.0733333333333333,0.648888888888889,7.21555555555556,time_period_10,-71.042819,42.423102,5523.0,Broadway @ Estes St
109,5523,0.0810810810810811,0.624324324324324,6.44324324324324,time_period_11,-71.042819,42.423102,5523.0,Broadway @ Estes St
109,5524,0.0,0.633333333333333,2.76666666666667,time_period_01,-71.04223,42.424677,5524.0,53 Broadway
109,5524,0.333333333333333,0.866666666666667,7.33333333333333,time_period_02,-71.04223,42.424677,5524.0,53 Broadway
109,5524,0.157142857142857,1.04285714285714,5.98571428571429,time_period_03,-71.04223,42.424677,5524.0,53 Broadway
109,5524,0.276923076923077,1.0,5.13076923076923,time_period_04,-71.04223,42.424677,5524.0,53 Broadway
109,5524,0.3875,1.575,10.2875,time_period_05,-71.04223,42.424677,5524.0,53 Broadway
109,5524,0.22,1.4,9.69,time_period_06,-71.04223,42.424677,5524.0,53 Broadway
109,5524,0.07,0.52,6.45,time_period_07,-71.04223,42.424677,5524.0,53 Broadway
109,5524,0.0,0.2,6.625,time_period_08,-71.04223,42.424677,5524.0,53 Broadway
109,5524,0.0,0.3,4.13333333333333,time_period_09,-71.04223,42.424677,5524.0,53 Broadway
109,5524,0.197777777777778,0.935555555555556,6.48222222222222,time_period_10,-71.04223,42.424677,5524.0,53 Broadway
109,5524,0.143243243243243,0.667567567567568,5.90540540540541,time_period_11,-71.04223,42.424677,5524.0,53 Broadway
109,5525,0.0,0.2,2.53333333333333,time_period_01,-71.041124,42.4276090000001,5525.0,Broadway opp Sheafe St
109,5525,0.0,0.4,7.03333333333333,time_period_02,-71.041124,42.4276090000001,5525.0,Broadway opp Sheafe St
109,5525,0.0,0.228571428571429,5.75714285714286,time_period_03,-71.041124,42.4276090000001,5525.0,Broadway opp Sheafe St
109,5525,0.0153846153846154,0.292307692307692,4.86923076923077,time_period_04,-71.041124,42.4276090000001,5525.0,Broadway opp Sheafe St
109,5525,0.125,0.8125,9.6125,time_period_05,-71.041124,42.4276090000001,5525.0,Broadway opp Sheafe St
109,5525,0.05,0.97,8.84,time_period_06,-71.041124,42.4276090000001,5525.0,Broadway opp Sheafe St
109,5525,0.04,0.47,6.04,time_period_07,-71.041124,42.4276090000001,5525.0,Broadway opp Sheafe St
109,5525,0.0,0.525,6.1,time_period_08,-71.041124,42.4276090000001,5525.0,Broadway opp Sheafe St
109,5525,0.0,0.366666666666667,3.76666666666667,time_period_09,-71.041124,42.4276090000001,5525.0,Broadway opp Sheafe St
109,5525,0.0444444444444444,0.537777777777778,5.99111111111111,time_period_10,-71.041124,42.4276090000001,5525.0,Broadway opp Sheafe St
109,5525,0.0351351351351351,0.424324324324324,5.52432432432432,time_period_11,-71.041124,42.4276090000001,5525.0,Broadway opp Sheafe St
109,5527,0.0,0.5,2.03333333333333,time_period_01,-71.040002,42.430214,5527.0,Eastern Ave @ Broadway
109,5527,0.0,1.46666666666667,5.53333333333333,time_period_02,-71.040002,42.430214,5527.0,Eastern Ave @ Broadway
109,5527,0.0571428571428571,1.17142857142857,4.62857142857143,time_period_03,-71.040002,42.430214,5527.0,Eastern Ave @ Broadway
109,5527,0.0384615384615385,1.01538461538462,3.90769230769231,time_period_04,-71.040002,42.430214,5527.0,Eastern Ave @ Broadway
109,5527,0.2,2.1875,7.625,time_period_05,-71.040002,42.430214,5527.0,Eastern Ave @ Broadway
109,5527,0.1,1.91,7.04,time_period_06,-71.040002,42.430214,5527.0,Eastern Ave @ Broadway
109,5527,0.12,1.29,4.89,time_period_07,-71.040002,42.430214,5527.0,Eastern Ave @ Broadway
109,5527,0.1,1.55,4.625,time_period_08,-71.040002,42.430214,5527.0,Eastern Ave @ Broadway
109,5527,0.0,1.4,2.36666666666667,time_period_09,-71.040002,42.430214,5527.0,Eastern Ave @ Broadway
109,5527,0.0955555555555556,1.34444444444444,4.74444444444444,time_period_10,-71.040002,42.430214,5527.0,Eastern Ave @ Broadway
109,5527,0.110810810810811,1.42432432432432,4.20810810810811,time_period_11,-71.040002,42.430214,5527.0,Eastern Ave @ Broadway
109,5529,0.0,0.0,2.03333333333333,time_period_01,-71.032539,42.4309410000001,5529.0,Eastern Ave @ Prentiss St
109,5529,0.0,0.0,5.5,time_period_02,-71.032539,42.4309410000001,5529.0,Eastern Ave @ Prentiss St
109,5529,0.0,0.0,4.62857142857143,time_period_03,-71.032539,42.4309410000001,5529.0,Eastern Ave @ Prentiss St
109,5529,0.0,0.0230769230769231,3.84615384615385,time_period_04,-71.032539,42.4309410000001,5529.0,Eastern Ave @ Prentiss St
109,5529,0.0,0.1125,7.5,time_period_05,-71.032539,42.4309410000001,5529.0,Eastern Ave @ Prentiss St
109,5529,0.0,0.11,6.94,time_period_06,-71.032539,42.4309410000001,5529.0,Eastern Ave @ Prentiss St
109,5529,0.0,0.06,4.8,time_period_07,-71.032539,42.4309410000001,5529.0,Eastern Ave @ Prentiss St
109,5529,0.0,0.125,4.525,time_period_08,-71.032539,42.4309410000001,5529.0,Eastern Ave @ Prentiss St
109,5529,0.0,0.0,2.36666666666667,time_period_09,-71.032539,42.4309410000001,5529.0,Eastern Ave @ Prentiss St
109,5529,0.0066666666666666,0.117777777777778,4.63777777777778,time_period_10,-71.032539,42.4309410000001,5529.0,Eastern Ave @ Prentiss St
109,5529,0.0027027027027027,0.0621621621621622,4.15405405405405,time_period_11,-71.032539,42.4309410000001,5529.0,Eastern Ave @ Prentiss St
109,5530,0.0,0.0,2.03333333333333,time_period_01,-71.030897,42.431047,5530.0,Eastern Ave @ Bellvale St
109,5530,0.0,0.0,5.5,time_period_02,-71.030897,42.431047,5530.0,Eastern Ave @ Bellvale St
109,5530,0.0,0.257142857142857,4.42857142857143,time_period_03,-71.030897,42.431047,5530.0,Eastern Ave @ Bellvale St
109,5530,0.0,0.253846153846154,3.6,time_period_04,-71.030897,42.431047,5530.0,Eastern Ave @ Bellvale St
109,5530,0.0,0.9375,6.5875,time_period_05,-71.030897,42.431047,5530.0,Eastern Ave @ Bellvale St
109,5530,0.0,0.94,6.04,time_period_06,-71.030897,42.431047,5530.0,Eastern Ave @ Bellvale St
109,5530,0.0,0.62,4.17,time_period_07,-71.030897,42.431047,5530.0,Eastern Ave @ Bellvale St
109,5530,0.0,0.4,4.125,time_period_08,-71.030897,42.431047,5530.0,Eastern Ave @ Bellvale St
109,5530,0.0,0.133333333333333,2.23333333333333,time_period_09,-71.030897,42.431047,5530.0,Eastern Ave @ Bellvale St
109,5530,0.0022222222222222,0.342222222222222,4.29111111111111,time_period_10,-71.030897,42.431047,5530.0,Eastern Ave @ Bellvale St
109,5530,0.0054054054054054,0.264864864864865,3.90540540540541,time_period_11,-71.030897,42.431047,5530.0,Eastern Ave @ Bellvale St
109,5531,0.0,0.0,2.0,time_period_01,-71.028744,42.4312,5531.0,Eastern Ave @ Cleveland St
109,5531,0.0,0.266666666666667,5.26666666666667,time_period_02,-71.028744,42.4312,5531.0,Eastern Ave @ Cleveland St
109,5531,0.0,0.3,4.14285714285714,time_period_03,-71.028744,42.4312,5531.0,Eastern Ave @ Cleveland St
109,5531,0.0,0.123076923076923,3.46923076923077,time_period_04,-71.028744,42.4312,5531.0,Eastern Ave @ Cleveland St
109,5531,0.025,0.7,5.925,time_period_05,-71.028744,42.4312,5531.0,Eastern Ave @ Cleveland St
109,5531,0.0,1.2,4.82,time_period_06,-71.028744,42.4312,5531.0,Eastern Ave @ Cleveland St
109,5531,0.0,0.6,3.64,time_period_07,-71.028744,42.4312,5531.0,Eastern Ave @ Cleveland St
109,5531,0.025,0.725,3.45,time_period_08,-71.028744,42.4312,5531.0,Eastern Ave @ Cleveland St
109,5531,0.0333333333333333,0.433333333333333,1.86666666666667,time_period_09,-71.028744,42.4312,5531.0,Eastern Ave @ Cleveland St
109,5531,0.0022222222222222,0.353333333333333,3.95111111111111,time_period_10,-71.028744,42.4312,5531.0,Eastern Ave @ Cleveland St
109,5531,0.0189189189189189,0.443243243243243,3.5,time_period_11,-71.028744,42.4312,5531.0,Eastern Ave @ Cleveland St
109,5532,0.0,0.333333333333333,1.7,time_period_01,-71.0265479999999,42.431512,5532.0,Eastern Ave @ Lynn St
109,5532,0.0,0.433333333333333,4.8,time_period_02,-71.0265479999999,42.431512,5532.0,Eastern Ave @ Lynn St
109,5532,0.0,0.585714285714286,3.6,time_period_03,-71.0265479999999,42.431512,5532.0,Eastern Ave @ Lynn St
109,5532,0.0,0.523076923076923,2.94615384615385,time_period_04,-71.0265479999999,42.431512,5532.0,Eastern Ave @ Lynn St
109,5532,0.025,1.2125,4.8,time_period_05,-71.0265479999999,42.431512,5532.0,Eastern Ave @ Lynn St
109,5532,0.0,1.41,3.46,time_period_06,-71.0265479999999,42.431512,5532.0,Eastern Ave @ Lynn St
109,5532,0.0,0.73,2.92,time_period_07,-71.0265479999999,42.431512,5532.0,Eastern Ave @ Lynn St
109,5532,0.0,0.925,2.5,time_period_08,-71.0265479999999,42.431512,5532.0,Eastern Ave @ Lynn St
109,5532,0.0,0.3,1.56666666666667,time_period_09,-71.0265479999999,42.431512,5532.0,Eastern Ave @ Lynn St
109,5532,0.0066666666666666,0.762222222222222,3.18666666666667,time_period_10,-71.0265479999999,42.431512,5532.0,Eastern Ave @ Lynn St
109,5532,0.0054054054054054,0.697297297297297,2.80810810810811,time_period_11,-71.0265479999999,42.431512,5532.0,Eastern Ave @ Lynn St
109,7417,0.0,1.66666666666667,0.0,time_period_01,-71.024087,42.4328580000001,7417.0,Wesley St @ Lynn St
109,7417,0.0,4.8,0.0,time_period_02,-71.024087,42.4328580000001,7417.0,Wesley St @ Lynn St
109,7417,0.0,3.48571428571429,0.1,time_period_03,-71.024087,42.4328580000001,7417.0,Wesley St @ Lynn St
109,7417,0.0,2.91538461538462,0.0307692307692308,time_period_04,-71.024087,42.4328580000001,7417.0,Wesley St @ Lynn St
109,7417,0.0,4.7625,0.025,time_period_05,-71.024087,42.4328580000001,7417.0,Wesley St @ Lynn St
109,7417,0.0,3.43,0.01,time_period_06,-71.024087,42.4328580000001,7417.0,Wesley St @ Lynn St
109,7417,0.0,2.88,0.02,time_period_07,-71.024087,42.4328580000001,7417.0,Wesley St @ Lynn St
109,7417,0.0,2.45,0.05,time_period_08,-71.024087,42.4328580000001,7417.0,Wesley St @ Lynn St
109,7417,0.0,1.53333333333333,0.0333333333333333,time_period_09,-71.024087,42.4328580000001,7417.0,Wesley St @ Lynn St
109,7417,0.0,3.06444444444444,0.135555555555556,time_period_10,-71.024087,42.4328580000001,7417.0,Wesley St @ Lynn St
109,7417,0.0,2.73513513513514,0.072972972972973,time_period_11,-71.024087,42.4328580000001,7417.0,Wesley St @ Lynn St
