route_id,stop_id,average_ons,average_offs,average_load,time_period_id,X,Y,Stop_ID,Stop_Name
215,3125,2.0,0.0,2.4,time_period_01,-71.0287519999999,42.275585,3125.0,North Quincy
215,3125,0.5,0.0,0.5,time_period_10,-71.0287519999999,42.275585,3125.0,North Quincy
215,3168,0.0,0.0,2.4,time_period_01,-71.031237,42.2729800000001,3168.0,W Squantun St @ Farrington St
215,3168,0.0,0.0,0.5,time_period_10,-71.031237,42.2729800000001,3168.0,W Squantun St @ Farrington St
215,3170,0.0,0.0,2.4,time_period_01,-71.0329,42.270827,3170.0,W Squantum St @ Division St
215,3170,0.0,0.0,0.5,time_period_10,-71.0329,42.270827,3170.0,W Squantum St @ Division St
215,3172,0.4,0.0,2.9,time_period_01,-71.034167,42.269927,3172.0,W Squantum St @ Montclair Ave
215,3172,0.0,0.0,0.5,time_period_10,-71.034167,42.269927,3172.0,W Squantum St @ Montclair Ave
215,3174,0.0,0.0,2.9,time_period_01,-71.0373949999999,42.268582,3174.0,W Squantum St @ Evans St
215,3174,0.0,0.0,0.5,time_period_10,-71.0373949999999,42.268582,3174.0,W Squantum St @ Evans St
215,323,1.05714285714286,0.0,1.14285714285714,time_period_11,-71.0647573,42.2989063,323.0,Fields Corner Busway
215,55600,0.671428571428571,0.0,1.77142857142857,time_period_11,-71.063789,42.299024,55600.0,Fields Corner Sta @ Geneva Ave
215,325,0.1,0.0142857142857143,1.88571428571429,time_period_11,-71.060935,42.298249,325.0,Park St Busway @ Dorchester Ave
215,326,0.0285714285714286,0.0,1.87142857142857,time_period_11,-71.0610819999999,42.297293,326.0,Dorchester Ave opp Gibson St
215,327,0.0428571428571429,0.0285714285714286,1.9,time_period_11,-71.0613999999999,42.2961560000001,327.0,Dorchester Ave @ Melville Ave
215,328,0.0,0.0,1.88571428571429,time_period_11,-71.061707,42.2951550000001,328.0,1621 Dorchester Ave opp Dix St
215,329,0.0571428571428571,0.0428571428571429,1.81428571428571,time_period_11,-71.062127,42.2937440000001,329.0,Dorchester Ave @ Centre St
215,330,0.0,0.0285714285714286,1.8,time_period_11,-71.062532,42.2922990000001,330.0,Dorchester Ave @ Cheverus Rd
215,331,0.0,0.0285714285714286,1.78571428571429,time_period_11,-71.063344,42.2894220000001,331.0,Dorchester Ave opp Shepton St
215,332,0.0285714285714286,0.0428571428571429,1.8,time_period_11,-71.063639,42.2883130000001,332.0,Dorchester Ave @ Banton St
215,8717,0.0,0.0,1.8,time_period_11,-71.063999,42.2870140000001,8717.0,Dorchester Ave @ Talbot Ave
215,334,11.95,0.0,11.95,time_period_02,-71.0733149,42.2845163,334.0,Ashmont Busway
215,334,11.275,0.0,11.4,time_period_03,-71.0733149,42.2845163,334.0,Ashmont Busway
215,334,8.42857142857143,0.0,8.52857142857143,time_period_04,-71.0733149,42.2845163,334.0,Ashmont Busway
215,334,11.5,0.0,11.6,time_period_05,-71.0733149,42.2845163,334.0,Ashmont Busway
215,334,10.14,0.0,10.16,time_period_06,-71.0733149,42.2845163,334.0,Ashmont Busway
215,334,6.14,0.0,6.22,time_period_07,-71.0733149,42.2845163,334.0,Ashmont Busway
215,334,3.65,0.0,3.7,time_period_08,-71.0733149,42.2845163,334.0,Ashmont Busway
215,334,7.82916666666667,0.0,7.9375,time_period_10,-71.0733149,42.2845163,334.0,Ashmont Busway
215,334,8.0875,0.0,8.3625,time_period_11,-71.0733149,42.2845163,334.0,Ashmont Busway
215,334,3.71428571428571,0.4,5.18571428571429,time_period_11,-71.0733149,42.2845163,334.0,Ashmont Busway
215,536,0.25,0.0,12.2,time_period_02,-71.065378,42.2820770000001,536.0,Dorchester Ave @ Hurlcroft Ave
215,536,0.2,0.0,11.575,time_period_03,-71.065378,42.2820770000001,536.0,Dorchester Ave @ Hurlcroft Ave
215,536,0.0428571428571429,0.0,8.57142857142857,time_period_04,-71.065378,42.2820770000001,536.0,Dorchester Ave @ Hurlcroft Ave
215,536,0.075,0.025,11.7,time_period_05,-71.065378,42.2820770000001,536.0,Dorchester Ave @ Hurlcroft Ave
215,536,0.12,0.0,10.38,time_period_06,-71.065378,42.2820770000001,536.0,Dorchester Ave @ Hurlcroft Ave
215,536,0.02,0.0,6.22,time_period_07,-71.065378,42.2820770000001,536.0,Dorchester Ave @ Hurlcroft Ave
215,536,0.0,0.0,3.7,time_period_08,-71.065378,42.2820770000001,536.0,Dorchester Ave @ Hurlcroft Ave
215,536,0.108333333333333,0.0,8.03333333333333,time_period_10,-71.065378,42.2820770000001,536.0,Dorchester Ave @ Hurlcroft Ave
215,536,0.0875,0.0,8.425,time_period_11,-71.065378,42.2820770000001,536.0,Dorchester Ave @ Hurlcroft Ave
215,536,0.1,0.0142857142857143,5.25714285714286,time_period_11,-71.065378,42.2820770000001,536.0,Dorchester Ave @ Hurlcroft Ave
215,537,1.0,0.1,13.15,time_period_02,-71.065961,42.280016,537.0,Dorchester Ave @ Gallivan Blvd
215,537,0.65,0.05,12.125,time_period_03,-71.065961,42.280016,537.0,Dorchester Ave @ Gallivan Blvd
215,537,0.457142857142857,0.0428571428571429,8.94285714285714,time_period_04,-71.065961,42.280016,537.0,Dorchester Ave @ Gallivan Blvd
215,537,0.525,0.125,12.1,time_period_05,-71.065961,42.280016,537.0,Dorchester Ave @ Gallivan Blvd
215,537,0.34,0.16,10.64,time_period_06,-71.065961,42.280016,537.0,Dorchester Ave @ Gallivan Blvd
215,537,0.12,0.12,6.24,time_period_07,-71.065961,42.280016,537.0,Dorchester Ave @ Gallivan Blvd
215,537,0.1,0.05,3.75,time_period_08,-71.065961,42.280016,537.0,Dorchester Ave @ Gallivan Blvd
215,537,0.308333333333333,0.0458333333333333,8.3,time_period_10,-71.065961,42.280016,537.0,Dorchester Ave @ Gallivan Blvd
215,537,0.125,0.025,8.475,time_period_11,-71.065961,42.280016,537.0,Dorchester Ave @ Gallivan Blvd
215,537,0.214285714285714,0.1,5.3,time_period_11,-71.065961,42.280016,537.0,Dorchester Ave @ Gallivan Blvd
215,3375,0.15,0.0,13.2,time_period_02,-71.064874,42.280149,3375.0,Gallivan Blvd @ Hutchinson St
215,3375,0.825,0.05,12.975,time_period_03,-71.064874,42.280149,3375.0,Gallivan Blvd @ Hutchinson St
215,3375,0.114285714285714,0.0,9.04285714285714,time_period_04,-71.064874,42.280149,3375.0,Gallivan Blvd @ Hutchinson St
215,3375,0.225,0.05,12.275,time_period_05,-71.064874,42.280149,3375.0,Gallivan Blvd @ Hutchinson St
215,3375,0.22,0.12,10.72,time_period_06,-71.064874,42.280149,3375.0,Gallivan Blvd @ Hutchinson St
215,3375,0.04,0.04,6.26,time_period_07,-71.064874,42.280149,3375.0,Gallivan Blvd @ Hutchinson St
215,3375,0.0,0.0,3.8,time_period_08,-71.064874,42.280149,3375.0,Gallivan Blvd @ Hutchinson St
215,3375,0.0958333333333333,0.0083333333333333,8.39583333333333,time_period_10,-71.064874,42.280149,3375.0,Gallivan Blvd @ Hutchinson St
215,3375,0.0375,0.0375,8.4625,time_period_11,-71.064874,42.280149,3375.0,Gallivan Blvd @ Hutchinson St
215,3375,0.0,0.0142857142857143,5.28571428571429,time_period_11,-71.064874,42.280149,3375.0,Gallivan Blvd @ Hutchinson St
215,3376,0.0,0.0,13.2,time_period_02,-71.062304,42.280916,3376.0,Gallivan Blvd opp Huron Circle
215,3376,0.0,0.0,12.975,time_period_03,-71.062304,42.280916,3376.0,Gallivan Blvd opp Huron Circle
215,3376,0.0,0.0,9.05714285714286,time_period_04,-71.062304,42.280916,3376.0,Gallivan Blvd opp Huron Circle
215,3376,0.0,0.0,12.25,time_period_05,-71.062304,42.280916,3376.0,Gallivan Blvd opp Huron Circle
215,3376,0.0,0.0,10.72,time_period_06,-71.062304,42.280916,3376.0,Gallivan Blvd opp Huron Circle
215,3376,0.0,0.0,6.24,time_period_07,-71.062304,42.280916,3376.0,Gallivan Blvd opp Huron Circle
215,3376,0.0,0.0,3.8,time_period_08,-71.062304,42.280916,3376.0,Gallivan Blvd opp Huron Circle
215,3376,0.0083333333333333,0.0,8.4,time_period_10,-71.062304,42.280916,3376.0,Gallivan Blvd opp Huron Circle
215,3376,0.0,0.0125,8.45,time_period_11,-71.062304,42.280916,3376.0,Gallivan Blvd opp Huron Circle
215,3376,0.0,0.0,5.28571428571429,time_period_11,-71.062304,42.280916,3376.0,Gallivan Blvd opp Huron Circle
215,33761,0.0,0.0,13.25,time_period_02,-71.0599819999999,42.2816310000001,33761.0,Gallivan Blvd opp Carruth St
215,33761,0.05,0.05,12.95,time_period_03,-71.0599819999999,42.2816310000001,33761.0,Gallivan Blvd opp Carruth St
215,33761,0.0142857142857143,0.0428571428571429,9.07142857142857,time_period_04,-71.0599819999999,42.2816310000001,33761.0,Gallivan Blvd opp Carruth St
215,33761,0.0,0.0,12.2,time_period_05,-71.0599819999999,42.2816310000001,33761.0,Gallivan Blvd opp Carruth St
215,33761,0.0,0.06,10.64,time_period_06,-71.0599819999999,42.2816310000001,33761.0,Gallivan Blvd opp Carruth St
215,33761,0.0,0.02,6.24,time_period_07,-71.0599819999999,42.2816310000001,33761.0,Gallivan Blvd opp Carruth St
215,33761,0.0,0.0,3.8,time_period_08,-71.0599819999999,42.2816310000001,33761.0,Gallivan Blvd opp Carruth St
215,33761,0.0125,0.0125,8.375,time_period_10,-71.0599819999999,42.2816310000001,33761.0,Gallivan Blvd opp Carruth St
215,33761,0.0875,0.0,8.575,time_period_11,-71.0599819999999,42.2816310000001,33761.0,Gallivan Blvd opp Carruth St
215,33761,0.0142857142857143,0.0,5.35714285714286,time_period_11,-71.0599819999999,42.2816310000001,33761.0,Gallivan Blvd opp Carruth St
215,3377,0.0,0.0,13.2,time_period_02,-71.059005,42.281913,3377.0,Gallivan Blvd @ Adams St
215,3377,0.05,0.0,13.0,time_period_03,-71.059005,42.281913,3377.0,Gallivan Blvd @ Adams St
215,3377,0.1,0.0142857142857143,9.11428571428571,time_period_04,-71.059005,42.281913,3377.0,Gallivan Blvd @ Adams St
215,3377,0.025,0.05,12.2,time_period_05,-71.059005,42.281913,3377.0,Gallivan Blvd @ Adams St
215,3377,0.0,0.06,10.58,time_period_06,-71.059005,42.281913,3377.0,Gallivan Blvd @ Adams St
215,3377,0.0,0.0,6.24,time_period_07,-71.059005,42.281913,3377.0,Gallivan Blvd @ Adams St
215,3377,0.0,0.0,3.75,time_period_08,-71.059005,42.281913,3377.0,Gallivan Blvd @ Adams St
215,3377,0.0416666666666667,0.025,8.3875,time_period_10,-71.059005,42.281913,3377.0,Gallivan Blvd @ Adams St
215,3377,0.1,0.0125,8.675,time_period_11,-71.059005,42.281913,3377.0,Gallivan Blvd @ Adams St
215,3377,0.0571428571428571,0.0142857142857143,5.4,time_period_11,-71.059005,42.281913,3377.0,Gallivan Blvd @ Adams St
215,3378,0.25,0.3,13.2,time_period_02,-71.0557909999999,42.282449,3378.0,Granite Ave @ Gallivan Blvd
215,3378,0.35,0.425,12.875,time_period_03,-71.0557909999999,42.282449,3378.0,Granite Ave @ Gallivan Blvd
215,3378,0.214285714285714,0.314285714285714,9.04285714285714,time_period_04,-71.0557909999999,42.282449,3378.0,Granite Ave @ Gallivan Blvd
215,3378,0.525,0.675,12.05,time_period_05,-71.0557909999999,42.282449,3378.0,Granite Ave @ Gallivan Blvd
215,3378,0.54,0.4,10.6,time_period_06,-71.0557909999999,42.282449,3378.0,Granite Ave @ Gallivan Blvd
215,3378,0.1,0.24,6.08,time_period_07,-71.0557909999999,42.282449,3378.0,Granite Ave @ Gallivan Blvd
215,3378,0.05,0.2,3.65,time_period_08,-71.0557909999999,42.282449,3378.0,Granite Ave @ Gallivan Blvd
215,3378,0.2875,0.325,8.35416666666667,time_period_10,-71.0557909999999,42.282449,3378.0,Granite Ave @ Gallivan Blvd
215,3378,0.1875,0.2875,8.5875,time_period_11,-71.0557909999999,42.282449,3378.0,Granite Ave @ Gallivan Blvd
215,3378,0.0857142857142857,0.257142857142857,5.22857142857143,time_period_11,-71.0557909999999,42.282449,3378.0,Granite Ave @ Gallivan Blvd
215,3379,0.0,0.05,13.15,time_period_02,-71.0547989999999,42.2803950000001,3379.0,Granite Ave @ Milton St
215,3379,0.0,0.125,12.75,time_period_03,-71.0547989999999,42.2803950000001,3379.0,Granite Ave @ Milton St
215,3379,0.0,0.0,9.02857142857143,time_period_04,-71.0547989999999,42.2803950000001,3379.0,Granite Ave @ Milton St
215,3379,0.225,0.05,12.2,time_period_05,-71.0547989999999,42.2803950000001,3379.0,Granite Ave @ Milton St
215,3379,0.04,0.2,10.44,time_period_06,-71.0547989999999,42.2803950000001,3379.0,Granite Ave @ Milton St
215,3379,0.0,0.04,6.04,time_period_07,-71.0547989999999,42.2803950000001,3379.0,Granite Ave @ Milton St
215,3379,0.0,0.0,3.65,time_period_08,-71.0547989999999,42.2803950000001,3379.0,Granite Ave @ Milton St
215,3379,0.0541666666666667,0.025,8.375,time_period_10,-71.0547989999999,42.2803950000001,3379.0,Granite Ave @ Milton St
215,3379,0.125,0.0,8.7125,time_period_11,-71.0547989999999,42.2803950000001,3379.0,Granite Ave @ Milton St
215,3379,0.0,0.0142857142857143,5.21428571428571,time_period_11,-71.0547989999999,42.2803950000001,3379.0,Granite Ave @ Milton St
215,3380,0.0,0.1,13.05,time_period_02,-71.054254,42.2789970000001,3380.0,Granite Ave opp Hilltop St
215,3380,0.0,0.225,12.625,time_period_03,-71.054254,42.2789970000001,3380.0,Granite Ave opp Hilltop St
215,3380,0.0857142857142857,0.0714285714285714,9.02857142857143,time_period_04,-71.054254,42.2789970000001,3380.0,Granite Ave opp Hilltop St
215,3380,0.075,0.1,12.175,time_period_05,-71.054254,42.2789970000001,3380.0,Granite Ave opp Hilltop St
215,3380,0.04,0.06,10.4,time_period_06,-71.054254,42.2789970000001,3380.0,Granite Ave opp Hilltop St
215,3380,0.0,0.08,6.0,time_period_07,-71.054254,42.2789970000001,3380.0,Granite Ave opp Hilltop St
215,3380,0.0,0.0,3.65,time_period_08,-71.054254,42.2789970000001,3380.0,Granite Ave opp Hilltop St
215,3380,0.05,0.0416666666666667,8.38333333333333,time_period_10,-71.054254,42.2789970000001,3380.0,Granite Ave opp Hilltop St
215,3380,0.025,0.05,8.7,time_period_11,-71.054254,42.2789970000001,3380.0,Granite Ave opp Hilltop St
215,3380,0.0142857142857143,0.0428571428571429,5.18571428571429,time_period_11,-71.054254,42.2789970000001,3380.0,Granite Ave opp Hilltop St
215,3382,0.0,0.0,13.05,time_period_02,-71.0479559999999,42.2714530000001,3382.0,Granite Ave opp Thistle Ave
215,3382,0.0,0.0,12.625,time_period_03,-71.0479559999999,42.2714530000001,3382.0,Granite Ave opp Thistle Ave
215,3382,0.0,0.0,9.01428571428571,time_period_04,-71.0479559999999,42.2714530000001,3382.0,Granite Ave opp Thistle Ave
215,3382,0.0,0.0,12.15,time_period_05,-71.0479559999999,42.2714530000001,3382.0,Granite Ave opp Thistle Ave
215,3382,0.04,0.0,10.4,time_period_06,-71.0479559999999,42.2714530000001,3382.0,Granite Ave opp Thistle Ave
215,3382,0.0,0.0,6.02,time_period_07,-71.0479559999999,42.2714530000001,3382.0,Granite Ave opp Thistle Ave
215,3382,0.0,0.0,3.65,time_period_08,-71.0479559999999,42.2714530000001,3382.0,Granite Ave opp Thistle Ave
215,3382,0.0041666666666666,0.0041666666666666,8.35,time_period_10,-71.0479559999999,42.2714530000001,3382.0,Granite Ave opp Thistle Ave
215,3382,0.0375,0.0375,8.625,time_period_11,-71.0479559999999,42.2714530000001,3382.0,Granite Ave opp Thistle Ave
215,3382,0.0,0.0,5.18571428571429,time_period_11,-71.0479559999999,42.2714530000001,3382.0,Granite Ave opp Thistle Ave
215,3384,0.0,0.0,13.05,time_period_02,-71.045251,42.266357,3384.0,Granite Ave opp Hope Ave
215,3384,0.0,0.0,12.6,time_period_03,-71.045251,42.266357,3384.0,Granite Ave opp Hope Ave
215,3384,0.0,0.0,9.01428571428571,time_period_04,-71.045251,42.266357,3384.0,Granite Ave opp Hope Ave
215,3384,0.0,0.0,12.125,time_period_05,-71.045251,42.266357,3384.0,Granite Ave opp Hope Ave
215,3384,0.0,0.0,10.4,time_period_06,-71.045251,42.266357,3384.0,Granite Ave opp Hope Ave
215,3384,0.0,0.0,6.02,time_period_07,-71.045251,42.266357,3384.0,Granite Ave opp Hope Ave
215,3384,0.0,0.0,3.65,time_period_08,-71.045251,42.266357,3384.0,Granite Ave opp Hope Ave
215,3384,0.0041666666666666,0.0125,8.375,time_period_10,-71.045251,42.266357,3384.0,Granite Ave opp Hope Ave
215,3384,0.0,0.0125,8.6125,time_period_11,-71.045251,42.266357,3384.0,Granite Ave opp Hope Ave
215,3384,0.0,0.0,5.18571428571429,time_period_11,-71.045251,42.266357,3384.0,Granite Ave opp Hope Ave
215,3385,0.0,0.0,13.05,time_period_02,-71.0446029999999,42.264975,3385.0,197 Granite Ave
215,3385,0.0,0.025,12.55,time_period_03,-71.0446029999999,42.264975,3385.0,197 Granite Ave
215,3385,0.0,0.0142857142857143,9.01428571428571,time_period_04,-71.0446029999999,42.264975,3385.0,197 Granite Ave
215,3385,0.0,0.05,12.1,time_period_05,-71.0446029999999,42.264975,3385.0,197 Granite Ave
215,3385,0.0,0.06,10.38,time_period_06,-71.0446029999999,42.264975,3385.0,197 Granite Ave
215,3385,0.0,0.0,5.98,time_period_07,-71.0446029999999,42.264975,3385.0,197 Granite Ave
215,3385,0.0,0.0,3.65,time_period_08,-71.0446029999999,42.264975,3385.0,197 Granite Ave
215,3385,0.0041666666666666,0.0125,8.36666666666667,time_period_10,-71.0446029999999,42.264975,3385.0,197 Granite Ave
215,3385,0.0,0.0,8.6875,time_period_11,-71.0446029999999,42.264975,3385.0,197 Granite Ave
215,3385,0.0,0.0142857142857143,5.17142857142857,time_period_11,-71.0446029999999,42.264975,3385.0,197 Granite Ave
215,3386,0.0,0.0,2.9,time_period_01,-71.0438139999999,42.2632980000001,3386.0,Granite Ave @ Squantum St
215,3386,0.0,0.0,13.05,time_period_02,-71.0438139999999,42.2632980000001,3386.0,Granite Ave @ Squantum St
215,3386,0.0,0.0,12.525,time_period_03,-71.0438139999999,42.2632980000001,3386.0,Granite Ave @ Squantum St
215,3386,0.0142857142857143,0.0,9.04285714285714,time_period_04,-71.0438139999999,42.2632980000001,3386.0,Granite Ave @ Squantum St
215,3386,0.0,0.15,11.975,time_period_05,-71.0438139999999,42.2632980000001,3386.0,Granite Ave @ Squantum St
215,3386,0.0,0.1,10.3,time_period_06,-71.0438139999999,42.2632980000001,3386.0,Granite Ave @ Squantum St
215,3386,0.0,0.06,5.94,time_period_07,-71.0438139999999,42.2632980000001,3386.0,Granite Ave @ Squantum St
215,3386,0.0,0.0,3.65,time_period_08,-71.0438139999999,42.2632980000001,3386.0,Granite Ave @ Squantum St
215,3386,0.0,0.0,0.5,time_period_10,-71.0438139999999,42.2632980000001,3386.0,Granite Ave @ Squantum St
215,3386,0.0041666666666666,0.0291666666666667,8.3375,time_period_10,-71.0438139999999,42.2632980000001,3386.0,Granite Ave @ Squantum St
215,3386,0.0,0.025,8.6625,time_period_11,-71.0438139999999,42.2632980000001,3386.0,Granite Ave @ Squantum St
215,3386,0.0,0.0285714285714286,5.14285714285714,time_period_11,-71.0438139999999,42.2632980000001,3386.0,Granite Ave @ Squantum St
215,3387,0.5,0.0,3.3,time_period_01,-71.043101,42.261736,3387.0,Granite Ave opp Emerson Rd
215,3387,0.0,0.0,13.05,time_period_02,-71.043101,42.261736,3387.0,Granite Ave opp Emerson Rd
215,3387,0.0,0.0,12.525,time_period_03,-71.043101,42.261736,3387.0,Granite Ave opp Emerson Rd
215,3387,0.0,0.0142857142857143,9.0,time_period_04,-71.043101,42.261736,3387.0,Granite Ave opp Emerson Rd
215,3387,0.0,0.05,11.925,time_period_05,-71.043101,42.261736,3387.0,Granite Ave opp Emerson Rd
215,3387,0.04,0.04,10.3,time_period_06,-71.043101,42.261736,3387.0,Granite Ave opp Emerson Rd
215,3387,0.0,0.0,5.94,time_period_07,-71.043101,42.261736,3387.0,Granite Ave opp Emerson Rd
215,3387,0.0,0.0,3.65,time_period_08,-71.043101,42.261736,3387.0,Granite Ave opp Emerson Rd
215,3387,0.2,0.0,0.7,time_period_10,-71.043101,42.261736,3387.0,Granite Ave opp Emerson Rd
215,3387,0.0083333333333333,0.0083333333333333,8.34166666666667,time_period_10,-71.043101,42.261736,3387.0,Granite Ave opp Emerson Rd
215,3387,0.0,0.0625,8.6,time_period_11,-71.043101,42.261736,3387.0,Granite Ave opp Emerson Rd
215,3387,0.0142857142857143,0.0285714285714286,5.12857142857143,time_period_11,-71.043101,42.261736,3387.0,Granite Ave opp Emerson Rd
215,3388,0.0,0.0,3.3,time_period_01,-71.0427799999999,42.261084,3388.0,Granite Ave opp Wood St
215,3388,0.0,0.1,12.95,time_period_02,-71.0427799999999,42.261084,3388.0,Granite Ave opp Wood St
215,3388,0.0,0.0,12.525,time_period_03,-71.0427799999999,42.261084,3388.0,Granite Ave opp Wood St
215,3388,0.0142857142857143,0.114285714285714,8.9,time_period_04,-71.0427799999999,42.261084,3388.0,Granite Ave opp Wood St
215,3388,0.025,0.05,11.925,time_period_05,-71.0427799999999,42.261084,3388.0,Granite Ave opp Wood St
215,3388,0.0,0.06,10.22,time_period_06,-71.0427799999999,42.261084,3388.0,Granite Ave opp Wood St
215,3388,0.0,0.06,5.9,time_period_07,-71.0427799999999,42.261084,3388.0,Granite Ave opp Wood St
215,3388,0.0,0.0,3.65,time_period_08,-71.0427799999999,42.261084,3388.0,Granite Ave opp Wood St
215,3388,0.0,0.0,0.7,time_period_10,-71.0427799999999,42.261084,3388.0,Granite Ave opp Wood St
215,3388,0.0208333333333333,0.0333333333333333,8.325,time_period_10,-71.0427799999999,42.261084,3388.0,Granite Ave opp Wood St
215,3388,0.0,0.1875,8.4125,time_period_11,-71.0427799999999,42.261084,3388.0,Granite Ave opp Wood St
215,3388,0.0,0.0,5.12857142857143,time_period_11,-71.0427799999999,42.261084,3388.0,Granite Ave opp Wood St
215,3389,0.0,0.0,3.3,time_period_01,-71.0426679999999,42.2586880000001,3389.0,Adams St @ Hollis St
215,3389,0.0,0.45,12.5,time_period_02,-71.0426679999999,42.2586880000001,3389.0,Adams St @ Hollis St
215,3389,0.025,1.4,11.175,time_period_03,-71.0426679999999,42.2586880000001,3389.0,Adams St @ Hollis St
215,3389,0.0285714285714286,0.442857142857143,8.52857142857143,time_period_04,-71.0426679999999,42.2586880000001,3389.0,Adams St @ Hollis St
215,3389,0.2,0.35,11.775,time_period_05,-71.0426679999999,42.2586880000001,3389.0,Adams St @ Hollis St
215,3389,0.1,0.52,9.82,time_period_06,-71.0426679999999,42.2586880000001,3389.0,Adams St @ Hollis St
215,3389,0.06,0.18,5.76,time_period_07,-71.0426679999999,42.2586880000001,3389.0,Adams St @ Hollis St
215,3389,0.0,0.0,3.6,time_period_08,-71.0426679999999,42.2586880000001,3389.0,Adams St @ Hollis St
215,3389,0.0,0.4,0.4,time_period_10,-71.0426679999999,42.2586880000001,3389.0,Adams St @ Hollis St
215,3389,0.0375,0.195833333333333,8.1625,time_period_10,-71.0426679999999,42.2586880000001,3389.0,Adams St @ Hollis St
215,3389,0.0125,0.1375,8.2875,time_period_11,-71.0426679999999,42.2586880000001,3389.0,Adams St @ Hollis St
215,3389,0.0142857142857143,0.185714285714286,4.97142857142857,time_period_11,-71.0426679999999,42.2586880000001,3389.0,Adams St @ Hollis St
215,3391,0.0,0.0,3.3,time_period_01,-71.039704,42.257936,3391.0,Adams St @ Mechanic St
215,3391,0.2,0.1,12.6,time_period_02,-71.039704,42.257936,3391.0,Adams St @ Mechanic St
215,3391,0.05,0.55,10.675,time_period_03,-71.039704,42.257936,3391.0,Adams St @ Mechanic St
215,3391,0.2,0.842857142857143,7.91428571428571,time_period_04,-71.039704,42.257936,3391.0,Adams St @ Mechanic St
215,3391,1.075,0.5,12.325,time_period_05,-71.039704,42.257936,3391.0,Adams St @ Mechanic St
215,3391,0.22,0.3,9.74,time_period_06,-71.039704,42.257936,3391.0,Adams St @ Mechanic St
215,3391,0.1,0.14,5.76,time_period_07,-71.039704,42.257936,3391.0,Adams St @ Mechanic St
215,3391,0.2,0.0,3.8,time_period_08,-71.039704,42.257936,3391.0,Adams St @ Mechanic St
215,3391,0.0,0.0,0.4,time_period_10,-71.039704,42.257936,3391.0,Adams St @ Mechanic St
215,3391,0.3125,0.466666666666667,8.0,time_period_10,-71.039704,42.257936,3391.0,Adams St @ Mechanic St
215,3391,0.475,0.3375,8.425,time_period_11,-71.039704,42.257936,3391.0,Adams St @ Mechanic St
215,3391,0.214285714285714,0.228571428571429,4.94285714285714,time_period_11,-71.039704,42.257936,3391.0,Adams St @ Mechanic St
215,3392,0.0,0.0,3.3,time_period_01,-71.037727,42.2575130000001,3392.0,Adams St @ Foster Ln
215,3392,0.0,0.0,12.6,time_period_02,-71.037727,42.2575130000001,3392.0,Adams St @ Foster Ln
215,3392,0.275,0.0,10.925,time_period_03,-71.037727,42.2575130000001,3392.0,Adams St @ Foster Ln
215,3392,0.0428571428571429,0.0,7.94285714285714,time_period_04,-71.037727,42.2575130000001,3392.0,Adams St @ Foster Ln
215,3392,0.1,0.025,12.375,time_period_05,-71.037727,42.2575130000001,3392.0,Adams St @ Foster Ln
215,3392,0.02,0.04,9.72,time_period_06,-71.037727,42.2575130000001,3392.0,Adams St @ Foster Ln
215,3392,0.0,0.04,5.7,time_period_07,-71.037727,42.2575130000001,3392.0,Adams St @ Foster Ln
215,3392,0.0,0.0,3.8,time_period_08,-71.037727,42.2575130000001,3392.0,Adams St @ Foster Ln
215,3392,0.0,0.0,0.4,time_period_10,-71.037727,42.2575130000001,3392.0,Adams St @ Foster Ln
215,3392,0.0791666666666667,0.0208333333333333,8.05416666666667,time_period_10,-71.037727,42.2575130000001,3392.0,Adams St @ Foster Ln
215,3392,0.1125,0.0,8.525,time_period_11,-71.037727,42.2575130000001,3392.0,Adams St @ Foster Ln
215,3392,0.0428571428571429,0.0142857142857143,4.98571428571429,time_period_11,-71.037727,42.2575130000001,3392.0,Adams St @ Foster Ln
215,3393,0.0,0.0,3.3,time_period_01,-71.0356879999999,42.2569070000001,3393.0,Adams St @ Pilgrim Rd
215,3393,0.0,0.0,12.6,time_period_02,-71.0356879999999,42.2569070000001,3393.0,Adams St @ Pilgrim Rd
215,3393,0.025,0.1,10.825,time_period_03,-71.0356879999999,42.2569070000001,3393.0,Adams St @ Pilgrim Rd
215,3393,0.0428571428571429,0.0285714285714286,7.94285714285714,time_period_04,-71.0356879999999,42.2569070000001,3393.0,Adams St @ Pilgrim Rd
215,3393,0.05,0.45,12.05,time_period_05,-71.0356879999999,42.2569070000001,3393.0,Adams St @ Pilgrim Rd
215,3393,0.04,0.18,9.56,time_period_06,-71.0356879999999,42.2569070000001,3393.0,Adams St @ Pilgrim Rd
215,3393,0.0,0.08,5.62,time_period_07,-71.0356879999999,42.2569070000001,3393.0,Adams St @ Pilgrim Rd
215,3393,0.0,0.3,3.5,time_period_08,-71.0356879999999,42.2569070000001,3393.0,Adams St @ Pilgrim Rd
215,3393,0.0,0.0,0.4,time_period_10,-71.0356879999999,42.2569070000001,3393.0,Adams St @ Pilgrim Rd
215,3393,0.0125,0.179166666666667,7.88333333333333,time_period_10,-71.0356879999999,42.2569070000001,3393.0,Adams St @ Pilgrim Rd
215,3393,0.0,0.1875,8.325,time_period_11,-71.0356879999999,42.2569070000001,3393.0,Adams St @ Pilgrim Rd
215,3393,0.0,0.0571428571428571,4.92857142857143,time_period_11,-71.0356879999999,42.2569070000001,3393.0,Adams St @ Pilgrim Rd
215,3394,0.0,0.0,3.3,time_period_01,-71.033739,42.2563030000001,3394.0,Adams St @ Stedman St
215,3394,0.0,0.0,12.65,time_period_02,-71.033739,42.2563030000001,3394.0,Adams St @ Stedman St
215,3394,0.0,0.15,10.775,time_period_03,-71.033739,42.2563030000001,3394.0,Adams St @ Stedman St
215,3394,0.0,0.0285714285714286,7.91428571428571,time_period_04,-71.033739,42.2563030000001,3394.0,Adams St @ Stedman St
215,3394,0.0,0.525,11.525,time_period_05,-71.033739,42.2563030000001,3394.0,Adams St @ Stedman St
215,3394,0.0,0.22,9.34,time_period_06,-71.033739,42.2563030000001,3394.0,Adams St @ Stedman St
215,3394,0.0,0.02,5.6,time_period_07,-71.033739,42.2563030000001,3394.0,Adams St @ Stedman St
215,3394,0.0,0.0,3.4,time_period_08,-71.033739,42.2563030000001,3394.0,Adams St @ Stedman St
215,3394,0.0,0.0,0.4,time_period_10,-71.033739,42.2563030000001,3394.0,Adams St @ Stedman St
215,3394,0.0083333333333333,0.2625,7.63333333333333,time_period_10,-71.033739,42.2563030000001,3394.0,Adams St @ Stedman St
215,3394,0.0125,0.4,7.925,time_period_11,-71.033739,42.2563030000001,3394.0,Adams St @ Stedman St
215,3394,0.0,0.114285714285714,4.82857142857143,time_period_11,-71.033739,42.2563030000001,3394.0,Adams St @ Stedman St
215,3395,0.3,0.0,3.6,time_period_01,-71.0327849999999,42.2558740000001,3395.0,Robertson St @ Adams St
215,3395,0.5,0.5,12.7,time_period_02,-71.0327849999999,42.2558740000001,3395.0,Robertson St @ Adams St
215,3395,1.9,0.0,1.9,time_period_02,-71.0327849999999,42.2558740000001,3395.0,Robertson St @ Adams St
215,3395,0.15,0.475,10.45,time_period_03,-71.0327849999999,42.2558740000001,3395.0,Robertson St @ Adams St
215,3395,0.414285714285714,0.142857142857143,8.15714285714286,time_period_04,-71.0327849999999,42.2558740000001,3395.0,Robertson St @ Adams St
215,3395,0.75,0.575,11.625,time_period_05,-71.0327849999999,42.2558740000001,3395.0,Robertson St @ Adams St
215,3395,0.48,0.28,9.6,time_period_06,-71.0327849999999,42.2558740000001,3395.0,Robertson St @ Adams St
215,3395,0.4,0.2,5.82,time_period_07,-71.0327849999999,42.2558740000001,3395.0,Robertson St @ Adams St
215,3395,0.45,0.05,3.8,time_period_08,-71.0327849999999,42.2558740000001,3395.0,Robertson St @ Adams St
215,3395,0.0,0.0,0.4,time_period_10,-71.0327849999999,42.2558740000001,3395.0,Robertson St @ Adams St
215,3395,0.479166666666667,0.329166666666667,7.77083333333333,time_period_10,-71.0327849999999,42.2558740000001,3395.0,Robertson St @ Adams St
215,3395,0.4625,0.2875,8.1,time_period_11,-71.0327849999999,42.2558740000001,3395.0,Robertson St @ Adams St
215,3395,0.742857142857143,0.114285714285714,5.41428571428571,time_period_11,-71.0327849999999,42.2558740000001,3395.0,Robertson St @ Adams St
215,3396,0.7,0.0,4.3,time_period_01,-71.033754,42.2547890000001,3396.0,Robertson St opp Kimball St
215,3396,0.15,0.0,12.9,time_period_02,-71.033754,42.2547890000001,3396.0,Robertson St opp Kimball St
215,3396,1.0,0.0,2.9,time_period_02,-71.033754,42.2547890000001,3396.0,Robertson St opp Kimball St
215,3396,0.15,0.0,10.625,time_period_03,-71.033754,42.2547890000001,3396.0,Robertson St opp Kimball St
215,3396,0.0714285714285714,0.0857142857142857,8.15714285714286,time_period_04,-71.033754,42.2547890000001,3396.0,Robertson St opp Kimball St
215,3396,0.025,0.175,11.475,time_period_05,-71.033754,42.2547890000001,3396.0,Robertson St opp Kimball St
215,3396,0.02,0.04,9.58,time_period_06,-71.033754,42.2547890000001,3396.0,Robertson St opp Kimball St
215,3396,0.02,0.0,5.84,time_period_07,-71.033754,42.2547890000001,3396.0,Robertson St opp Kimball St
215,3396,0.0,0.0,3.8,time_period_08,-71.033754,42.2547890000001,3396.0,Robertson St opp Kimball St
215,3396,0.8,0.0,1.2,time_period_10,-71.033754,42.2547890000001,3396.0,Robertson St opp Kimball St
215,3396,0.0583333333333333,0.0458333333333333,7.78333333333333,time_period_10,-71.033754,42.2547890000001,3396.0,Robertson St opp Kimball St
215,3396,0.0625,0.025,8.125,time_period_11,-71.033754,42.2547890000001,3396.0,Robertson St opp Kimball St
215,3396,0.0142857142857143,0.0,5.42857142857143,time_period_11,-71.033754,42.2547890000001,3396.0,Robertson St opp Kimball St
215,3397,0.0,0.0,4.3,time_period_01,-71.0343349999999,42.2541350000001,3397.0,77 Robertson St
215,3397,0.1,0.0,12.95,time_period_02,-71.0343349999999,42.2541350000001,3397.0,77 Robertson St
215,3397,0.8,0.0,3.9,time_period_02,-71.0343349999999,42.2541350000001,3397.0,77 Robertson St
215,3397,0.0,0.0,10.675,time_period_03,-71.0343349999999,42.2541350000001,3397.0,77 Robertson St
215,3397,0.0,0.0,8.15714285714286,time_period_04,-71.0343349999999,42.2541350000001,3397.0,77 Robertson St
215,3397,0.0,0.0,11.525,time_period_05,-71.0343349999999,42.2541350000001,3397.0,77 Robertson St
215,3397,0.02,0.0,9.6,time_period_06,-71.0343349999999,42.2541350000001,3397.0,77 Robertson St
215,3397,0.0,0.0,5.82,time_period_07,-71.0343349999999,42.2541350000001,3397.0,77 Robertson St
215,3397,0.0,0.0,3.8,time_period_08,-71.0343349999999,42.2541350000001,3397.0,77 Robertson St
215,3397,0.0,0.0,1.2,time_period_10,-71.0343349999999,42.2541350000001,3397.0,77 Robertson St
215,3397,0.0083333333333333,0.0083333333333333,7.775,time_period_10,-71.0343349999999,42.2541350000001,3397.0,77 Robertson St
215,3397,0.05,0.0,8.175,time_period_11,-71.0343349999999,42.2541350000001,3397.0,77 Robertson St
215,3397,0.0,0.0,5.42857142857143,time_period_11,-71.0343349999999,42.2541350000001,3397.0,77 Robertson St
215,3398,0.3,0.0,4.6,time_period_01,-71.035344,42.2529870000001,3398.0,Robertson St @ Ballou St
215,3398,0.1,0.0,13.05,time_period_02,-71.035344,42.2529870000001,3398.0,Robertson St @ Ballou St
215,3398,0.1,0.0,3.8,time_period_02,-71.035344,42.2529870000001,3398.0,Robertson St @ Ballou St
215,3398,0.275,0.025,10.875,time_period_03,-71.035344,42.2529870000001,3398.0,Robertson St @ Ballou St
215,3398,0.142857142857143,0.0571428571428571,8.25714285714286,time_period_04,-71.035344,42.2529870000001,3398.0,Robertson St @ Ballou St
215,3398,0.1,0.125,11.475,time_period_05,-71.035344,42.2529870000001,3398.0,Robertson St @ Ballou St
215,3398,0.2,0.16,9.64,time_period_06,-71.035344,42.2529870000001,3398.0,Robertson St @ Ballou St
215,3398,0.0,0.16,5.68,time_period_07,-71.035344,42.2529870000001,3398.0,Robertson St @ Ballou St
215,3398,0.0,0.0,3.8,time_period_08,-71.035344,42.2529870000001,3398.0,Robertson St @ Ballou St
215,3398,0.0,0.0,1.2,time_period_10,-71.035344,42.2529870000001,3398.0,Robertson St @ Ballou St
215,3398,0.025,0.1,7.71666666666667,time_period_10,-71.035344,42.2529870000001,3398.0,Robertson St @ Ballou St
215,3398,0.05,0.0125,8.2125,time_period_11,-71.035344,42.2529870000001,3398.0,Robertson St @ Ballou St
215,3398,0.0285714285714286,0.0142857142857143,5.44285714285714,time_period_11,-71.035344,42.2529870000001,3398.0,Robertson St @ Ballou St
215,3399,0.1,0.0,4.7,time_period_01,-71.0359319999999,42.2523580000001,3399.0,Robertson St @ Quarry St
215,3399,0.0,0.05,13.0,time_period_02,-71.0359319999999,42.2523580000001,3399.0,Robertson St @ Quarry St
215,3399,0.0,0.0,4.0,time_period_02,-71.0359319999999,42.2523580000001,3399.0,Robertson St @ Quarry St
215,3399,0.125,0.25,10.775,time_period_03,-71.0359319999999,42.2523580000001,3399.0,Robertson St @ Quarry St
215,3399,0.1,0.171428571428571,8.2,time_period_04,-71.0359319999999,42.2523580000001,3399.0,Robertson St @ Quarry St
215,3399,0.15,0.175,11.475,time_period_05,-71.0359319999999,42.2523580000001,3399.0,Robertson St @ Quarry St
215,3399,0.08,0.1,9.6,time_period_06,-71.0359319999999,42.2523580000001,3399.0,Robertson St @ Quarry St
215,3399,0.0,0.08,5.66,time_period_07,-71.0359319999999,42.2523580000001,3399.0,Robertson St @ Quarry St
215,3399,0.0,0.05,3.85,time_period_08,-71.0359319999999,42.2523580000001,3399.0,Robertson St @ Quarry St
215,3399,0.0,0.0,1.2,time_period_10,-71.0359319999999,42.2523580000001,3399.0,Robertson St @ Quarry St
215,3399,0.133333333333333,0.1375,7.72916666666667,time_period_10,-71.0359319999999,42.2523580000001,3399.0,Robertson St @ Quarry St
215,3399,0.0875,0.1375,8.15,time_period_11,-71.0359319999999,42.2523580000001,3399.0,Robertson St @ Quarry St
215,3399,0.0857142857142857,0.0571428571428571,5.41428571428571,time_period_11,-71.0359319999999,42.2523580000001,3399.0,Robertson St @ Quarry St
215,3400,0.0,0.0,4.7,time_period_01,-71.036552,42.251405,3400.0,Willard St @ Robertson St
215,3400,0.3,0.95,12.4,time_period_02,-71.036552,42.251405,3400.0,Willard St @ Robertson St
215,3400,0.5,0.0,4.3,time_period_02,-71.036552,42.251405,3400.0,Willard St @ Robertson St
215,3400,0.45,0.4,10.75,time_period_03,-71.036552,42.251405,3400.0,Willard St @ Robertson St
215,3400,0.242857142857143,0.228571428571429,8.21428571428571,time_period_04,-71.036552,42.251405,3400.0,Willard St @ Robertson St
215,3400,0.5,0.3,11.675,time_period_05,-71.036552,42.251405,3400.0,Willard St @ Robertson St
215,3400,0.26,0.56,9.32,time_period_06,-71.036552,42.251405,3400.0,Willard St @ Robertson St
215,3400,0.64,0.2,6.06,time_period_07,-71.036552,42.251405,3400.0,Willard St @ Robertson St
215,3400,0.05,0.5,3.45,time_period_08,-71.036552,42.251405,3400.0,Willard St @ Robertson St
215,3400,0.1,0.0,1.3,time_period_10,-71.036552,42.251405,3400.0,Willard St @ Robertson St
215,3400,0.325,0.304166666666667,7.74166666666667,time_period_10,-71.036552,42.251405,3400.0,Willard St @ Robertson St
215,3400,0.2875,0.3125,8.1,time_period_11,-71.036552,42.251405,3400.0,Willard St @ Robertson St
215,3400,0.242857142857143,0.214285714285714,5.42857142857143,time_period_11,-71.036552,42.251405,3400.0,Willard St @ Robertson St
215,3401,1.0,0.0,5.7,time_period_01,-71.0352799999999,42.2496080000001,3401.0,Willard St opp Rogers St
215,3401,0.2,0.0,12.55,time_period_02,-71.0352799999999,42.2496080000001,3401.0,Willard St opp Rogers St
215,3401,0.4,0.0,4.6,time_period_02,-71.0352799999999,42.2496080000001,3401.0,Willard St opp Rogers St
215,3401,0.1,0.15,10.7,time_period_03,-71.0352799999999,42.2496080000001,3401.0,Willard St opp Rogers St
215,3401,0.114285714285714,0.0,8.3,time_period_04,-71.0352799999999,42.2496080000001,3401.0,Willard St opp Rogers St
215,3401,0.075,0.025,11.75,time_period_05,-71.0352799999999,42.2496080000001,3401.0,Willard St opp Rogers St
215,3401,0.04,0.08,9.28,time_period_06,-71.0352799999999,42.2496080000001,3401.0,Willard St opp Rogers St
215,3401,0.02,0.02,6.08,time_period_07,-71.0352799999999,42.2496080000001,3401.0,Willard St opp Rogers St
215,3401,0.0,0.0,3.4,time_period_08,-71.0352799999999,42.2496080000001,3401.0,Willard St opp Rogers St
215,3401,0.8,0.0,2.2,time_period_10,-71.0352799999999,42.2496080000001,3401.0,Willard St opp Rogers St
215,3401,0.0875,0.0333333333333333,7.80416666666667,time_period_10,-71.0352799999999,42.2496080000001,3401.0,Willard St opp Rogers St
215,3401,0.225,0.0125,8.325,time_period_11,-71.0352799999999,42.2496080000001,3401.0,Willard St opp Rogers St
215,3401,0.185714285714286,0.0142857142857143,5.6,time_period_11,-71.0352799999999,42.2496080000001,3401.0,Willard St opp Rogers St
215,3402,0.2,0.0,5.8,time_period_01,-71.033538,42.247442,3402.0,Willard St @ California Ave
215,3402,0.7,0.55,12.75,time_period_02,-71.033538,42.247442,3402.0,Willard St @ California Ave
215,3402,0.9,0.0,5.5,time_period_02,-71.033538,42.247442,3402.0,Willard St @ California Ave
215,3402,0.35,0.175,10.85,time_period_03,-71.033538,42.247442,3402.0,Willard St @ California Ave
215,3402,0.214285714285714,0.114285714285714,8.37142857142857,time_period_04,-71.033538,42.247442,3402.0,Willard St @ California Ave
215,3402,0.5,0.1,12.1,time_period_05,-71.033538,42.247442,3402.0,Willard St @ California Ave
215,3402,0.32,0.18,9.42,time_period_06,-71.033538,42.247442,3402.0,Willard St @ California Ave
215,3402,0.1,0.12,6.04,time_period_07,-71.033538,42.247442,3402.0,Willard St @ California Ave
215,3402,0.25,0.1,3.55,time_period_08,-71.033538,42.247442,3402.0,Willard St @ California Ave
215,3402,0.1,0.0,2.2,time_period_10,-71.033538,42.247442,3402.0,Willard St @ California Ave
215,3402,0.175,0.1125,7.85416666666667,time_period_10,-71.033538,42.247442,3402.0,Willard St @ California Ave
215,3402,0.1875,0.05,8.4625,time_period_11,-71.033538,42.247442,3402.0,Willard St @ California Ave
215,3402,0.185714285714286,0.128571428571429,5.65714285714286,time_period_11,-71.033538,42.247442,3402.0,Willard St @ California Ave
215,34021,0.0,0.0,5.9,time_period_01,-71.0327,42.24645,34021.0,Willard St @ Bates Ave
215,34021,0.35,0.0,13.05,time_period_02,-71.0327,42.24645,34021.0,Willard St @ Bates Ave
215,34021,0.1,0.0,5.7,time_period_02,-71.0327,42.24645,34021.0,Willard St @ Bates Ave
215,34021,0.05,0.0,10.925,time_period_03,-71.0327,42.24645,34021.0,Willard St @ Bates Ave
215,34021,0.1,0.157142857142857,8.35714285714286,time_period_04,-71.0327,42.24645,34021.0,Willard St @ Bates Ave
215,34021,0.075,0.125,12.1,time_period_05,-71.0327,42.24645,34021.0,Willard St @ Bates Ave
215,34021,0.08,0.06,9.44,time_period_06,-71.0327,42.24645,34021.0,Willard St @ Bates Ave
215,34021,0.12,0.08,6.08,time_period_07,-71.0327,42.24645,34021.0,Willard St @ Bates Ave
215,34021,0.15,0.05,3.7,time_period_08,-71.0327,42.24645,34021.0,Willard St @ Bates Ave
215,34021,0.0,0.0,2.2,time_period_10,-71.0327,42.24645,34021.0,Willard St @ Bates Ave
215,34021,0.133333333333333,0.075,7.925,time_period_10,-71.0327,42.24645,34021.0,Willard St @ Bates Ave
215,34021,0.1125,0.1,8.5,time_period_11,-71.0327,42.24645,34021.0,Willard St @ Bates Ave
215,34021,0.157142857142857,0.0142857142857143,5.78571428571429,time_period_11,-71.0327,42.24645,34021.0,Willard St @ Bates Ave
215,3403,0.0,0.0,5.9,time_period_01,-71.031821,42.2454310000001,3403.0,307 Willard St
215,3403,0.75,0.25,13.55,time_period_02,-71.031821,42.2454310000001,3403.0,307 Willard St
215,3403,1.9,0.0,7.5,time_period_02,-71.031821,42.2454310000001,3403.0,307 Willard St
215,3403,0.45,0.275,11.075,time_period_03,-71.031821,42.2454310000001,3403.0,307 Willard St
215,3403,0.214285714285714,0.128571428571429,8.48571428571429,time_period_04,-71.031821,42.2454310000001,3403.0,307 Willard St
215,3403,0.35,0.25,12.15,time_period_05,-71.031821,42.2454310000001,3403.0,307 Willard St
215,3403,0.34,0.24,9.58,time_period_06,-71.031821,42.2454310000001,3403.0,307 Willard St
215,3403,0.02,0.1,6.04,time_period_07,-71.031821,42.2454310000001,3403.0,307 Willard St
215,3403,0.05,0.2,3.6,time_period_08,-71.031821,42.2454310000001,3403.0,307 Willard St
215,3403,0.0,0.0,2.2,time_period_10,-71.031821,42.2454310000001,3403.0,307 Willard St
215,3403,0.258333333333333,0.175,7.99583333333333,time_period_10,-71.031821,42.2454310000001,3403.0,307 Willard St
215,3403,0.225,0.325,8.4,time_period_11,-71.031821,42.2454310000001,3403.0,307 Willard St
215,3403,0.3,0.142857142857143,5.94285714285714,time_period_11,-71.031821,42.2454310000001,3403.0,307 Willard St
215,3404,0.3,0.0,6.2,time_period_01,-71.030248,42.245373,3404.0,Copeland St opp Badgers Ln
215,3404,0.25,0.0,13.8,time_period_02,-71.030248,42.245373,3404.0,Copeland St opp Badgers Ln
215,3404,1.0,0.0,8.6,time_period_02,-71.030248,42.245373,3404.0,Copeland St opp Badgers Ln
215,3404,1.7,0.025,12.775,time_period_03,-71.030248,42.245373,3404.0,Copeland St opp Badgers Ln
215,3404,0.2,0.0857142857142857,8.57142857142857,time_period_04,-71.030248,42.245373,3404.0,Copeland St opp Badgers Ln
215,3404,0.425,0.225,12.375,time_period_05,-71.030248,42.245373,3404.0,Copeland St opp Badgers Ln
215,3404,0.1,0.26,9.38,time_period_06,-71.030248,42.245373,3404.0,Copeland St opp Badgers Ln
215,3404,0.0,0.06,5.98,time_period_07,-71.030248,42.245373,3404.0,Copeland St opp Badgers Ln
215,3404,0.0,0.1,3.55,time_period_08,-71.030248,42.245373,3404.0,Copeland St opp Badgers Ln
215,3404,0.0,0.0,2.2,time_period_10,-71.030248,42.245373,3404.0,Copeland St opp Badgers Ln
215,3404,0.125,0.05,8.07083333333333,time_period_10,-71.030248,42.245373,3404.0,Copeland St opp Badgers Ln
215,3404,0.1625,0.0625,8.4875,time_period_11,-71.030248,42.245373,3404.0,Copeland St opp Badgers Ln
215,3404,0.0285714285714286,0.0428571428571429,5.92857142857143,time_period_11,-71.030248,42.245373,3404.0,Copeland St opp Badgers Ln
215,3405,0.7,0.0,6.9,time_period_01,-71.0279849999999,42.2452430000001,3405.0,Copeland St @ Furnace Ave
215,3405,0.4,0.15,14.0,time_period_02,-71.0279849999999,42.2452430000001,3405.0,Copeland St @ Furnace Ave
215,3405,1.4,0.0,9.9,time_period_02,-71.0279849999999,42.2452430000001,3405.0,Copeland St @ Furnace Ave
215,3405,0.325,0.0,13.025,time_period_03,-71.0279849999999,42.2452430000001,3405.0,Copeland St @ Furnace Ave
215,3405,0.242857142857143,0.0,8.77142857142857,time_period_04,-71.0279849999999,42.2452430000001,3405.0,Copeland St @ Furnace Ave
215,3405,0.4,0.05,12.75,time_period_05,-71.0279849999999,42.2452430000001,3405.0,Copeland St @ Furnace Ave
215,3405,0.2,0.08,9.48,time_period_06,-71.0279849999999,42.2452430000001,3405.0,Copeland St @ Furnace Ave
215,3405,0.0,0.22,5.76,time_period_07,-71.0279849999999,42.2452430000001,3405.0,Copeland St @ Furnace Ave
215,3405,0.0,0.0,3.55,time_period_08,-71.0279849999999,42.2452430000001,3405.0,Copeland St @ Furnace Ave
215,3405,0.0,0.0,2.2,time_period_10,-71.0279849999999,42.2452430000001,3405.0,Copeland St @ Furnace Ave
215,3405,0.233333333333333,0.0291666666666667,8.25,time_period_10,-71.0279849999999,42.2452430000001,3405.0,Copeland St @ Furnace Ave
215,3405,0.225,0.0375,8.7,time_period_11,-71.0279849999999,42.2452430000001,3405.0,Copeland St @ Furnace Ave
215,3405,0.0571428571428571,0.0142857142857143,5.95714285714286,time_period_11,-71.0279849999999,42.2452430000001,3405.0,Copeland St @ Furnace Ave
215,3406,0.2,0.0,7.1,time_period_01,-71.026739,42.244947,3406.0,Copeland St @ Cross St
215,3406,0.35,0.2,14.2,time_period_02,-71.026739,42.244947,3406.0,Copeland St @ Cross St
215,3406,2.7,0.0,12.6,time_period_02,-71.026739,42.244947,3406.0,Copeland St @ Cross St
215,3406,0.4,0.15,13.275,time_period_03,-71.026739,42.244947,3406.0,Copeland St @ Cross St
215,3406,0.428571428571429,0.0285714285714286,9.18571428571428,time_period_04,-71.026739,42.244947,3406.0,Copeland St @ Cross St
215,3406,0.175,0.15,12.825,time_period_05,-71.026739,42.244947,3406.0,Copeland St @ Cross St
215,3406,0.22,0.18,9.52,time_period_06,-71.026739,42.244947,3406.0,Copeland St @ Cross St
215,3406,0.06,0.18,5.64,time_period_07,-71.026739,42.244947,3406.0,Copeland St @ Cross St
215,3406,0.0,0.05,3.45,time_period_08,-71.026739,42.244947,3406.0,Copeland St @ Cross St
215,3406,0.1,0.0,2.3,time_period_10,-71.026739,42.244947,3406.0,Copeland St @ Cross St
215,3406,0.120833333333333,0.0583333333333333,8.32083333333333,time_period_10,-71.026739,42.244947,3406.0,Copeland St @ Cross St
215,3406,0.25,0.0625,8.875,time_period_11,-71.026739,42.244947,3406.0,Copeland St @ Cross St
215,3406,0.0857142857142857,0.0285714285714286,6.02857142857143,time_period_11,-71.026739,42.244947,3406.0,Copeland St @ Cross St
215,3407,0.4,0.0,7.5,time_period_01,-71.024941,42.2443470000001,3407.0,Copeland St @ Furnace Brook Pkwy
215,3407,0.1,0.05,14.25,time_period_02,-71.024941,42.2443470000001,3407.0,Copeland St @ Furnace Brook Pkwy
215,3407,0.4,0.0,13.0,time_period_02,-71.024941,42.2443470000001,3407.0,Copeland St @ Furnace Brook Pkwy
215,3407,0.175,0.025,13.425,time_period_03,-71.024941,42.2443470000001,3407.0,Copeland St @ Furnace Brook Pkwy
215,3407,0.3,0.0428571428571429,9.41428571428572,time_period_04,-71.024941,42.2443470000001,3407.0,Copeland St @ Furnace Brook Pkwy
215,3407,0.35,0.075,13.05,time_period_05,-71.024941,42.2443470000001,3407.0,Copeland St @ Furnace Brook Pkwy
215,3407,0.28,0.04,9.76,time_period_06,-71.024941,42.2443470000001,3407.0,Copeland St @ Furnace Brook Pkwy
215,3407,0.02,0.02,5.64,time_period_07,-71.024941,42.2443470000001,3407.0,Copeland St @ Furnace Brook Pkwy
215,3407,0.0,0.0,3.45,time_period_08,-71.024941,42.2443470000001,3407.0,Copeland St @ Furnace Brook Pkwy
215,3407,0.1,0.0,2.4,time_period_10,-71.024941,42.2443470000001,3407.0,Copeland St @ Furnace Brook Pkwy
215,3407,0.1125,0.0208333333333333,8.40833333333333,time_period_10,-71.024941,42.2443470000001,3407.0,Copeland St @ Furnace Brook Pkwy
215,3407,0.2125,0.0125,9.075,time_period_11,-71.024941,42.2443470000001,3407.0,Copeland St @ Furnace Brook Pkwy
215,3407,0.0571428571428571,0.0,6.08571428571429,time_period_11,-71.024941,42.2443470000001,3407.0,Copeland St @ Furnace Brook Pkwy
215,3408,1.2,0.0,8.7,time_period_01,-71.02302,42.243258,3408.0,Copeland St @ Centre St
215,3408,1.1,0.8,14.55,time_period_02,-71.02302,42.243258,3408.0,Copeland St @ Centre St
215,3408,1.6,0.0,14.7,time_period_02,-71.02302,42.243258,3408.0,Copeland St @ Centre St
215,3408,0.825,0.675,13.575,time_period_03,-71.02302,42.243258,3408.0,Copeland St @ Centre St
215,3408,0.657142857142857,0.542857142857143,9.54285714285714,time_period_04,-71.02302,42.243258,3408.0,Copeland St @ Centre St
215,3408,0.35,0.9,12.6,time_period_05,-71.02302,42.243258,3408.0,Copeland St @ Centre St
215,3408,0.26,0.98,9.06,time_period_06,-71.02302,42.243258,3408.0,Copeland St @ Centre St
215,3408,0.1,0.36,5.34,time_period_07,-71.02302,42.243258,3408.0,Copeland St @ Centre St
215,3408,0.3,0.05,3.7,time_period_08,-71.02302,42.243258,3408.0,Copeland St @ Centre St
215,3408,1.2,0.0,3.5,time_period_10,-71.02302,42.243258,3408.0,Copeland St @ Centre St
215,3408,0.420833333333333,0.4,8.44583333333333,time_period_10,-71.02302,42.243258,3408.0,Copeland St @ Centre St
215,3408,0.5,0.775,8.8,time_period_11,-71.02302,42.243258,3408.0,Copeland St @ Centre St
215,3408,0.142857142857143,0.142857142857143,6.08571428571429,time_period_11,-71.02302,42.243258,3408.0,Copeland St @ Centre St
215,3410,1.4,0.0,10.0,time_period_01,-71.019661,42.242739,3410.0,Copeland St opp Buckley St
215,3410,1.9,0.1,16.4,time_period_02,-71.019661,42.242739,3410.0,Copeland St opp Buckley St
215,3410,3.7,0.0,18.3,time_period_02,-71.019661,42.242739,3410.0,Copeland St opp Buckley St
215,3410,1.675,0.125,15.25,time_period_03,-71.019661,42.242739,3410.0,Copeland St opp Buckley St
215,3410,0.571428571428571,0.285714285714286,9.78571428571429,time_period_04,-71.019661,42.242739,3410.0,Copeland St opp Buckley St
215,3410,0.725,0.325,12.975,time_period_05,-71.019661,42.242739,3410.0,Copeland St opp Buckley St
215,3410,0.4,0.5,8.96,time_period_06,-71.019661,42.242739,3410.0,Copeland St opp Buckley St
215,3410,0.1,0.42,5.02,time_period_07,-71.019661,42.242739,3410.0,Copeland St opp Buckley St
215,3410,0.05,0.35,3.45,time_period_08,-71.019661,42.242739,3410.0,Copeland St opp Buckley St
215,3410,2.5,0.0,6.0,time_period_10,-71.019661,42.242739,3410.0,Copeland St opp Buckley St
215,3410,0.683333333333333,0.245833333333333,8.86666666666667,time_period_10,-71.019661,42.242739,3410.0,Copeland St opp Buckley St
215,3410,0.7125,0.35,9.1375,time_period_11,-71.019661,42.242739,3410.0,Copeland St opp Buckley St
215,3410,0.585714285714286,0.328571428571429,6.37142857142857,time_period_11,-71.019661,42.242739,3410.0,Copeland St opp Buckley St
215,3411,3.6,0.0,13.6,time_period_01,-71.017446,42.2425430000001,3411.0,38 Copeland St
215,3411,0.45,0.0,16.8,time_period_02,-71.017446,42.2425430000001,3411.0,38 Copeland St
215,3411,3.6,0.0,21.7,time_period_02,-71.017446,42.2425430000001,3411.0,38 Copeland St
215,3411,0.45,0.0,15.675,time_period_03,-71.017446,42.2425430000001,3411.0,38 Copeland St
215,3411,0.2,0.0285714285714286,9.98571428571429,time_period_04,-71.017446,42.2425430000001,3411.0,38 Copeland St
215,3411,0.15,0.05,13.05,time_period_05,-71.017446,42.2425430000001,3411.0,38 Copeland St
215,3411,0.06,0.06,8.96,time_period_06,-71.017446,42.2425430000001,3411.0,38 Copeland St
215,3411,0.02,0.1,4.96,time_period_07,-71.017446,42.2425430000001,3411.0,38 Copeland St
215,3411,0.0,0.0,3.4,time_period_08,-71.017446,42.2425430000001,3411.0,38 Copeland St
215,3411,0.2,0.0,6.2,time_period_10,-71.017446,42.2425430000001,3411.0,38 Copeland St
215,3411,0.383333333333333,0.0375,9.21666666666667,time_period_10,-71.017446,42.2425430000001,3411.0,38 Copeland St
215,3411,0.275,0.075,9.3625,time_period_11,-71.017446,42.2425430000001,3411.0,38 Copeland St
215,3411,0.185714285714286,0.0285714285714286,6.52857142857143,time_period_11,-71.017446,42.2425430000001,3411.0,38 Copeland St
215,3412,3.4,0.0,17.0,time_period_01,-71.0153759999999,42.242378,3412.0,Copeland St @ Granite St
215,3412,3.75,0.2,20.25,time_period_02,-71.0153759999999,42.242378,3412.0,Copeland St @ Granite St
215,3412,4.4,0.2,25.9,time_period_02,-71.0153759999999,42.242378,3412.0,Copeland St @ Granite St
215,3412,2.1,0.925,16.875,time_period_03,-71.0153759999999,42.242378,3412.0,Copeland St @ Granite St
215,3412,1.1,0.185714285714286,10.8857142857143,time_period_04,-71.0153759999999,42.242378,3412.0,Copeland St @ Granite St
215,3412,1.375,0.775,13.675,time_period_05,-71.0153759999999,42.242378,3412.0,Copeland St @ Granite St
215,3412,0.44,0.76,8.64,time_period_06,-71.0153759999999,42.242378,3412.0,Copeland St @ Granite St
215,3412,0.16,0.66,4.48,time_period_07,-71.0153759999999,42.242378,3412.0,Copeland St @ Granite St
215,3412,0.0,0.45,3.0,time_period_08,-71.0153759999999,42.242378,3412.0,Copeland St @ Granite St
215,3412,0.9,0.0,7.1,time_period_10,-71.0153759999999,42.242378,3412.0,Copeland St @ Granite St
215,3412,0.616666666666667,0.291666666666667,9.53333333333333,time_period_10,-71.0153759999999,42.242378,3412.0,Copeland St @ Granite St
215,3412,0.7375,0.35,9.7375,time_period_11,-71.0153759999999,42.242378,3412.0,Copeland St @ Granite St
215,3412,0.328571428571429,0.271428571428571,6.57142857142857,time_period_11,-71.0153759999999,42.242378,3412.0,Copeland St @ Granite St
215,3413,0.2,0.0,17.1,time_period_01,-71.0134659999999,42.24195,3413.0,Water St @ Roberts St
215,3413,0.6,0.2,20.7,time_period_02,-71.0134659999999,42.24195,3413.0,Water St @ Roberts St
215,3413,2.2,0.1,28.0,time_period_02,-71.0134659999999,42.24195,3413.0,Water St @ Roberts St
215,3413,0.875,0.125,17.65,time_period_03,-71.0134659999999,42.24195,3413.0,Water St @ Roberts St
215,3413,0.142857142857143,0.0571428571428571,10.9714285714286,time_period_04,-71.0134659999999,42.24195,3413.0,Water St @ Roberts St
215,3413,0.2,0.1,13.775,time_period_05,-71.0134659999999,42.24195,3413.0,Water St @ Roberts St
215,3413,0.2,0.08,8.68,time_period_06,-71.0134659999999,42.24195,3413.0,Water St @ Roberts St
215,3413,0.06,0.16,4.4,time_period_07,-71.0134659999999,42.24195,3413.0,Water St @ Roberts St
215,3413,0.05,0.1,3.0,time_period_08,-71.0134659999999,42.24195,3413.0,Water St @ Roberts St
215,3413,0.2,0.0,7.2,time_period_10,-71.0134659999999,42.24195,3413.0,Water St @ Roberts St
215,3413,0.2875,0.0958333333333333,9.72916666666667,time_period_10,-71.0134659999999,42.24195,3413.0,Water St @ Roberts St
215,3413,0.1875,0.05,9.8875,time_period_11,-71.0134659999999,42.24195,3413.0,Water St @ Roberts St
215,3413,0.285714285714286,0.0142857142857143,6.84285714285714,time_period_11,-71.0134659999999,42.24195,3413.0,Water St @ Roberts St
215,3415,0.0,0.0,17.1,time_period_01,-71.011541,42.241494,3415.0,315 Water St
215,3415,0.05,0.0,20.75,time_period_02,-71.011541,42.241494,3415.0,315 Water St
215,3415,0.1,0.0,28.0,time_period_02,-71.011541,42.241494,3415.0,315 Water St
215,3415,0.8,0.1,18.375,time_period_03,-71.011541,42.241494,3415.0,315 Water St
215,3415,0.757142857142857,0.0714285714285714,11.6285714285714,time_period_04,-71.011541,42.241494,3415.0,315 Water St
215,3415,0.85,0.1,14.525,time_period_05,-71.011541,42.241494,3415.0,315 Water St
215,3415,0.22,0.1,8.82,time_period_06,-71.011541,42.241494,3415.0,315 Water St
215,3415,0.08,0.1,4.36,time_period_07,-71.011541,42.241494,3415.0,315 Water St
215,3415,0.0,0.0,3.0,time_period_08,-71.011541,42.241494,3415.0,315 Water St
215,3415,0.1,0.0,7.3,time_period_10,-71.011541,42.241494,3415.0,315 Water St
215,3415,0.279166666666667,0.0125,9.975,time_period_10,-71.011541,42.241494,3415.0,315 Water St
215,3415,0.225,0.025,10.0625,time_period_11,-71.011541,42.241494,3415.0,315 Water St
215,3415,0.142857142857143,0.0,6.98571428571429,time_period_11,-71.011541,42.241494,3415.0,315 Water St
215,3416,0.0,0.0,17.1,time_period_01,-71.008902,42.2408520000001,3416.0,Water St @ Quincy St
215,3416,0.05,0.2,20.7,time_period_02,-71.008902,42.2408520000001,3416.0,Water St @ Quincy St
215,3416,0.2,0.1,28.2,time_period_02,-71.008902,42.2408520000001,3416.0,Water St @ Quincy St
215,3416,0.625,0.325,18.7,time_period_03,-71.008902,42.2408520000001,3416.0,Water St @ Quincy St
215,3416,0.557142857142857,0.114285714285714,12.1142857142857,time_period_04,-71.008902,42.2408520000001,3416.0,Water St @ Quincy St
215,3416,0.35,0.275,14.625,time_period_05,-71.008902,42.2408520000001,3416.0,Water St @ Quincy St
215,3416,0.02,0.06,8.82,time_period_06,-71.008902,42.2408520000001,3416.0,Water St @ Quincy St
215,3416,0.06,0.1,4.32,time_period_07,-71.008902,42.2408520000001,3416.0,Water St @ Quincy St
215,3416,0.0,0.05,2.9,time_period_08,-71.008902,42.2408520000001,3416.0,Water St @ Quincy St
215,3416,0.0,0.0,7.3,time_period_10,-71.008902,42.2408520000001,3416.0,Water St @ Quincy St
215,3416,0.25,0.183333333333333,10.0625,time_period_10,-71.008902,42.2408520000001,3416.0,Water St @ Quincy St
215,3416,0.1625,0.1,10.1125,time_period_11,-71.008902,42.2408520000001,3416.0,Water St @ Quincy St
215,3416,0.514285714285714,0.157142857142857,7.34285714285714,time_period_11,-71.008902,42.2408520000001,3416.0,Water St @ Quincy St
215,3417,0.0,0.0,17.1,time_period_01,-71.006097,42.2406590000001,3417.0,Water St @ Liberty St
215,3417,0.55,0.0,21.2,time_period_02,-71.006097,42.2406590000001,3417.0,Water St @ Liberty St
215,3417,1.6,0.0,29.7,time_period_02,-71.006097,42.2406590000001,3417.0,Water St @ Liberty St
215,3417,0.175,0.075,18.725,time_period_03,-71.006097,42.2406590000001,3417.0,Water St @ Liberty St
215,3417,0.157142857142857,0.171428571428571,12.1142857142857,time_period_04,-71.006097,42.2406590000001,3417.0,Water St @ Liberty St
215,3417,0.05,0.275,14.425,time_period_05,-71.006097,42.2406590000001,3417.0,Water St @ Liberty St
215,3417,0.08,0.24,8.58,time_period_06,-71.006097,42.2406590000001,3417.0,Water St @ Liberty St
215,3417,0.04,0.14,4.2,time_period_07,-71.006097,42.2406590000001,3417.0,Water St @ Liberty St
215,3417,0.05,0.1,2.9,time_period_08,-71.006097,42.2406590000001,3417.0,Water St @ Liberty St
215,3417,0.0,0.0,7.3,time_period_10,-71.006097,42.2406590000001,3417.0,Water St @ Liberty St
215,3417,0.0583333333333333,0.104166666666667,10.0291666666667,time_period_10,-71.006097,42.2406590000001,3417.0,Water St @ Liberty St
215,3417,0.0625,0.3375,9.675,time_period_11,-71.006097,42.2406590000001,3417.0,Water St @ Liberty St
215,3417,0.128571428571429,0.0285714285714286,7.44285714285714,time_period_11,-71.006097,42.2406590000001,3417.0,Water St @ Liberty St
215,3418,0.0,1.2,16.0,time_period_01,-71.003462,42.2420250000001,3418.0,Franklin St @ Water St
215,3418,0.45,1.5,20.2,time_period_02,-71.003462,42.2420250000001,3418.0,Franklin St @ Water St
215,3418,0.7,0.2,30.2,time_period_02,-71.003462,42.2420250000001,3418.0,Franklin St @ Water St
215,3418,0.425,0.825,18.3,time_period_03,-71.003462,42.2420250000001,3418.0,Franklin St @ Water St
215,3418,0.171428571428571,0.885714285714286,11.4285714285714,time_period_04,-71.003462,42.2420250000001,3418.0,Franklin St @ Water St
215,3418,0.15,1.075,13.5,time_period_05,-71.003462,42.2420250000001,3418.0,Franklin St @ Water St
215,3418,0.06,0.52,8.14,time_period_06,-71.003462,42.2420250000001,3418.0,Franklin St @ Water St
215,3418,0.06,0.3,4.0,time_period_07,-71.003462,42.2420250000001,3418.0,Franklin St @ Water St
215,3418,0.05,0.2,2.7,time_period_08,-71.003462,42.2420250000001,3418.0,Franklin St @ Water St
215,3418,0.3,0.2,7.4,time_period_10,-71.003462,42.2420250000001,3418.0,Franklin St @ Water St
215,3418,0.179166666666667,0.695833333333333,9.5,time_period_10,-71.003462,42.2420250000001,3418.0,Franklin St @ Water St
215,3418,0.1375,0.7375,9.1625,time_period_11,-71.003462,42.2420250000001,3418.0,Franklin St @ Water St
215,3418,0.414285714285714,0.914285714285714,6.94285714285714,time_period_11,-71.003462,42.2420250000001,3418.0,Franklin St @ Water St
215,3420,1.2,0.3,16.9,time_period_01,-71.002731,42.24419,3420.0,School St @ Phipps St
215,3420,0.35,1.6,18.9,time_period_02,-71.002731,42.24419,3420.0,School St @ Phipps St
215,3420,0.2,0.1,30.3,time_period_02,-71.002731,42.24419,3420.0,School St @ Phipps St
215,3420,0.25,0.95,17.575,time_period_03,-71.002731,42.24419,3420.0,School St @ Phipps St
215,3420,0.2,0.6,11.0285714285714,time_period_04,-71.002731,42.24419,3420.0,School St @ Phipps St
215,3420,0.125,1.2,12.425,time_period_05,-71.002731,42.24419,3420.0,School St @ Phipps St
215,3420,0.12,0.92,7.34,time_period_06,-71.002731,42.24419,3420.0,School St @ Phipps St
215,3420,0.06,0.18,3.88,time_period_07,-71.002731,42.24419,3420.0,School St @ Phipps St
215,3420,0.0,0.05,2.6,time_period_08,-71.002731,42.24419,3420.0,School St @ Phipps St
215,3420,0.0,0.0,7.4,time_period_10,-71.002731,42.24419,3420.0,School St @ Phipps St
215,3420,0.108333333333333,0.7625,8.84583333333333,time_period_10,-71.002731,42.24419,3420.0,School St @ Phipps St
215,3420,0.05,0.775,8.4625,time_period_11,-71.002731,42.24419,3420.0,School St @ Phipps St
215,3420,0.128571428571429,0.628571428571429,6.44285714285714,time_period_11,-71.002731,42.24419,3420.0,School St @ Phipps St
215,3422,0.0,0.0,16.9,time_period_01,-71.000757,42.246703,3422.0,Hancock St @ Walter J Hannon Pkwy
215,3422,0.2,0.15,19.0,time_period_02,-71.000757,42.246703,3422.0,Hancock St @ Walter J Hannon Pkwy
215,3422,0.1,0.1,30.3,time_period_02,-71.000757,42.246703,3422.0,Hancock St @ Walter J Hannon Pkwy
215,3422,0.1,1.1,16.625,time_period_03,-71.000757,42.246703,3422.0,Hancock St @ Walter J Hannon Pkwy
215,3422,0.114285714285714,0.8,10.3428571428571,time_period_04,-71.000757,42.246703,3422.0,Hancock St @ Walter J Hannon Pkwy
215,3422,0.125,1.1,11.4,time_period_05,-71.000757,42.246703,3422.0,Hancock St @ Walter J Hannon Pkwy
215,3422,0.06,0.42,6.98,time_period_06,-71.000757,42.246703,3422.0,Hancock St @ Walter J Hannon Pkwy
215,3422,0.08,0.44,3.56,time_period_07,-71.000757,42.246703,3422.0,Hancock St @ Walter J Hannon Pkwy
215,3422,0.05,0.15,2.5,time_period_08,-71.000757,42.246703,3422.0,Hancock St @ Walter J Hannon Pkwy
215,3422,0.1,0.0,7.5,time_period_10,-71.000757,42.246703,3422.0,Hancock St @ Walter J Hannon Pkwy
215,3422,0.108333333333333,0.6625,8.2875,time_period_10,-71.000757,42.246703,3422.0,Hancock St @ Walter J Hannon Pkwy
215,3422,0.05,0.625,7.8875,time_period_11,-71.000757,42.246703,3422.0,Hancock St @ Walter J Hannon Pkwy
215,3422,0.0,0.485714285714286,5.95714285714286,time_period_11,-71.000757,42.246703,3422.0,Hancock St @ Walter J Hannon Pkwy
215,3423,0.0,0.0,16.9,time_period_01,-71.001518,42.248097,3423.0,Hancock St @ Cottage Ave
215,3423,0.1,0.85,18.25,time_period_02,-71.001518,42.248097,3423.0,Hancock St @ Cottage Ave
215,3423,0.0,0.0,30.3,time_period_02,-71.001518,42.248097,3423.0,Hancock St @ Cottage Ave
215,3423,0.025,0.875,15.775,time_period_03,-71.001518,42.248097,3423.0,Hancock St @ Cottage Ave
215,3423,0.0428571428571429,0.871428571428571,9.55714285714286,time_period_04,-71.001518,42.248097,3423.0,Hancock St @ Cottage Ave
215,3423,0.1,1.7,9.875,time_period_05,-71.001518,42.248097,3423.0,Hancock St @ Cottage Ave
215,3423,0.04,1.08,5.96,time_period_06,-71.001518,42.248097,3423.0,Hancock St @ Cottage Ave
215,3423,0.0,0.24,3.32,time_period_07,-71.001518,42.248097,3423.0,Hancock St @ Cottage Ave
215,3423,0.0,0.1,2.35,time_period_08,-71.001518,42.248097,3423.0,Hancock St @ Cottage Ave
215,3423,0.0,0.0,7.5,time_period_10,-71.001518,42.248097,3423.0,Hancock St @ Cottage Ave
215,3423,0.0583333333333333,0.683333333333333,7.66666666666667,time_period_10,-71.001518,42.248097,3423.0,Hancock St @ Cottage Ave
215,3423,0.0625,1.2875,6.675,time_period_11,-71.001518,42.248097,3423.0,Hancock St @ Cottage Ave
215,3423,0.0571428571428571,0.171428571428571,5.85714285714286,time_period_11,-71.001518,42.248097,3423.0,Hancock St @ Cottage Ave
215,33241,0.0,0.9,16.1,time_period_01,-71.00278,42.2496370000001,33241.0,Granite St @ Hancock St
215,33241,0.0,0.15,18.1,time_period_02,-71.00278,42.2496370000001,33241.0,Granite St @ Hancock St
215,33241,0.0,0.0,30.3,time_period_02,-71.00278,42.2496370000001,33241.0,Granite St @ Hancock St
215,33241,0.025,0.575,15.25,time_period_03,-71.00278,42.2496370000001,33241.0,Granite St @ Hancock St
215,33241,0.0142857142857143,0.671428571428571,8.87142857142857,time_period_04,-71.00278,42.2496370000001,33241.0,Granite St @ Hancock St
215,33241,0.0,1.1,8.825,time_period_05,-71.00278,42.2496370000001,33241.0,Granite St @ Hancock St
215,33241,0.0,0.44,5.5,time_period_06,-71.00278,42.2496370000001,33241.0,Granite St @ Hancock St
215,33241,0.0,0.18,3.14,time_period_07,-71.00278,42.2496370000001,33241.0,Granite St @ Hancock St
215,33241,0.0,0.1,2.3,time_period_08,-71.00278,42.2496370000001,33241.0,Granite St @ Hancock St
215,33241,0.0,1.7,5.8,time_period_10,-71.00278,42.2496370000001,33241.0,Granite St @ Hancock St
215,33241,0.0166666666666667,0.566666666666667,7.1125,time_period_10,-71.00278,42.2496370000001,33241.0,Granite St @ Hancock St
215,33241,0.0,0.525,6.15,time_period_11,-71.00278,42.2496370000001,33241.0,Granite St @ Hancock St
215,33241,0.0,0.314285714285714,5.54285714285714,time_period_11,-71.00278,42.2496370000001,33241.0,Granite St @ Hancock St
215,32003,0.0,16.0,0.1,time_period_01,,,,
215,32003,0.0,18.35,0.0,time_period_02,,,,
215,32003,0.0,30.3,0.0,time_period_02,,,,
215,32003,0.025,15.2,0.125,time_period_03,,,,
215,32003,0.0,9.0,0.0142857142857143,time_period_04,,,,
215,32003,0.0,9.075,0.0,time_period_05,,,,
215,32003,0.0,5.8,0.0,time_period_06,,,,
215,32003,0.0,3.12,0.02,time_period_07,,,,
215,32003,0.0,2.6,0.05,time_period_08,,,,
215,32003,0.0,5.8,0.0,time_period_10,,,,
215,32003,0.0,7.22083333333333,0.0041666666666666,time_period_10,,,,
215,32003,0.0,6.2,0.025,time_period_11,,,,
215,32003,0.0,6.21428571428571,0.0857142857142857,time_period_11,,,,
