route_id,stop_id,average_ons,average_offs,average_load,time_period_id,X,Y,Stop_ID,Stop_Name
426,56734,21.1,0.0,21.25,time_period_05,-70.986748,42.4701200000001,56734.0,O'Callaghan Way opp Osborne St
426,76734,0.3,0.05,13.4,time_period_05,-70.9853649999999,42.472924,76734.0,O'Callaghan Way @ Walnut St
426,6694,0.0,0.0,14.4,time_period_05,-70.9764299999999,42.4687710000001,6694.0,Myrtle St @ Holyoke St
426,6695,0.0,0.0,13.35,time_period_05,-70.9775509999999,42.46851,6695.0,Holyoke St opp Gardiner St
426,6697,0.0,0.0,13.55,time_period_05,-70.980426,42.466819,6697.0,Holyoke St opp Thorpe Rd
426,6698,1.25,0.15,22.75,time_period_05,-70.983011,42.4657270000001,6698.0,Holyoke St @ O'Callaghan Way
426,6747,28.6,0.0,28.6,time_period_05,-70.983594,42.4656620000001,6747.0,O'Callaghan Way @ Holyoke St
426,15795,4.85,0.0,4.95,time_period_03,-70.9968304,42.4135781,15795.0,Wonderland Busway
426,15795,7.4,0.0,7.5,time_period_06,-70.9968304,42.4135781,15795.0,Wonderland Busway
426,15795,9.93888888888889,0.0,11.0388888888889,time_period_10,-70.9968304,42.4135781,15795.0,Wonderland Busway
426,15795,8.37142857142857,0.0,8.56190476190476,time_period_11,-70.9968304,42.4135781,15795.0,Wonderland Busway
426,24716,0.1,0.0,5.0,time_period_03,-70.996415,42.411567,24716.0,VFW Pkwy opp Wonderland Market Place
426,24716,0.0,0.0,7.5,time_period_06,-70.996415,42.411567,24716.0,VFW Pkwy opp Wonderland Market Place
426,24716,0.0777777777777778,0.0444444444444444,11.0333333333333,time_period_10,-70.996415,42.411567,24716.0,VFW Pkwy opp Wonderland Market Place
426,24716,0.0380952380952381,0.0095238095238095,8.59523809523809,time_period_11,-70.996415,42.411567,24716.0,VFW Pkwy opp Wonderland Market Place
426,4733,0.3,0.1,5.25,time_period_03,-71.000379,42.4096970000001,4733.0,Beach St @ Upham St - Bell Circle
426,4733,0.2,0.0,7.6,time_period_06,-71.000379,42.4096970000001,4733.0,Beach St @ Upham St - Bell Circle
426,4733,0.322222222222222,0.105555555555556,11.2722222222222,time_period_10,-71.000379,42.4096970000001,4733.0,Beach St @ Upham St - Bell Circle
426,4733,0.557142857142857,0.0714285714285714,9.16666666666667,time_period_11,-71.000379,42.4096970000001,4733.0,Beach St @ Upham St - Bell Circle
426,4526,0.05,0.0,5.3,time_period_03,-71.001815,42.409969,4526.0,American Legion Hwy @ Bell Circle
426,4526,0.4,0.0,8.0,time_period_06,-71.001815,42.409969,4526.0,American Legion Hwy @ Bell Circle
426,4526,0.0,0.0,3.5,time_period_09,-71.001815,42.409969,4526.0,American Legion Hwy @ Bell Circle
426,4526,0.161111111111111,0.0388888888888889,11.6833333333333,time_period_10,-71.001815,42.409969,4526.0,American Legion Hwy @ Bell Circle
426,4526,0.0952380952380952,0.0095238095238095,9.24761904761905,time_period_11,-71.001815,42.409969,4526.0,American Legion Hwy @ Bell Circle
426,45261,0.0,0.0,5.3,time_period_03,-71.0028609999999,42.4126460000001,45261.0,133 - 135 American Legion Hwy
426,45261,0.0,0.0,7.9,time_period_06,-71.0028609999999,42.4126460000001,45261.0,133 - 135 American Legion Hwy
426,45261,0.1,0.0,3.4,time_period_09,-71.0028609999999,42.4126460000001,45261.0,133 - 135 American Legion Hwy
426,45261,0.0222222222222222,0.0388888888888889,11.6722222222222,time_period_10,-71.0028609999999,42.4126460000001,45261.0,133 - 135 American Legion Hwy
426,45261,0.0095238095238095,0.0619047619047619,9.22857142857143,time_period_11,-71.0028609999999,42.4126460000001,45261.0,133 - 135 American Legion Hwy
426,4512,0.0,0.05,5.25,time_period_03,-71.003166,42.4164170000001,4512.0,American Legion Hwy @ Revere St
426,4512,0.1,0.5,7.6,time_period_06,-71.003166,42.4164170000001,4512.0,American Legion Hwy @ Revere St
426,4512,0.0,0.0,3.4,time_period_09,-71.003166,42.4164170000001,4512.0,American Legion Hwy @ Revere St
426,4512,0.0611111111111111,0.366666666666667,11.3666666666667,time_period_10,-71.003166,42.4164170000001,4512.0,American Legion Hwy @ Revere St
426,4512,0.114285714285714,0.219047619047619,9.11904761904762,time_period_11,-71.003166,42.4164170000001,4512.0,American Legion Hwy @ Revere St
426,4513,0.0,0.15,5.15,time_period_03,-71.001931,42.4188780000001,4513.0,American Legion Hwy @ Hutchinson St
426,4513,0.0,0.1,7.5,time_period_06,-71.001931,42.4188780000001,4513.0,American Legion Hwy @ Hutchinson St
426,4513,0.0,0.0,3.4,time_period_09,-71.001931,42.4188780000001,4513.0,American Legion Hwy @ Hutchinson St
426,4513,0.0222222222222222,0.1,11.2777777777778,time_period_10,-71.001931,42.4188780000001,4513.0,American Legion Hwy @ Hutchinson St
426,4513,0.0095238095238095,0.0761904761904762,9.05714285714286,time_period_11,-71.001931,42.4188780000001,4513.0,American Legion Hwy @ Hutchinson St
426,4515,0.15,0.3,4.95,time_period_03,-71.00354,42.4209500000001,4515.0,Brown Circle Rotary
426,4515,0.5,0.3,7.8,time_period_06,-71.00354,42.4209500000001,4515.0,Brown Circle Rotary
426,4515,0.0,0.0,3.4,time_period_09,-71.00354,42.4209500000001,4515.0,Brown Circle Rotary
426,4515,0.305555555555556,0.261111111111111,11.3222222222222,time_period_10,-71.00354,42.4209500000001,4515.0,Brown Circle Rotary
426,4515,0.223809523809524,0.271428571428571,8.9952380952381,time_period_11,-71.00354,42.4209500000001,4515.0,Brown Circle Rotary
426,117,2.65,0.0,2.7,time_period_02,-71.057724,42.3618470000001,117.0,Congress St @ Haymarket Sta
426,117,4.15,0.0,4.15,time_period_03,-71.057724,42.3618470000001,117.0,Congress St @ Haymarket Sta
426,117,6.125,0.0,6.125,time_period_04,-71.057724,42.3618470000001,117.0,Congress St @ Haymarket Sta
426,117,18.7,0.0,18.7,time_period_05,-71.057724,42.3618470000001,117.0,Congress St @ Haymarket Sta
426,117,21.7,0.0,21.7,time_period_06,-71.057724,42.3618470000001,117.0,Congress St @ Haymarket Sta
426,117,12.975,0.0,12.975,time_period_07,-71.057724,42.3618470000001,117.0,Congress St @ Haymarket Sta
426,117,10.15,0.0,10.15,time_period_08,-71.057724,42.3618470000001,117.0,Congress St @ Haymarket Sta
426,117,10.9,0.0,10.9,time_period_09,-71.057724,42.3618470000001,117.0,Congress St @ Haymarket Sta
426,117,3.4,0.0,3.4,time_period_09,-71.057724,42.3618470000001,117.0,Congress St @ Haymarket Sta
426,7415,0.0,0.05,2.6,time_period_02,-71.020858,42.430745,7415.0,Squire Rd @ Showcase Cinema
426,7415,0.0,0.0,4.15,time_period_03,-71.020858,42.430745,7415.0,Squire Rd @ Showcase Cinema
426,7415,0.0,0.3,4.7,time_period_03,-71.020858,42.430745,7415.0,Squire Rd @ Showcase Cinema
426,7415,0.075,0.175,6.0,time_period_04,-71.020858,42.430745,7415.0,Squire Rd @ Showcase Cinema
426,7415,0.2,1.0,18.0,time_period_05,-71.020858,42.430745,7415.0,Squire Rd @ Showcase Cinema
426,7415,0.166666666666667,1.4,20.5,time_period_06,-71.020858,42.430745,7415.0,Squire Rd @ Showcase Cinema
426,7415,0.1,0.1,7.8,time_period_06,-71.020858,42.430745,7415.0,Squire Rd @ Showcase Cinema
426,7415,0.025,0.4,12.65,time_period_07,-71.020858,42.430745,7415.0,Squire Rd @ Showcase Cinema
426,7415,0.05,0.3,9.85,time_period_08,-71.020858,42.430745,7415.0,Squire Rd @ Showcase Cinema
426,7415,0.0,0.0,10.9,time_period_09,-71.020858,42.430745,7415.0,Squire Rd @ Showcase Cinema
426,7415,0.0,0.0,3.4,time_period_09,-71.020858,42.430745,7415.0,Squire Rd @ Showcase Cinema
426,7415,0.0722222222222222,0.35,11.0444444444444,time_period_10,-71.020858,42.430745,7415.0,Squire Rd @ Showcase Cinema
426,7415,0.128571428571429,0.39047619047619,8.72380952380952,time_period_11,-71.020858,42.430745,7415.0,Squire Rd @ Showcase Cinema
426,7417,1.7,0.3,4.0,time_period_02,-71.024087,42.4328580000001,7417.0,Wesley St @ Lynn St
426,7417,1.8,0.15,5.85,time_period_03,-71.024087,42.4328580000001,7417.0,Wesley St @ Lynn St
426,7417,2.85,0.2,7.35,time_period_03,-71.024087,42.4328580000001,7417.0,Wesley St @ Lynn St
426,7417,1.8,0.35,7.5,time_period_04,-71.024087,42.4328580000001,7417.0,Wesley St @ Lynn St
426,7417,4.53333333333333,0.833333333333333,21.7333333333333,time_period_05,-71.024087,42.4328580000001,7417.0,Wesley St @ Lynn St
426,7417,4.2,2.4,22.4,time_period_06,-71.024087,42.4328580000001,7417.0,Wesley St @ Lynn St
426,7417,3.9,0.1,11.7,time_period_06,-71.024087,42.4328580000001,7417.0,Wesley St @ Lynn St
426,7417,2.1,0.775,14.025,time_period_07,-71.024087,42.4328580000001,7417.0,Wesley St @ Lynn St
426,7417,1.25,0.25,10.9,time_period_08,-71.024087,42.4328580000001,7417.0,Wesley St @ Lynn St
426,7417,1.3,0.5,11.7,time_period_09,-71.024087,42.4328580000001,7417.0,Wesley St @ Lynn St
426,7417,0.2,0.0,3.6,time_period_09,-71.024087,42.4328580000001,7417.0,Wesley St @ Lynn St
426,7417,2.04444444444444,0.35,12.7166666666667,time_period_10,-71.024087,42.4328580000001,7417.0,Wesley St @ Lynn St
426,7417,1.38571428571429,0.371428571428571,9.74761904761905,time_period_11,-71.024087,42.4328580000001,7417.0,Wesley St @ Lynn St
426,7418,0.0,0.0,4.05,time_period_02,-71.023381,42.433615,7418.0,Lynn St opp Revere St
426,7418,0.0,0.0,5.8,time_period_03,-71.023381,42.433615,7418.0,Lynn St opp Revere St
426,7418,0.0,0.0,7.3,time_period_03,-71.023381,42.433615,7418.0,Lynn St opp Revere St
426,7418,0.0,0.025,7.475,time_period_04,-71.023381,42.433615,7418.0,Lynn St opp Revere St
426,7418,0.0666666666666667,0.0666666666666667,21.7666666666667,time_period_05,-71.023381,42.433615,7418.0,Lynn St opp Revere St
426,7418,0.0666666666666667,0.1,22.3666666666667,time_period_06,-71.023381,42.433615,7418.0,Lynn St opp Revere St
426,7418,0.0,0.0,11.7,time_period_06,-71.023381,42.433615,7418.0,Lynn St opp Revere St
426,7418,0.0,0.0,14.0,time_period_07,-71.023381,42.433615,7418.0,Lynn St opp Revere St
426,7418,0.0,0.0,10.85,time_period_08,-71.023381,42.433615,7418.0,Lynn St opp Revere St
426,7418,0.0,0.0,11.7,time_period_09,-71.023381,42.433615,7418.0,Lynn St opp Revere St
426,7418,0.0,0.0,3.6,time_period_09,-71.023381,42.433615,7418.0,Lynn St opp Revere St
426,7418,0.0,0.0055555555555555,12.7111111111111,time_period_10,-71.023381,42.433615,7418.0,Lynn St opp Revere St
426,7418,0.0142857142857143,0.0285714285714286,9.73333333333333,time_period_11,-71.023381,42.433615,7418.0,Lynn St opp Revere St
426,7419,0.25,0.05,4.15,time_period_02,-71.0219099999999,42.435055,7419.0,Lynn St @ Spring St
426,7419,0.1,0.0,5.95,time_period_03,-71.0219099999999,42.435055,7419.0,Lynn St @ Spring St
426,7419,0.15,0.0,7.45,time_period_03,-71.0219099999999,42.435055,7419.0,Lynn St @ Spring St
426,7419,0.125,0.1,7.475,time_period_04,-71.0219099999999,42.435055,7419.0,Lynn St @ Spring St
426,7419,0.566666666666667,0.3,22.0,time_period_05,-71.0219099999999,42.435055,7419.0,Lynn St @ Spring St
426,7419,0.3,0.466666666666667,22.2,time_period_06,-71.0219099999999,42.435055,7419.0,Lynn St @ Spring St
426,7419,0.1,0.0,11.8,time_period_06,-71.0219099999999,42.435055,7419.0,Lynn St @ Spring St
426,7419,0.05,0.025,14.025,time_period_07,-71.0219099999999,42.435055,7419.0,Lynn St @ Spring St
426,7419,0.05,0.15,10.8,time_period_08,-71.0219099999999,42.435055,7419.0,Lynn St @ Spring St
426,7419,0.0,0.0,11.7,time_period_09,-71.0219099999999,42.435055,7419.0,Lynn St @ Spring St
426,7419,0.0,0.0,3.6,time_period_09,-71.0219099999999,42.435055,7419.0,Lynn St @ Spring St
426,7419,0.161111111111111,0.0333333333333333,12.8333333333333,time_period_10,-71.0219099999999,42.435055,7419.0,Lynn St @ Spring St
426,7419,0.161904761904762,0.0571428571428571,9.83333333333333,time_period_11,-71.0219099999999,42.435055,7419.0,Lynn St @ Spring St
426,17419,0.55,0.1,4.6,time_period_02,-71.01978,42.437464,17419.0,Salem St @ Cutler Hwy
426,17419,0.1,0.3,5.7,time_period_03,-71.01978,42.437464,17419.0,Salem St @ Cutler Hwy
426,17419,0.1,0.6,6.95,time_period_03,-71.01978,42.437464,17419.0,Salem St @ Cutler Hwy
426,17419,0.075,0.5,7.075,time_period_04,-71.01978,42.437464,17419.0,Salem St @ Cutler Hwy
426,17419,0.533333333333333,1.56666666666667,20.9666666666667,time_period_05,-71.01978,42.437464,17419.0,Salem St @ Cutler Hwy
426,17419,0.3,1.4,21.0666666666667,time_period_06,-71.01978,42.437464,17419.0,Salem St @ Cutler Hwy
426,17419,0.2,0.3,11.6,time_period_06,-71.01978,42.437464,17419.0,Salem St @ Cutler Hwy
426,17419,0.1,1.175,12.9,time_period_07,-71.01978,42.437464,17419.0,Salem St @ Cutler Hwy
426,17419,0.0,1.65,9.15,time_period_08,-71.01978,42.437464,17419.0,Salem St @ Cutler Hwy
426,17419,0.0,1.6,10.2,time_period_09,-71.01978,42.437464,17419.0,Salem St @ Cutler Hwy
426,17419,0.0,0.4,3.3,time_period_09,-71.01978,42.437464,17419.0,Salem St @ Cutler Hwy
426,17419,0.0777777777777778,0.444444444444444,12.4611111111111,time_period_10,-71.01978,42.437464,17419.0,Salem St @ Cutler Hwy
426,17419,0.0714285714285714,0.40952380952381,9.50952380952381,time_period_11,-71.01978,42.437464,17419.0,Salem St @ Cutler Hwy
426,7420,0.0,0.0,4.6,time_period_02,-71.0173399999999,42.4392540000001,7420.0,Salem St @ Waitt Pk
426,7420,0.0,0.05,5.75,time_period_03,-71.0173399999999,42.4392540000001,7420.0,Salem St @ Waitt Pk
426,7420,0.0,0.15,6.8,time_period_03,-71.0173399999999,42.4392540000001,7420.0,Salem St @ Waitt Pk
426,7420,0.05,0.2,6.925,time_period_04,-71.0173399999999,42.4392540000001,7420.0,Salem St @ Waitt Pk
426,7420,0.0,0.666666666666667,20.3333333333333,time_period_05,-71.0173399999999,42.4392540000001,7420.0,Salem St @ Waitt Pk
426,7420,0.0,0.666666666666667,20.4333333333333,time_period_06,-71.0173399999999,42.4392540000001,7420.0,Salem St @ Waitt Pk
426,7420,0.0,0.5,11.2,time_period_06,-71.0173399999999,42.4392540000001,7420.0,Salem St @ Waitt Pk
426,7420,0.025,0.675,12.25,time_period_07,-71.0173399999999,42.4392540000001,7420.0,Salem St @ Waitt Pk
426,7420,0.0,0.15,9.0,time_period_08,-71.0173399999999,42.4392540000001,7420.0,Salem St @ Waitt Pk
426,7420,0.0,0.1,10.1,time_period_09,-71.0173399999999,42.4392540000001,7420.0,Salem St @ Waitt Pk
426,7420,0.0,0.0,3.3,time_period_09,-71.0173399999999,42.4392540000001,7420.0,Salem St @ Waitt Pk
426,7420,0.1,0.144444444444444,12.4166666666667,time_period_10,-71.0173399999999,42.4392540000001,7420.0,Salem St @ Waitt Pk
426,7420,0.0333333333333333,0.0428571428571429,9.50952380952381,time_period_11,-71.0173399999999,42.4392540000001,7420.0,Salem St @ Waitt Pk
426,7422,0.0,0.0,4.6,time_period_02,-71.015427,42.440475,7422.0,Salem St @ Marshall St N
426,7422,0.0,0.0,5.75,time_period_03,-71.015427,42.440475,7422.0,Salem St @ Marshall St N
426,7422,0.0,0.0,6.8,time_period_03,-71.015427,42.440475,7422.0,Salem St @ Marshall St N
426,7422,0.0,0.025,6.875,time_period_04,-71.015427,42.440475,7422.0,Salem St @ Marshall St N
426,7422,0.0,0.233333333333333,20.1333333333333,time_period_05,-71.015427,42.440475,7422.0,Salem St @ Marshall St N
426,7422,0.0,0.4,20.0,time_period_06,-71.015427,42.440475,7422.0,Salem St @ Marshall St N
426,7422,0.0,0.0,11.2,time_period_06,-71.015427,42.440475,7422.0,Salem St @ Marshall St N
426,7422,0.0,0.1,12.175,time_period_07,-71.015427,42.440475,7422.0,Salem St @ Marshall St N
426,7422,0.0,0.0,9.0,time_period_08,-71.015427,42.440475,7422.0,Salem St @ Marshall St N
426,7422,0.0,0.0,10.1,time_period_09,-71.015427,42.440475,7422.0,Salem St @ Marshall St N
426,7422,0.0,0.0,3.3,time_period_09,-71.015427,42.440475,7422.0,Salem St @ Marshall St N
426,7422,0.0,0.0333333333333333,12.3944444444444,time_period_10,-71.015427,42.440475,7422.0,Salem St @ Marshall St N
426,7422,0.0,0.0238095238095238,9.48571428571429,time_period_11,-71.015427,42.440475,7422.0,Salem St @ Marshall St N
426,17422,0.4,0.05,4.95,time_period_02,-71.0146809999999,42.4415230000001,17422.0,Salem St opp Franklin
426,17422,0.1,0.0,5.75,time_period_03,-71.0146809999999,42.4415230000001,17422.0,Salem St opp Franklin
426,17422,0.25,0.0,7.05,time_period_03,-71.0146809999999,42.4415230000001,17422.0,Salem St opp Franklin
426,17422,0.075,0.075,6.85,time_period_04,-71.0146809999999,42.4415230000001,17422.0,Salem St opp Franklin
426,17422,0.1,0.366666666666667,19.7666666666667,time_period_05,-71.0146809999999,42.4415230000001,17422.0,Salem St opp Franklin
426,17422,0.0,0.266666666666667,19.7666666666667,time_period_06,-71.0146809999999,42.4415230000001,17422.0,Salem St opp Franklin
426,17422,0.1,0.2,11.1,time_period_06,-71.0146809999999,42.4415230000001,17422.0,Salem St opp Franklin
426,17422,0.075,0.075,12.15,time_period_07,-71.0146809999999,42.4415230000001,17422.0,Salem St opp Franklin
426,17422,0.0,0.05,8.9,time_period_08,-71.0146809999999,42.4415230000001,17422.0,Salem St opp Franklin
426,17422,0.0,0.0,10.1,time_period_09,-71.0146809999999,42.4415230000001,17422.0,Salem St opp Franklin
426,17422,0.0,0.0,3.3,time_period_09,-71.0146809999999,42.4415230000001,17422.0,Salem St opp Franklin
426,17422,0.0277777777777778,0.05,12.3611111111111,time_period_10,-71.0146809999999,42.4415230000001,17422.0,Salem St opp Franklin
426,17422,0.0238095238095238,0.0333333333333333,9.47142857142857,time_period_11,-71.0146809999999,42.4415230000001,17422.0,Salem St opp Franklin
426,7423,0.0,0.0,4.95,time_period_02,-71.013243,42.443591,7423.0,Salem St opp Clifton St
426,7423,0.0,0.0,5.75,time_period_03,-71.013243,42.443591,7423.0,Salem St opp Clifton St
426,7423,0.0,0.0,7.05,time_period_03,-71.013243,42.443591,7423.0,Salem St opp Clifton St
426,7423,0.0,0.0,6.875,time_period_04,-71.013243,42.443591,7423.0,Salem St opp Clifton St
426,7423,0.0,0.3,19.5,time_period_05,-71.013243,42.443591,7423.0,Salem St opp Clifton St
426,7423,0.0333333333333333,0.166666666666667,19.6,time_period_06,-71.013243,42.443591,7423.0,Salem St opp Clifton St
426,7423,0.0,0.0,11.1,time_period_06,-71.013243,42.443591,7423.0,Salem St opp Clifton St
426,7423,0.0,0.0,12.15,time_period_07,-71.013243,42.443591,7423.0,Salem St opp Clifton St
426,7423,0.0,0.05,8.85,time_period_08,-71.013243,42.443591,7423.0,Salem St opp Clifton St
426,7423,0.0,0.0,10.1,time_period_09,-71.013243,42.443591,7423.0,Salem St opp Clifton St
426,7423,0.0,0.0,3.3,time_period_09,-71.013243,42.443591,7423.0,Salem St opp Clifton St
426,7423,0.0,0.0166666666666667,12.3555555555556,time_period_10,-71.013243,42.443591,7423.0,Salem St opp Clifton St
426,7423,0.0,0.0238095238095238,9.45714285714286,time_period_11,-71.013243,42.443591,7423.0,Salem St opp Clifton St
426,7424,0.1,0.0,5.05,time_period_02,-71.012307,42.444866,7424.0,Lincoln Ave opp Laurel St
426,7424,0.0,0.0,5.75,time_period_03,-71.012307,42.444866,7424.0,Lincoln Ave opp Laurel St
426,7424,0.05,0.0,7.15,time_period_03,-71.012307,42.444866,7424.0,Lincoln Ave opp Laurel St
426,7424,0.0,0.075,6.8,time_period_04,-71.012307,42.444866,7424.0,Lincoln Ave opp Laurel St
426,7424,0.0,0.266666666666667,19.2666666666667,time_period_05,-71.012307,42.444866,7424.0,Lincoln Ave opp Laurel St
426,7424,0.0,0.2,19.4,time_period_06,-71.012307,42.444866,7424.0,Lincoln Ave opp Laurel St
426,7424,0.0,0.0,11.1,time_period_06,-71.012307,42.444866,7424.0,Lincoln Ave opp Laurel St
426,7424,0.0,0.025,12.1,time_period_07,-71.012307,42.444866,7424.0,Lincoln Ave opp Laurel St
426,7424,0.0,0.0,8.8,time_period_08,-71.012307,42.444866,7424.0,Lincoln Ave opp Laurel St
426,7424,0.0,0.0,10.1,time_period_09,-71.012307,42.444866,7424.0,Lincoln Ave opp Laurel St
426,7424,0.0,0.0,3.3,time_period_09,-71.012307,42.444866,7424.0,Lincoln Ave opp Laurel St
426,7424,0.0055555555555555,0.0166666666666667,12.3444444444444,time_period_10,-71.012307,42.444866,7424.0,Lincoln Ave opp Laurel St
426,7424,0.0,0.019047619047619,9.44285714285714,time_period_11,-71.012307,42.444866,7424.0,Lincoln Ave opp Laurel St
426,7426,0.0,0.0,5.05,time_period_02,-71.010914,42.446734,7426.0,Lincoln Ave @ Western Ave
426,7426,0.05,0.05,5.75,time_period_03,-71.010914,42.446734,7426.0,Lincoln Ave @ Western Ave
426,7426,0.05,0.05,7.1,time_period_03,-71.010914,42.446734,7426.0,Lincoln Ave @ Western Ave
426,7426,0.075,0.075,6.775,time_period_04,-71.010914,42.446734,7426.0,Lincoln Ave @ Western Ave
426,7426,0.1,0.4,18.9333333333333,time_period_05,-71.010914,42.446734,7426.0,Lincoln Ave @ Western Ave
426,7426,0.0333333333333333,0.6,18.8333333333333,time_period_06,-71.010914,42.446734,7426.0,Lincoln Ave @ Western Ave
426,7426,0.0,0.0,11.1,time_period_06,-71.010914,42.446734,7426.0,Lincoln Ave @ Western Ave
426,7426,0.05,0.2,11.95,time_period_07,-71.010914,42.446734,7426.0,Lincoln Ave @ Western Ave
426,7426,0.0,0.15,8.7,time_period_08,-71.010914,42.446734,7426.0,Lincoln Ave @ Western Ave
426,7426,0.0,0.2,9.9,time_period_09,-71.010914,42.446734,7426.0,Lincoln Ave @ Western Ave
426,7426,0.0,0.0,3.3,time_period_09,-71.010914,42.446734,7426.0,Lincoln Ave @ Western Ave
426,7426,0.0833333333333333,0.127777777777778,12.2888888888889,time_period_10,-71.010914,42.446734,7426.0,Lincoln Ave @ Western Ave
426,7426,0.0428571428571429,0.080952380952381,9.4,time_period_11,-71.010914,42.446734,7426.0,Lincoln Ave @ Western Ave
426,7427,0.0,0.0,5.05,time_period_02,-71.0102439999999,42.4476340000001,7427.0,Lincoln Ave @ Lincoln Ct
426,7427,0.05,0.45,5.3,time_period_03,-71.0102439999999,42.4476340000001,7427.0,Lincoln Ave @ Lincoln Ct
426,7427,0.0,0.0,7.1,time_period_03,-71.0102439999999,42.4476340000001,7427.0,Lincoln Ave @ Lincoln Ct
426,7427,0.1,0.05,6.8,time_period_04,-71.0102439999999,42.4476340000001,7427.0,Lincoln Ave @ Lincoln Ct
426,7427,0.0666666666666667,0.433333333333333,18.5666666666667,time_period_05,-71.0102439999999,42.4476340000001,7427.0,Lincoln Ave @ Lincoln Ct
426,7427,0.0333333333333333,0.2,18.6666666666667,time_period_06,-71.0102439999999,42.4476340000001,7427.0,Lincoln Ave @ Lincoln Ct
426,7427,0.0,0.1,11.0,time_period_06,-71.0102439999999,42.4476340000001,7427.0,Lincoln Ave @ Lincoln Ct
426,7427,0.0,0.25,11.725,time_period_07,-71.0102439999999,42.4476340000001,7427.0,Lincoln Ave @ Lincoln Ct
426,7427,0.0,0.0,8.65,time_period_08,-71.0102439999999,42.4476340000001,7427.0,Lincoln Ave @ Lincoln Ct
426,7427,0.0,0.1,9.8,time_period_09,-71.0102439999999,42.4476340000001,7427.0,Lincoln Ave @ Lincoln Ct
426,7427,0.0,0.0,3.3,time_period_09,-71.0102439999999,42.4476340000001,7427.0,Lincoln Ave @ Lincoln Ct
426,7427,0.0333333333333333,0.116666666666667,12.2222222222222,time_period_10,-71.0102439999999,42.4476340000001,7427.0,Lincoln Ave @ Lincoln Ct
426,7427,0.0095238095238095,0.0619047619047619,9.34761904761905,time_period_11,-71.0102439999999,42.4476340000001,7427.0,Lincoln Ave @ Lincoln Ct
426,7429,0.15,0.05,5.15,time_period_02,-71.009114,42.448535,7429.0,Lincoln Ave @ Cliftondale Sq
426,7429,0.25,0.2,5.35,time_period_03,-71.009114,42.448535,7429.0,Lincoln Ave @ Cliftondale Sq
426,7429,0.1,0.15,7.05,time_period_03,-71.009114,42.448535,7429.0,Lincoln Ave @ Cliftondale Sq
426,7429,0.325,0.475,6.675,time_period_04,-71.009114,42.448535,7429.0,Lincoln Ave @ Cliftondale Sq
426,7429,0.766666666666667,1.26666666666667,18.0666666666667,time_period_05,-71.009114,42.448535,7429.0,Lincoln Ave @ Cliftondale Sq
426,7429,0.533333333333333,0.666666666666667,18.5666666666667,time_period_06,-71.009114,42.448535,7429.0,Lincoln Ave @ Cliftondale Sq
426,7429,0.2,0.2,11.0,time_period_06,-71.009114,42.448535,7429.0,Lincoln Ave @ Cliftondale Sq
426,7429,0.25,0.425,11.575,time_period_07,-71.009114,42.448535,7429.0,Lincoln Ave @ Cliftondale Sq
426,7429,0.0,0.2,8.45,time_period_08,-71.009114,42.448535,7429.0,Lincoln Ave @ Cliftondale Sq
426,7429,0.1,0.1,9.8,time_period_09,-71.009114,42.448535,7429.0,Lincoln Ave @ Cliftondale Sq
426,7429,0.0,0.1,3.2,time_period_09,-71.009114,42.448535,7429.0,Lincoln Ave @ Cliftondale Sq
426,7429,0.333333333333333,0.311111111111111,12.2277777777778,time_period_10,-71.009114,42.448535,7429.0,Lincoln Ave @ Cliftondale Sq
426,7429,0.147619047619048,0.233333333333333,9.25714285714286,time_period_11,-71.009114,42.448535,7429.0,Lincoln Ave @ Cliftondale Sq
426,17429,0.05,0.0,5.25,time_period_02,-71.00667,42.4488890000001,17429.0,Lincoln Ave @ Charlotte Rd
426,17429,0.2,0.05,5.5,time_period_03,-71.00667,42.4488890000001,17429.0,Lincoln Ave @ Charlotte Rd
426,17429,0.1,0.05,7.1,time_period_03,-71.00667,42.4488890000001,17429.0,Lincoln Ave @ Charlotte Rd
426,17429,0.175,0.075,6.725,time_period_04,-71.00667,42.4488890000001,17429.0,Lincoln Ave @ Charlotte Rd
426,17429,0.0666666666666667,0.433333333333333,17.7666666666667,time_period_05,-71.00667,42.4488890000001,17429.0,Lincoln Ave @ Charlotte Rd
426,17429,0.0,0.166666666666667,18.4333333333333,time_period_06,-71.00667,42.4488890000001,17429.0,Lincoln Ave @ Charlotte Rd
426,17429,0.0,0.0,11.0,time_period_06,-71.00667,42.4488890000001,17429.0,Lincoln Ave @ Charlotte Rd
426,17429,0.0,0.05,11.525,time_period_07,-71.00667,42.4488890000001,17429.0,Lincoln Ave @ Charlotte Rd
426,17429,0.0,0.15,8.25,time_period_08,-71.00667,42.4488890000001,17429.0,Lincoln Ave @ Charlotte Rd
426,17429,0.0,0.1,9.7,time_period_09,-71.00667,42.4488890000001,17429.0,Lincoln Ave @ Charlotte Rd
426,17429,0.0,0.0,3.2,time_period_09,-71.00667,42.4488890000001,17429.0,Lincoln Ave @ Charlotte Rd
426,17429,0.0666666666666667,0.177777777777778,12.1277777777778,time_period_10,-71.00667,42.4488890000001,17429.0,Lincoln Ave @ Charlotte Rd
426,17429,0.0238095238095238,0.123809523809524,9.15238095238095,time_period_11,-71.00667,42.4488890000001,17429.0,Lincoln Ave @ Charlotte Rd
426,7430,0.4,0.05,5.6,time_period_02,-71.0056739999999,42.449659,7430.0,Lincoln Ave opp Kent St
426,7430,0.05,0.05,5.55,time_period_03,-71.0056739999999,42.449659,7430.0,Lincoln Ave opp Kent St
426,7430,0.1,0.0,7.25,time_period_03,-71.0056739999999,42.449659,7430.0,Lincoln Ave opp Kent St
426,7430,0.05,0.125,6.675,time_period_04,-71.0056739999999,42.449659,7430.0,Lincoln Ave opp Kent St
426,7430,0.2,0.9,17.0,time_period_05,-71.0056739999999,42.449659,7430.0,Lincoln Ave opp Kent St
426,7430,0.166666666666667,1.2,17.4333333333333,time_period_06,-71.0056739999999,42.449659,7430.0,Lincoln Ave opp Kent St
426,7430,0.1,0.6,10.5,time_period_06,-71.0056739999999,42.449659,7430.0,Lincoln Ave opp Kent St
426,7430,0.05,0.625,11.0,time_period_07,-71.0056739999999,42.449659,7430.0,Lincoln Ave opp Kent St
426,7430,0.0,0.3,8.0,time_period_08,-71.0056739999999,42.449659,7430.0,Lincoln Ave opp Kent St
426,7430,0.0,2.4,7.3,time_period_09,-71.0056739999999,42.449659,7430.0,Lincoln Ave opp Kent St
426,7430,0.0,0.1,3.1,time_period_09,-71.0056739999999,42.449659,7430.0,Lincoln Ave opp Kent St
426,7430,0.0833333333333333,0.327777777777778,11.8777777777778,time_period_10,-71.0056739999999,42.449659,7430.0,Lincoln Ave opp Kent St
426,7430,0.0238095238095238,0.347619047619048,8.84761904761905,time_period_11,-71.0056739999999,42.449659,7430.0,Lincoln Ave opp Kent St
426,7431,0.0,0.0,5.6,time_period_02,-71.0024339999999,42.449889,7431.0,Lincoln Ave @ Morton Ave
426,7431,0.0,0.0,5.55,time_period_03,-71.0024339999999,42.449889,7431.0,Lincoln Ave @ Morton Ave
426,7431,0.0,0.05,7.2,time_period_03,-71.0024339999999,42.449889,7431.0,Lincoln Ave @ Morton Ave
426,7431,0.025,0.15,6.55,time_period_04,-71.0024339999999,42.449889,7431.0,Lincoln Ave @ Morton Ave
426,7431,0.0333333333333333,0.433333333333333,16.6666666666667,time_period_05,-71.0024339999999,42.449889,7431.0,Lincoln Ave @ Morton Ave
426,7431,0.0,0.433333333333333,17.0,time_period_06,-71.0024339999999,42.449889,7431.0,Lincoln Ave @ Morton Ave
426,7431,0.0,0.0,10.5,time_period_06,-71.0024339999999,42.449889,7431.0,Lincoln Ave @ Morton Ave
426,7431,0.0,0.225,10.725,time_period_07,-71.0024339999999,42.449889,7431.0,Lincoln Ave @ Morton Ave
426,7431,0.0,0.1,7.9,time_period_08,-71.0024339999999,42.449889,7431.0,Lincoln Ave @ Morton Ave
426,7431,0.0,0.1,7.3,time_period_09,-71.0024339999999,42.449889,7431.0,Lincoln Ave @ Morton Ave
426,7431,0.0,0.0,3.1,time_period_09,-71.0024339999999,42.449889,7431.0,Lincoln Ave @ Morton Ave
426,7431,0.0055555555555555,0.0222222222222222,11.85,time_period_10,-71.0024339999999,42.449889,7431.0,Lincoln Ave @ Morton Ave
426,7431,0.0285714285714286,0.0095238095238095,8.86190476190476,time_period_11,-71.0024339999999,42.449889,7431.0,Lincoln Ave @ Morton Ave
426,7432,0.0,0.0,5.65,time_period_02,-71.000911,42.449907,7432.0,Lincoln Ave @ Sunnyside Pk
426,7432,0.0,0.15,5.4,time_period_03,-71.000911,42.449907,7432.0,Lincoln Ave @ Sunnyside Pk
426,7432,0.0,0.0,7.2,time_period_03,-71.000911,42.449907,7432.0,Lincoln Ave @ Sunnyside Pk
426,7432,0.0,0.05,6.5,time_period_04,-71.000911,42.449907,7432.0,Lincoln Ave @ Sunnyside Pk
426,7432,0.0,0.1,16.5666666666667,time_period_05,-71.000911,42.449907,7432.0,Lincoln Ave @ Sunnyside Pk
426,7432,0.0,0.133333333333333,16.9,time_period_06,-71.000911,42.449907,7432.0,Lincoln Ave @ Sunnyside Pk
426,7432,0.0,0.0,10.5,time_period_06,-71.000911,42.449907,7432.0,Lincoln Ave @ Sunnyside Pk
426,7432,0.0,0.05,10.675,time_period_07,-71.000911,42.449907,7432.0,Lincoln Ave @ Sunnyside Pk
426,7432,0.0,0.1,7.8,time_period_08,-71.000911,42.449907,7432.0,Lincoln Ave @ Sunnyside Pk
426,7432,0.0,0.1,7.2,time_period_09,-71.000911,42.449907,7432.0,Lincoln Ave @ Sunnyside Pk
426,7432,0.0,0.0,3.1,time_period_09,-71.000911,42.449907,7432.0,Lincoln Ave @ Sunnyside Pk
426,7432,0.0166666666666667,0.0222222222222222,11.8388888888889,time_period_10,-71.000911,42.449907,7432.0,Lincoln Ave @ Sunnyside Pk
426,7432,0.0095238095238095,0.0047619047619047,8.87142857142857,time_period_11,-71.000911,42.449907,7432.0,Lincoln Ave @ Sunnyside Pk
426,7433,0.0,0.0,5.65,time_period_02,-70.998981,42.449863,7433.0,Lincoln Ave @ Nason Rd
426,7433,0.05,0.0,5.45,time_period_03,-70.998981,42.449863,7433.0,Lincoln Ave @ Nason Rd
426,7433,0.15,0.0,7.3,time_period_03,-70.998981,42.449863,7433.0,Lincoln Ave @ Nason Rd
426,7433,0.0,0.0,6.525,time_period_04,-70.998981,42.449863,7433.0,Lincoln Ave @ Nason Rd
426,7433,0.0333333333333333,0.0,16.6,time_period_05,-70.998981,42.449863,7433.0,Lincoln Ave @ Nason Rd
426,7433,0.0,0.0333333333333333,16.8333333333333,time_period_06,-70.998981,42.449863,7433.0,Lincoln Ave @ Nason Rd
426,7433,0.0,0.1,10.4,time_period_06,-70.998981,42.449863,7433.0,Lincoln Ave @ Nason Rd
426,7433,0.0,0.1,10.575,time_period_07,-70.998981,42.449863,7433.0,Lincoln Ave @ Nason Rd
426,7433,0.0,0.0,7.8,time_period_08,-70.998981,42.449863,7433.0,Lincoln Ave @ Nason Rd
426,7433,0.0,0.0,7.2,time_period_09,-70.998981,42.449863,7433.0,Lincoln Ave @ Nason Rd
426,7433,0.0,0.0,3.1,time_period_09,-70.998981,42.449863,7433.0,Lincoln Ave @ Nason Rd
426,7433,0.05,0.05,11.8388888888889,time_period_10,-70.998981,42.449863,7433.0,Lincoln Ave @ Nason Rd
426,7433,0.0333333333333333,0.0142857142857143,8.89047619047619,time_period_11,-70.998981,42.449863,7433.0,Lincoln Ave @ Nason Rd
426,7434,0.35,0.0,6.0,time_period_02,-70.9964409999999,42.4496330000001,7434.0,Lincoln Ave opp Atlantic Ave
426,7434,0.0,0.15,5.3,time_period_03,-70.9964409999999,42.4496330000001,7434.0,Lincoln Ave opp Atlantic Ave
426,7434,0.05,0.0,7.3,time_period_03,-70.9964409999999,42.4496330000001,7434.0,Lincoln Ave opp Atlantic Ave
426,7434,0.175,0.225,6.475,time_period_04,-70.9964409999999,42.4496330000001,7434.0,Lincoln Ave opp Atlantic Ave
426,7434,0.133333333333333,0.766666666666667,15.9666666666667,time_period_05,-70.9964409999999,42.4496330000001,7434.0,Lincoln Ave opp Atlantic Ave
426,7434,0.0333333333333333,0.6,16.2333333333333,time_period_06,-70.9964409999999,42.4496330000001,7434.0,Lincoln Ave opp Atlantic Ave
426,7434,0.0,0.1,10.3,time_period_06,-70.9964409999999,42.4496330000001,7434.0,Lincoln Ave opp Atlantic Ave
426,7434,0.075,0.475,10.175,time_period_07,-70.9964409999999,42.4496330000001,7434.0,Lincoln Ave opp Atlantic Ave
426,7434,0.0,0.1,7.7,time_period_08,-70.9964409999999,42.4496330000001,7434.0,Lincoln Ave opp Atlantic Ave
426,7434,0.2,0.0,7.4,time_period_09,-70.9964409999999,42.4496330000001,7434.0,Lincoln Ave opp Atlantic Ave
426,7434,0.0,0.0,3.1,time_period_09,-70.9964409999999,42.4496330000001,7434.0,Lincoln Ave opp Atlantic Ave
426,7434,0.116666666666667,0.144444444444444,11.8222222222222,time_period_10,-70.9964409999999,42.4496330000001,7434.0,Lincoln Ave opp Atlantic Ave
426,7434,0.119047619047619,0.161904761904762,8.83809523809524,time_period_11,-70.9964409999999,42.4496330000001,7434.0,Lincoln Ave opp Atlantic Ave
426,7435,0.05,0.5,5.55,time_period_02,-70.994255,42.450155,7435.0,Lincoln Ave @ Bristow St
426,7435,0.05,0.0,5.35,time_period_03,-70.994255,42.450155,7435.0,Lincoln Ave @ Bristow St
426,7435,0.05,0.05,7.3,time_period_03,-70.994255,42.450155,7435.0,Lincoln Ave @ Bristow St
426,7435,0.1,0.3,6.3,time_period_04,-70.994255,42.450155,7435.0,Lincoln Ave @ Bristow St
426,7435,0.133333333333333,0.833333333333333,15.2333333333333,time_period_05,-70.994255,42.450155,7435.0,Lincoln Ave @ Bristow St
426,7435,0.1,0.433333333333333,15.9,time_period_06,-70.994255,42.450155,7435.0,Lincoln Ave @ Bristow St
426,7435,0.1,0.0,10.3,time_period_06,-70.994255,42.450155,7435.0,Lincoln Ave @ Bristow St
426,7435,0.075,0.25,10.075,time_period_07,-70.994255,42.450155,7435.0,Lincoln Ave @ Bristow St
426,7435,0.05,0.15,7.6,time_period_08,-70.994255,42.450155,7435.0,Lincoln Ave @ Bristow St
426,7435,0.0,0.0,7.4,time_period_09,-70.994255,42.450155,7435.0,Lincoln Ave @ Bristow St
426,7435,0.0,0.0,3.0,time_period_09,-70.994255,42.450155,7435.0,Lincoln Ave @ Bristow St
426,7435,0.105555555555556,0.0777777777777778,11.8388888888889,time_period_10,-70.994255,42.450155,7435.0,Lincoln Ave @ Bristow St
426,7435,0.0476190476190476,0.0619047619047619,8.82857142857143,time_period_11,-70.994255,42.450155,7435.0,Lincoln Ave @ Bristow St
426,7436,0.0,0.0,5.55,time_period_02,-70.993206,42.4510480000001,7436.0,Lincoln Ave opp Overlea Ave
426,7436,0.0,0.0,5.35,time_period_03,-70.993206,42.4510480000001,7436.0,Lincoln Ave opp Overlea Ave
426,7436,0.0,0.0,7.3,time_period_03,-70.993206,42.4510480000001,7436.0,Lincoln Ave opp Overlea Ave
426,7436,0.0,0.0,6.275,time_period_04,-70.993206,42.4510480000001,7436.0,Lincoln Ave opp Overlea Ave
426,7436,0.0,0.0,15.2333333333333,time_period_05,-70.993206,42.4510480000001,7436.0,Lincoln Ave opp Overlea Ave
426,7436,0.0,0.0,15.9,time_period_06,-70.993206,42.4510480000001,7436.0,Lincoln Ave opp Overlea Ave
426,7436,0.0,0.0,10.3,time_period_06,-70.993206,42.4510480000001,7436.0,Lincoln Ave opp Overlea Ave
426,7436,0.0,0.0,10.075,time_period_07,-70.993206,42.4510480000001,7436.0,Lincoln Ave opp Overlea Ave
426,7436,0.0,0.0,7.6,time_period_08,-70.993206,42.4510480000001,7436.0,Lincoln Ave opp Overlea Ave
426,7436,0.0,0.0,7.4,time_period_09,-70.993206,42.4510480000001,7436.0,Lincoln Ave opp Overlea Ave
426,7436,0.0,0.0,3.0,time_period_09,-70.993206,42.4510480000001,7436.0,Lincoln Ave opp Overlea Ave
426,7436,0.0111111111111111,0.0055555555555555,11.85,time_period_10,-70.993206,42.4510480000001,7436.0,Lincoln Ave opp Overlea Ave
426,7436,0.0,0.0,8.82857142857143,time_period_11,-70.993206,42.4510480000001,7436.0,Lincoln Ave opp Overlea Ave
426,7437,0.0,0.0,5.55,time_period_02,-70.9924589999999,42.4518350000001,7437.0,Lincoln Ave @ Guild Rd
426,7437,0.0,0.0,5.35,time_period_03,-70.9924589999999,42.4518350000001,7437.0,Lincoln Ave @ Guild Rd
426,7437,0.3,0.05,7.65,time_period_03,-70.9924589999999,42.4518350000001,7437.0,Lincoln Ave @ Guild Rd
426,7437,0.075,0.0,6.325,time_period_04,-70.9924589999999,42.4518350000001,7437.0,Lincoln Ave @ Guild Rd
426,7437,0.1,0.133333333333333,15.2,time_period_05,-70.9924589999999,42.4518350000001,7437.0,Lincoln Ave @ Guild Rd
426,7437,0.0,0.233333333333333,15.7666666666667,time_period_06,-70.9924589999999,42.4518350000001,7437.0,Lincoln Ave @ Guild Rd
426,7437,0.0,0.0,10.3,time_period_06,-70.9924589999999,42.4518350000001,7437.0,Lincoln Ave @ Guild Rd
426,7437,0.0,0.15,9.925,time_period_07,-70.9924589999999,42.4518350000001,7437.0,Lincoln Ave @ Guild Rd
426,7437,0.0,0.15,7.45,time_period_08,-70.9924589999999,42.4518350000001,7437.0,Lincoln Ave @ Guild Rd
426,7437,0.0,0.0,7.4,time_period_09,-70.9924589999999,42.4518350000001,7437.0,Lincoln Ave @ Guild Rd
426,7437,0.0,0.0,3.0,time_period_09,-70.9924589999999,42.4518350000001,7437.0,Lincoln Ave @ Guild Rd
426,7437,0.0555555555555556,0.0555555555555556,11.8555555555556,time_period_10,-70.9924589999999,42.4518350000001,7437.0,Lincoln Ave @ Guild Rd
426,7437,0.0095238095238095,0.019047619047619,8.81428571428571,time_period_11,-70.9924589999999,42.4518350000001,7437.0,Lincoln Ave @ Guild Rd
426,7438,0.0,0.0,5.55,time_period_02,-70.991676,42.452929,7438.0,Lincoln Ave @ Bates St
426,7438,0.0,0.0,5.35,time_period_03,-70.991676,42.452929,7438.0,Lincoln Ave @ Bates St
426,7438,0.05,0.0,7.65,time_period_03,-70.991676,42.452929,7438.0,Lincoln Ave @ Bates St
426,7438,0.025,0.05,6.325,time_period_04,-70.991676,42.452929,7438.0,Lincoln Ave @ Bates St
426,7438,0.0333333333333333,0.5,14.6666666666667,time_period_05,-70.991676,42.452929,7438.0,Lincoln Ave @ Bates St
426,7438,0.0666666666666667,0.2,15.6333333333333,time_period_06,-70.991676,42.452929,7438.0,Lincoln Ave @ Bates St
426,7438,0.0,0.0,10.3,time_period_06,-70.991676,42.452929,7438.0,Lincoln Ave @ Bates St
426,7438,0.025,0.225,9.775,time_period_07,-70.991676,42.452929,7438.0,Lincoln Ave @ Bates St
426,7438,0.0,0.4,7.1,time_period_08,-70.991676,42.452929,7438.0,Lincoln Ave @ Bates St
426,7438,0.0,0.1,7.4,time_period_09,-70.991676,42.452929,7438.0,Lincoln Ave @ Bates St
426,7438,0.0,0.0,3.0,time_period_09,-70.991676,42.452929,7438.0,Lincoln Ave @ Bates St
426,7438,0.0333333333333333,0.105555555555556,11.7833333333333,time_period_10,-70.991676,42.452929,7438.0,Lincoln Ave @ Bates St
426,7438,0.0095238095238095,0.0761904761904762,8.73809523809524,time_period_11,-70.991676,42.452929,7438.0,Lincoln Ave @ Bates St
426,7439,0.0,0.2,5.45,time_period_02,-70.9902999999999,42.455321,7439.0,Lincoln Ave @ Ballard St
426,7439,0.1,0.0,5.4,time_period_03,-70.9902999999999,42.455321,7439.0,Lincoln Ave @ Ballard St
426,7439,0.05,0.0,7.7,time_period_03,-70.9902999999999,42.455321,7439.0,Lincoln Ave @ Ballard St
426,7439,0.1,0.175,6.25,time_period_04,-70.9902999999999,42.455321,7439.0,Lincoln Ave @ Ballard St
426,7439,0.0666666666666667,0.6,14.2333333333333,time_period_05,-70.9902999999999,42.455321,7439.0,Lincoln Ave @ Ballard St
426,7439,0.0333333333333333,0.8,14.9,time_period_06,-70.9902999999999,42.455321,7439.0,Lincoln Ave @ Ballard St
426,7439,0.1,0.1,10.3,time_period_06,-70.9902999999999,42.455321,7439.0,Lincoln Ave @ Ballard St
426,7439,0.0,0.175,9.575,time_period_07,-70.9902999999999,42.455321,7439.0,Lincoln Ave @ Ballard St
426,7439,0.0,0.65,6.5,time_period_08,-70.9902999999999,42.455321,7439.0,Lincoln Ave @ Ballard St
426,7439,0.0,0.1,7.2,time_period_09,-70.9902999999999,42.455321,7439.0,Lincoln Ave @ Ballard St
426,7439,0.0,0.0,3.0,time_period_09,-70.9902999999999,42.455321,7439.0,Lincoln Ave @ Ballard St
426,7439,0.0555555555555556,0.127777777777778,11.7222222222222,time_period_10,-70.9902999999999,42.455321,7439.0,Lincoln Ave @ Ballard St
426,7439,0.0238095238095238,0.1,8.67142857142857,time_period_11,-70.9902999999999,42.455321,7439.0,Lincoln Ave @ Ballard St
426,7440,0.0,0.0,5.45,time_period_02,-70.989976,42.456505,7440.0,60 Lincoln Ave
426,7440,0.0,0.0,5.4,time_period_03,-70.989976,42.456505,7440.0,60 Lincoln Ave
426,7440,0.0,0.0,7.7,time_period_03,-70.989976,42.456505,7440.0,60 Lincoln Ave
426,7440,0.0,0.0,6.25,time_period_04,-70.989976,42.456505,7440.0,60 Lincoln Ave
426,7440,0.0,0.0666666666666667,14.1333333333333,time_period_05,-70.989976,42.456505,7440.0,60 Lincoln Ave
426,7440,0.0,0.0,14.9,time_period_06,-70.989976,42.456505,7440.0,60 Lincoln Ave
426,7440,0.0,0.0,10.3,time_period_06,-70.989976,42.456505,7440.0,60 Lincoln Ave
426,7440,0.0,0.025,9.575,time_period_07,-70.989976,42.456505,7440.0,60 Lincoln Ave
426,7440,0.0,0.0,6.5,time_period_08,-70.989976,42.456505,7440.0,60 Lincoln Ave
426,7440,0.0,0.0,7.2,time_period_09,-70.989976,42.456505,7440.0,60 Lincoln Ave
426,7440,0.0,0.0,3.0,time_period_09,-70.989976,42.456505,7440.0,60 Lincoln Ave
426,7440,0.0111111111111111,0.0222222222222222,11.7111111111111,time_period_10,-70.989976,42.456505,7440.0,60 Lincoln Ave
426,7440,0.0,0.019047619047619,8.64761904761905,time_period_11,-70.989976,42.456505,7440.0,60 Lincoln Ave
426,7441,0.0,0.2,5.25,time_period_02,-70.989636,42.4577550000001,7441.0,Lincoln Ave @ Vincent St
426,7441,0.0,0.0,5.4,time_period_03,-70.989636,42.4577550000001,7441.0,Lincoln Ave @ Vincent St
426,7441,0.0,0.0,7.7,time_period_03,-70.989636,42.4577550000001,7441.0,Lincoln Ave @ Vincent St
426,7441,0.025,0.0,6.275,time_period_04,-70.989636,42.4577550000001,7441.0,Lincoln Ave @ Vincent St
426,7441,0.233333333333333,0.0333333333333333,14.3,time_period_05,-70.989636,42.4577550000001,7441.0,Lincoln Ave @ Vincent St
426,7441,0.0,0.133333333333333,14.7666666666667,time_period_06,-70.989636,42.4577550000001,7441.0,Lincoln Ave @ Vincent St
426,7441,0.0,0.0,10.3,time_period_06,-70.989636,42.4577550000001,7441.0,Lincoln Ave @ Vincent St
426,7441,0.0,0.1,9.5,time_period_07,-70.989636,42.4577550000001,7441.0,Lincoln Ave @ Vincent St
426,7441,0.0,0.0,6.5,time_period_08,-70.989636,42.4577550000001,7441.0,Lincoln Ave @ Vincent St
426,7441,0.0,0.0,7.2,time_period_09,-70.989636,42.4577550000001,7441.0,Lincoln Ave @ Vincent St
426,7441,0.0,0.0,3.0,time_period_09,-70.989636,42.4577550000001,7441.0,Lincoln Ave @ Vincent St
426,7441,0.0444444444444444,0.0388888888888889,11.7166666666667,time_period_10,-70.989636,42.4577550000001,7441.0,Lincoln Ave @ Vincent St
426,7441,0.019047619047619,0.0380952380952381,8.62857142857143,time_period_11,-70.989636,42.4577550000001,7441.0,Lincoln Ave @ Vincent St
426,7442,0.0,0.05,5.25,time_period_02,-70.9893269999999,42.458849,7442.0,30 Lincoln Ave
426,7442,0.0,0.0,5.4,time_period_03,-70.9893269999999,42.458849,7442.0,30 Lincoln Ave
426,7442,0.1,0.0,7.8,time_period_03,-70.9893269999999,42.458849,7442.0,30 Lincoln Ave
426,7442,0.075,0.05,6.3,time_period_04,-70.9893269999999,42.458849,7442.0,30 Lincoln Ave
426,7442,0.2,0.0666666666666667,14.4333333333333,time_period_05,-70.9893269999999,42.458849,7442.0,30 Lincoln Ave
426,7442,0.0,0.0333333333333333,14.7333333333333,time_period_06,-70.9893269999999,42.458849,7442.0,30 Lincoln Ave
426,7442,0.0,0.0,10.3,time_period_06,-70.9893269999999,42.458849,7442.0,30 Lincoln Ave
426,7442,0.0,0.05,9.425,time_period_07,-70.9893269999999,42.458849,7442.0,30 Lincoln Ave
426,7442,0.0,0.0,6.5,time_period_08,-70.9893269999999,42.458849,7442.0,30 Lincoln Ave
426,7442,0.0,0.0,7.2,time_period_09,-70.9893269999999,42.458849,7442.0,30 Lincoln Ave
426,7442,0.0,0.0,3.0,time_period_09,-70.9893269999999,42.458849,7442.0,30 Lincoln Ave
426,7442,0.0055555555555555,0.0666666666666667,11.6555555555556,time_period_10,-70.9893269999999,42.458849,7442.0,30 Lincoln Ave
426,7442,0.0047619047619047,0.0142857142857143,8.61428571428571,time_period_11,-70.9893269999999,42.458849,7442.0,30 Lincoln Ave
426,7443,0.05,0.05,5.25,time_period_02,-70.988635,42.460498,7443.0,Boston St opp Hamilton St
426,7443,0.15,0.25,5.3,time_period_03,-70.988635,42.460498,7443.0,Boston St opp Hamilton St
426,7443,0.15,0.3,7.65,time_period_03,-70.988635,42.460498,7443.0,Boston St opp Hamilton St
426,7443,0.275,0.1,6.475,time_period_04,-70.988635,42.460498,7443.0,Boston St opp Hamilton St
426,7443,0.266666666666667,0.733333333333333,13.9333333333333,time_period_05,-70.988635,42.460498,7443.0,Boston St opp Hamilton St
426,7443,0.1,0.533333333333333,14.3,time_period_06,-70.988635,42.460498,7443.0,Boston St opp Hamilton St
426,7443,0.1,0.1,10.3,time_period_06,-70.988635,42.460498,7443.0,Boston St opp Hamilton St
426,7443,0.05,0.725,8.725,time_period_07,-70.988635,42.460498,7443.0,Boston St opp Hamilton St
426,7443,0.0,0.55,6.0,time_period_08,-70.988635,42.460498,7443.0,Boston St opp Hamilton St
426,7443,0.0,0.2,6.9,time_period_09,-70.988635,42.460498,7443.0,Boston St opp Hamilton St
426,7443,0.0,0.2,2.8,time_period_09,-70.988635,42.460498,7443.0,Boston St opp Hamilton St
426,7443,0.122222222222222,0.361111111111111,11.3944444444444,time_period_10,-70.988635,42.460498,7443.0,Boston St opp Hamilton St
426,7443,0.0857142857142857,0.2,8.52380952380952,time_period_11,-70.988635,42.460498,7443.0,Boston St opp Hamilton St
426,7445,0.15,0.0,5.35,time_period_02,-70.986564,42.4618520000001,7445.0,Boston St @ Winnepurkit Ave
426,7445,0.05,0.1,5.25,time_period_03,-70.986564,42.4618520000001,7445.0,Boston St @ Winnepurkit Ave
426,7445,0.1,0.1,7.75,time_period_03,-70.986564,42.4618520000001,7445.0,Boston St @ Winnepurkit Ave
426,7445,0.2,0.125,6.5,time_period_04,-70.986564,42.4618520000001,7445.0,Boston St @ Winnepurkit Ave
426,7445,0.166666666666667,0.5,13.5666666666667,time_period_05,-70.986564,42.4618520000001,7445.0,Boston St @ Winnepurkit Ave
426,7445,0.0333333333333333,0.866666666666667,13.4666666666667,time_period_06,-70.986564,42.4618520000001,7445.0,Boston St @ Winnepurkit Ave
426,7445,0.0,0.2,10.1,time_period_06,-70.986564,42.4618520000001,7445.0,Boston St @ Winnepurkit Ave
426,7445,0.0,0.75,8.025,time_period_07,-70.986564,42.4618520000001,7445.0,Boston St @ Winnepurkit Ave
426,7445,0.0,0.35,5.65,time_period_08,-70.986564,42.4618520000001,7445.0,Boston St @ Winnepurkit Ave
426,7445,0.0,0.1,6.8,time_period_09,-70.986564,42.4618520000001,7445.0,Boston St @ Winnepurkit Ave
426,7445,0.0,0.1,2.7,time_period_09,-70.986564,42.4618520000001,7445.0,Boston St @ Winnepurkit Ave
426,7445,0.0833333333333333,0.305555555555556,11.1777777777778,time_period_10,-70.986564,42.4618520000001,7445.0,Boston St @ Winnepurkit Ave
426,7445,0.019047619047619,0.180952380952381,8.36190476190476,time_period_11,-70.986564,42.4618520000001,7445.0,Boston St @ Winnepurkit Ave
426,7446,0.0,0.0,5.4,time_period_02,-70.9846909999999,42.4619650000001,7446.0,Boston St @ Southside Ave
426,7446,0.1,0.0,5.4,time_period_03,-70.9846909999999,42.4619650000001,7446.0,Boston St @ Southside Ave
426,7446,0.0,0.0,7.75,time_period_03,-70.9846909999999,42.4619650000001,7446.0,Boston St @ Southside Ave
426,7446,0.1,0.025,6.6,time_period_04,-70.9846909999999,42.4619650000001,7446.0,Boston St @ Southside Ave
426,7446,0.0333333333333333,0.133333333333333,13.4666666666667,time_period_05,-70.9846909999999,42.4619650000001,7446.0,Boston St @ Southside Ave
426,7446,0.15,0.2,22.3,time_period_05,-70.9846909999999,42.4619650000001,7446.0,Boston St @ Southside Ave
426,7446,0.1,0.15,28.55,time_period_05,-70.9846909999999,42.4619650000001,7446.0,Boston St @ Southside Ave
426,7446,0.0,0.0666666666666667,13.4,time_period_06,-70.9846909999999,42.4619650000001,7446.0,Boston St @ Southside Ave
426,7446,0.0,0.0,10.1,time_period_06,-70.9846909999999,42.4619650000001,7446.0,Boston St @ Southside Ave
426,7446,0.025,0.15,7.9,time_period_07,-70.9846909999999,42.4619650000001,7446.0,Boston St @ Southside Ave
426,7446,0.0,0.35,5.3,time_period_08,-70.9846909999999,42.4619650000001,7446.0,Boston St @ Southside Ave
426,7446,0.0,0.0,6.8,time_period_09,-70.9846909999999,42.4619650000001,7446.0,Boston St @ Southside Ave
426,7446,0.0,0.0,2.7,time_period_09,-70.9846909999999,42.4619650000001,7446.0,Boston St @ Southside Ave
426,7446,0.0166666666666667,0.0777777777777778,11.1166666666667,time_period_10,-70.9846909999999,42.4619650000001,7446.0,Boston St @ Southside Ave
426,7446,0.0095238095238095,0.0523809523809524,8.32857142857143,time_period_11,-70.9846909999999,42.4619650000001,7446.0,Boston St @ Southside Ave
426,7447,0.1,0.0,5.5,time_period_02,-70.982362,42.4617620000001,7447.0,Summer St @ Boston St
426,7447,0.15,0.1,5.4,time_period_03,-70.982362,42.4617620000001,7447.0,Summer St @ Boston St
426,7447,0.35,0.15,7.95,time_period_03,-70.982362,42.4617620000001,7447.0,Summer St @ Boston St
426,7447,0.575,0.25,6.9,time_period_04,-70.982362,42.4617620000001,7447.0,Summer St @ Boston St
426,7447,0.266666666666667,0.633333333333333,13.0333333333333,time_period_05,-70.982362,42.4617620000001,7447.0,Summer St @ Boston St
426,7447,0.2,0.2,22.4,time_period_05,-70.982362,42.4617620000001,7447.0,Summer St @ Boston St
426,7447,0.2,0.15,28.85,time_period_05,-70.982362,42.4617620000001,7447.0,Summer St @ Boston St
426,7447,0.166666666666667,1.23333333333333,12.4,time_period_06,-70.982362,42.4617620000001,7447.0,Summer St @ Boston St
426,7447,0.1,0.4,9.8,time_period_06,-70.982362,42.4617620000001,7447.0,Summer St @ Boston St
426,7447,0.4,0.5,7.8,time_period_07,-70.982362,42.4617620000001,7447.0,Summer St @ Boston St
426,7447,0.25,0.7,4.85,time_period_08,-70.982362,42.4617620000001,7447.0,Summer St @ Boston St
426,7447,0.0,0.5,6.4,time_period_09,-70.982362,42.4617620000001,7447.0,Summer St @ Boston St
426,7447,0.0,0.1,2.6,time_period_09,-70.982362,42.4617620000001,7447.0,Summer St @ Boston St
426,7447,0.177777777777778,0.361111111111111,10.9333333333333,time_period_10,-70.982362,42.4617620000001,7447.0,Summer St @ Boston St
426,7447,0.2,0.295238095238095,8.24285714285714,time_period_11,-70.982362,42.4617620000001,7447.0,Summer St @ Boston St
426,7448,1.2,0.0,6.7,time_period_02,-70.981163,42.4610730000001,7448.0,Summer St @ Deer Pk
426,7448,0.4,0.0,5.85,time_period_03,-70.981163,42.4610730000001,7448.0,Summer St @ Deer Pk
426,7448,0.05,0.2,7.85,time_period_03,-70.981163,42.4610730000001,7448.0,Summer St @ Deer Pk
426,7448,0.175,0.05,7.05,time_period_04,-70.981163,42.4610730000001,7448.0,Summer St @ Deer Pk
426,7448,0.2,0.233333333333333,13.0,time_period_05,-70.981163,42.4610730000001,7448.0,Summer St @ Deer Pk
426,7448,0.0,0.05,22.3,time_period_05,-70.981163,42.4610730000001,7448.0,Summer St @ Deer Pk
426,7448,0.05,0.15,30.2,time_period_05,-70.981163,42.4610730000001,7448.0,Summer St @ Deer Pk
426,7448,0.0333333333333333,0.333333333333333,12.0666666666667,time_period_06,-70.981163,42.4610730000001,7448.0,Summer St @ Deer Pk
426,7448,0.2,0.1,9.9,time_period_06,-70.981163,42.4610730000001,7448.0,Summer St @ Deer Pk
426,7448,0.025,0.075,7.8,time_period_07,-70.981163,42.4610730000001,7448.0,Summer St @ Deer Pk
426,7448,0.0,0.15,4.7,time_period_08,-70.981163,42.4610730000001,7448.0,Summer St @ Deer Pk
426,7448,0.0,0.1,6.3,time_period_09,-70.981163,42.4610730000001,7448.0,Summer St @ Deer Pk
426,7448,0.0,0.1,2.5,time_period_09,-70.981163,42.4610730000001,7448.0,Summer St @ Deer Pk
426,7448,0.161111111111111,0.122222222222222,10.9888888888889,time_period_10,-70.981163,42.4610730000001,7448.0,Summer St @ Deer Pk
426,7448,0.0761904761904762,0.0857142857142857,8.23809523809524,time_period_11,-70.981163,42.4610730000001,7448.0,Summer St @ Deer Pk
426,7449,0.0,0.0,6.7,time_period_02,-70.979584,42.460177,7449.0,Summer St @ Ames St
426,7449,0.15,0.05,5.95,time_period_03,-70.979584,42.460177,7449.0,Summer St @ Ames St
426,7449,0.15,0.0,8.0,time_period_03,-70.979584,42.460177,7449.0,Summer St @ Ames St
426,7449,0.075,0.05,7.05,time_period_04,-70.979584,42.460177,7449.0,Summer St @ Ames St
426,7449,0.0333333333333333,0.6,12.4333333333333,time_period_05,-70.979584,42.460177,7449.0,Summer St @ Ames St
426,7449,0.0,0.0,22.3,time_period_05,-70.979584,42.460177,7449.0,Summer St @ Ames St
426,7449,0.65,0.0,30.35,time_period_05,-70.979584,42.460177,7449.0,Summer St @ Ames St
426,7449,0.0,0.2,11.8666666666667,time_period_06,-70.979584,42.460177,7449.0,Summer St @ Ames St
426,7449,0.0,0.1,9.7,time_period_06,-70.979584,42.460177,7449.0,Summer St @ Ames St
426,7449,0.0,0.025,7.75,time_period_07,-70.979584,42.460177,7449.0,Summer St @ Ames St
426,7449,0.0,0.05,4.7,time_period_08,-70.979584,42.460177,7449.0,Summer St @ Ames St
426,7449,0.0,0.9,5.4,time_period_09,-70.979584,42.460177,7449.0,Summer St @ Ames St
426,7449,0.0,0.0,2.5,time_period_09,-70.979584,42.460177,7449.0,Summer St @ Ames St
426,7449,0.0166666666666667,0.0611111111111111,10.9555555555556,time_period_10,-70.979584,42.460177,7449.0,Summer St @ Ames St
426,7449,0.0285714285714286,0.0666666666666667,8.2,time_period_11,-70.979584,42.460177,7449.0,Summer St @ Ames St
426,17449,0.3,0.0,6.95,time_period_02,-70.978415,42.4595130000001,17449.0,Summer St opp Raddin Grove Ave
426,17449,0.15,0.0,6.0,time_period_03,-70.978415,42.4595130000001,17449.0,Summer St opp Raddin Grove Ave
426,17449,0.1,0.05,8.0,time_period_03,-70.978415,42.4595130000001,17449.0,Summer St opp Raddin Grove Ave
426,17449,0.075,0.1,7.025,time_period_04,-70.978415,42.4595130000001,17449.0,Summer St opp Raddin Grove Ave
426,17449,0.0333333333333333,0.4,12.1,time_period_05,-70.978415,42.4595130000001,17449.0,Summer St opp Raddin Grove Ave
426,17449,0.05,0.35,22.05,time_period_05,-70.978415,42.4595130000001,17449.0,Summer St opp Raddin Grove Ave
426,17449,0.0,0.0,30.65,time_period_05,-70.978415,42.4595130000001,17449.0,Summer St opp Raddin Grove Ave
426,17449,0.0333333333333333,0.466666666666667,11.4333333333333,time_period_06,-70.978415,42.4595130000001,17449.0,Summer St opp Raddin Grove Ave
426,17449,0.0,0.6,9.2,time_period_06,-70.978415,42.4595130000001,17449.0,Summer St opp Raddin Grove Ave
426,17449,0.05,0.3,7.55,time_period_07,-70.978415,42.4595130000001,17449.0,Summer St opp Raddin Grove Ave
426,17449,0.0,0.0,4.6,time_period_08,-70.978415,42.4595130000001,17449.0,Summer St opp Raddin Grove Ave
426,17449,0.0,0.0,5.4,time_period_09,-70.978415,42.4595130000001,17449.0,Summer St opp Raddin Grove Ave
426,17449,0.0,0.0,2.5,time_period_09,-70.978415,42.4595130000001,17449.0,Summer St opp Raddin Grove Ave
426,17449,0.0666666666666667,0.194444444444444,10.8222222222222,time_period_10,-70.978415,42.4595130000001,17449.0,Summer St opp Raddin Grove Ave
426,17449,0.0333333333333333,0.147619047619048,8.09047619047619,time_period_11,-70.978415,42.4595130000001,17449.0,Summer St opp Raddin Grove Ave
426,7450,0.05,0.0,7.0,time_period_02,-70.9771279999999,42.458786,7450.0,Summer St @ Dearborn Ave
426,7450,0.1,0.0,6.1,time_period_03,-70.9771279999999,42.458786,7450.0,Summer St @ Dearborn Ave
426,7450,0.65,0.0,8.65,time_period_03,-70.9771279999999,42.458786,7450.0,Summer St @ Dearborn Ave
426,7450,0.125,0.05,7.1,time_period_04,-70.9771279999999,42.458786,7450.0,Summer St @ Dearborn Ave
426,7450,0.166666666666667,0.3,11.9,time_period_05,-70.9771279999999,42.458786,7450.0,Summer St @ Dearborn Ave
426,7450,0.0,0.05,22.05,time_period_05,-70.9771279999999,42.458786,7450.0,Summer St @ Dearborn Ave
426,7450,0.05,0.05,30.65,time_period_05,-70.9771279999999,42.458786,7450.0,Summer St @ Dearborn Ave
426,7450,0.0,0.3,11.1666666666667,time_period_06,-70.9771279999999,42.458786,7450.0,Summer St @ Dearborn Ave
426,7450,0.0,0.3,8.9,time_period_06,-70.9771279999999,42.458786,7450.0,Summer St @ Dearborn Ave
426,7450,0.0,0.05,7.5,time_period_07,-70.9771279999999,42.458786,7450.0,Summer St @ Dearborn Ave
426,7450,0.0,0.0,4.6,time_period_08,-70.9771279999999,42.458786,7450.0,Summer St @ Dearborn Ave
426,7450,0.0,0.0,5.4,time_period_09,-70.9771279999999,42.458786,7450.0,Summer St @ Dearborn Ave
426,7450,0.0,0.0,2.5,time_period_09,-70.9771279999999,42.458786,7450.0,Summer St @ Dearborn Ave
426,7450,0.0277777777777778,0.1,10.7555555555556,time_period_10,-70.9771279999999,42.458786,7450.0,Summer St @ Dearborn Ave
426,7450,0.0285714285714286,0.0428571428571429,8.07142857142857,time_period_11,-70.9771279999999,42.458786,7450.0,Summer St @ Dearborn Ave
426,7451,0.0,0.0,7.0,time_period_02,-70.976191,42.458268,7451.0,Summer St @ Margin St
426,7451,0.0,0.1,5.95,time_period_03,-70.976191,42.458268,7451.0,Summer St @ Margin St
426,7451,0.0,0.0,8.65,time_period_03,-70.976191,42.458268,7451.0,Summer St @ Margin St
426,7451,0.0,0.0,7.1,time_period_04,-70.976191,42.458268,7451.0,Summer St @ Margin St
426,7451,0.0,0.0666666666666667,11.8666666666667,time_period_05,-70.976191,42.458268,7451.0,Summer St @ Margin St
426,7451,0.0,0.05,22.0,time_period_05,-70.976191,42.458268,7451.0,Summer St @ Margin St
426,7451,0.05,0.0,30.65,time_period_05,-70.976191,42.458268,7451.0,Summer St @ Margin St
426,7451,0.0,0.333333333333333,10.8666666666667,time_period_06,-70.976191,42.458268,7451.0,Summer St @ Margin St
426,7451,0.0,0.1,8.8,time_period_06,-70.976191,42.458268,7451.0,Summer St @ Margin St
426,7451,0.0,0.025,7.475,time_period_07,-70.976191,42.458268,7451.0,Summer St @ Margin St
426,7451,0.0,0.0,4.6,time_period_08,-70.976191,42.458268,7451.0,Summer St @ Margin St
426,7451,0.0,0.5,4.8,time_period_09,-70.976191,42.458268,7451.0,Summer St @ Margin St
426,7451,0.0,0.0,2.5,time_period_09,-70.976191,42.458268,7451.0,Summer St @ Margin St
426,7451,0.0166666666666667,0.0277777777777778,10.7444444444444,time_period_10,-70.976191,42.458268,7451.0,Summer St @ Margin St
426,7451,0.0142857142857143,0.0285714285714286,8.05714285714286,time_period_11,-70.976191,42.458268,7451.0,Summer St @ Margin St
426,7452,0.1,0.1,7.0,time_period_02,-70.972838,42.457719,7452.0,Summer St @ River St
426,7452,0.0,0.1,5.9,time_period_03,-70.972838,42.457719,7452.0,Summer St @ River St
426,7452,0.05,0.1,8.7,time_period_03,-70.972838,42.457719,7452.0,Summer St @ River St
426,7452,0.05,0.225,6.975,time_period_04,-70.972838,42.457719,7452.0,Summer St @ River St
426,7452,0.133333333333333,0.8,11.1666666666667,time_period_05,-70.972838,42.457719,7452.0,Summer St @ River St
426,7452,0.1,0.75,21.35,time_period_05,-70.972838,42.457719,7452.0,Summer St @ River St
426,7452,0.15,1.15,29.75,time_period_05,-70.972838,42.457719,7452.0,Summer St @ River St
426,7452,0.166666666666667,0.466666666666667,10.6,time_period_06,-70.972838,42.457719,7452.0,Summer St @ River St
426,7452,1.0,1.4,8.4,time_period_06,-70.972838,42.457719,7452.0,Summer St @ River St
426,7452,0.025,0.25,7.25,time_period_07,-70.972838,42.457719,7452.0,Summer St @ River St
426,7452,0.0,0.2,4.45,time_period_08,-70.972838,42.457719,7452.0,Summer St @ River St
426,7452,0.0,0.1,4.8,time_period_09,-70.972838,42.457719,7452.0,Summer St @ River St
426,7452,0.0,0.1,2.4,time_period_09,-70.972838,42.457719,7452.0,Summer St @ River St
426,7452,0.138888888888889,0.416666666666667,10.4722222222222,time_period_10,-70.972838,42.457719,7452.0,Summer St @ River St
426,7452,0.0238095238095238,0.257142857142857,7.82380952380952,time_period_11,-70.972838,42.457719,7452.0,Summer St @ River St
426,4521,0.05,0.05,7.0,time_period_02,-70.9712749999999,42.457568,4521.0,Western Ave @ Minot St
426,4521,0.05,0.15,5.85,time_period_03,-70.9712749999999,42.457568,4521.0,Western Ave @ Minot St
426,4521,0.1,0.3,8.5,time_period_03,-70.9712749999999,42.457568,4521.0,Western Ave @ Minot St
426,4521,0.15,0.25,6.875,time_period_04,-70.9712749999999,42.457568,4521.0,Western Ave @ Minot St
426,4521,0.0666666666666667,0.266666666666667,11.0,time_period_05,-70.9712749999999,42.457568,4521.0,Western Ave @ Minot St
426,4521,0.35,0.6,21.15,time_period_05,-70.9712749999999,42.457568,4521.0,Western Ave @ Minot St
426,4521,0.15,0.8,29.05,time_period_05,-70.9712749999999,42.457568,4521.0,Western Ave @ Minot St
426,4521,0.1,0.466666666666667,10.2,time_period_06,-70.9712749999999,42.457568,4521.0,Western Ave @ Minot St
426,4521,0.1,0.2,8.4,time_period_06,-70.9712749999999,42.457568,4521.0,Western Ave @ Minot St
426,4521,0.025,0.4,6.925,time_period_07,-70.9712749999999,42.457568,4521.0,Western Ave @ Minot St
426,4521,0.05,0.1,4.35,time_period_08,-70.9712749999999,42.457568,4521.0,Western Ave @ Minot St
426,4521,0.0,0.2,4.6,time_period_09,-70.9712749999999,42.457568,4521.0,Western Ave @ Minot St
426,4521,0.0,0.0,2.4,time_period_09,-70.9712749999999,42.457568,4521.0,Western Ave @ Minot St
426,4521,0.172222222222222,0.338888888888889,10.2888888888889,time_period_10,-70.9712749999999,42.457568,4521.0,Western Ave @ Minot St
426,4521,0.0571428571428571,0.157142857142857,7.73333333333333,time_period_11,-70.9712749999999,42.457568,4521.0,Western Ave @ Minot St
426,4522,0.85,0.05,7.8,time_period_02,-70.969956,42.458675,4522.0,Western Ave @ Summer St
426,4522,0.35,0.2,5.95,time_period_03,-70.969956,42.458675,4522.0,Western Ave @ Summer St
426,4522,0.3,0.4,8.35,time_period_03,-70.969956,42.458675,4522.0,Western Ave @ Summer St
426,4522,0.25,0.4,6.75,time_period_04,-70.969956,42.458675,4522.0,Western Ave @ Summer St
426,4522,0.5,0.766666666666667,10.7333333333333,time_period_05,-70.969956,42.458675,4522.0,Western Ave @ Summer St
426,4522,0.25,2.8,18.65,time_period_05,-70.969956,42.458675,4522.0,Western Ave @ Summer St
426,4522,0.4,2.8,26.7,time_period_05,-70.969956,42.458675,4522.0,Western Ave @ Summer St
426,4522,0.166666666666667,0.766666666666667,9.63333333333333,time_period_06,-70.969956,42.458675,4522.0,Western Ave @ Summer St
426,4522,0.2,0.9,7.6,time_period_06,-70.969956,42.458675,4522.0,Western Ave @ Summer St
426,4522,0.175,0.675,6.375,time_period_07,-70.969956,42.458675,4522.0,Western Ave @ Summer St
426,4522,0.05,0.3,4.05,time_period_08,-70.969956,42.458675,4522.0,Western Ave @ Summer St
426,4522,0.0,0.5,4.1,time_period_09,-70.969956,42.458675,4522.0,Western Ave @ Summer St
426,4522,0.0,0.2,2.2,time_period_09,-70.969956,42.458675,4522.0,Western Ave @ Summer St
426,4522,0.222222222222222,0.8,9.69444444444444,time_period_10,-70.969956,42.458675,4522.0,Western Ave @ Summer St
426,4522,0.271428571428571,0.519047619047619,7.48095238095238,time_period_11,-70.969956,42.458675,4522.0,Western Ave @ Summer St
426,4523,0.05,0.2,7.6,time_period_02,-70.967777,42.460699,4523.0,Western Ave @ Walden St
426,4523,0.4,0.1,6.25,time_period_03,-70.967777,42.460699,4523.0,Western Ave @ Walden St
426,4523,0.3,0.35,8.35,time_period_03,-70.967777,42.460699,4523.0,Western Ave @ Walden St
426,4523,0.075,0.225,6.625,time_period_04,-70.967777,42.460699,4523.0,Western Ave @ Walden St
426,4523,0.2,0.5,10.4,time_period_05,-70.967777,42.460699,4523.0,Western Ave @ Walden St
426,4523,0.25,1.45,17.3,time_period_05,-70.967777,42.460699,4523.0,Western Ave @ Walden St
426,4523,0.2,1.05,25.85,time_period_05,-70.967777,42.460699,4523.0,Western Ave @ Walden St
426,4523,0.0333333333333333,0.533333333333333,9.13333333333333,time_period_06,-70.967777,42.460699,4523.0,Western Ave @ Walden St
426,4523,0.0,0.3,7.4,time_period_06,-70.967777,42.460699,4523.0,Western Ave @ Walden St
426,4523,0.05,0.325,6.125,time_period_07,-70.967777,42.460699,4523.0,Western Ave @ Walden St
426,4523,0.0,0.2,3.85,time_period_08,-70.967777,42.460699,4523.0,Western Ave @ Walden St
426,4523,0.0,0.3,3.9,time_period_09,-70.967777,42.460699,4523.0,Western Ave @ Walden St
426,4523,0.0,0.1,2.2,time_period_09,-70.967777,42.460699,4523.0,Western Ave @ Walden St
426,4523,0.111111111111111,0.5,9.31666666666667,time_period_10,-70.967777,42.460699,4523.0,Western Ave @ Walden St
426,4523,0.152380952380952,0.376190476190476,7.27619047619048,time_period_11,-70.967777,42.460699,4523.0,Western Ave @ Walden St
426,4524,0.05,0.0,7.65,time_period_02,-70.966197,42.462157,4524.0,760 Western Ave
426,4524,0.15,0.25,6.2,time_period_03,-70.966197,42.462157,4524.0,760 Western Ave
426,4524,0.15,0.15,8.35,time_period_03,-70.966197,42.462157,4524.0,760 Western Ave
426,4524,0.025,0.175,6.475,time_period_04,-70.966197,42.462157,4524.0,760 Western Ave
426,4524,0.133333333333333,0.266666666666667,10.2666666666667,time_period_05,-70.966197,42.462157,4524.0,760 Western Ave
426,4524,0.0,0.2,17.15,time_period_05,-70.966197,42.462157,4524.0,760 Western Ave
426,4524,0.1,0.15,25.75,time_period_05,-70.966197,42.462157,4524.0,760 Western Ave
426,4524,0.0,0.4,8.73333333333333,time_period_06,-70.966197,42.462157,4524.0,760 Western Ave
426,4524,0.0,0.1,7.3,time_period_06,-70.966197,42.462157,4524.0,760 Western Ave
426,4524,0.025,0.15,5.975,time_period_07,-70.966197,42.462157,4524.0,760 Western Ave
426,4524,0.0,0.1,3.75,time_period_08,-70.966197,42.462157,4524.0,760 Western Ave
426,4524,0.0,0.0,3.8,time_period_09,-70.966197,42.462157,4524.0,760 Western Ave
426,4524,0.0,0.0,2.2,time_period_09,-70.966197,42.462157,4524.0,760 Western Ave
426,4524,0.0166666666666667,0.255555555555556,9.07777777777778,time_period_10,-70.966197,42.462157,4524.0,760 Western Ave
426,4524,0.104761904761905,0.2,7.17619047619048,time_period_11,-70.966197,42.462157,4524.0,760 Western Ave
426,4525,0.3,0.65,7.35,time_period_02,-70.964333,42.462541,4525.0,Market Square @ Western Ave
426,4525,0.85,0.8,6.25,time_period_03,-70.964333,42.462541,4525.0,Market Square @ Western Ave
426,4525,0.8,1.15,8.05,time_period_03,-70.964333,42.462541,4525.0,Market Square @ Western Ave
426,4525,0.45,0.85,6.075,time_period_04,-70.964333,42.462541,4525.0,Market Square @ Western Ave
426,4525,1.3,1.96666666666667,9.6,time_period_05,-70.964333,42.462541,4525.0,Market Square @ Western Ave
426,4525,0.55,4.35,13.35,time_period_05,-70.964333,42.462541,4525.0,Market Square @ Western Ave
426,4525,0.45,5.9,20.3,time_period_05,-70.964333,42.462541,4525.0,Market Square @ Western Ave
426,4525,0.5,1.43333333333333,7.8,time_period_06,-70.964333,42.462541,4525.0,Market Square @ Western Ave
426,4525,0.3,0.9,6.7,time_period_06,-70.964333,42.462541,4525.0,Market Square @ Western Ave
426,4525,0.325,1.3,5.025,time_period_07,-70.964333,42.462541,4525.0,Market Square @ Western Ave
426,4525,0.0,0.4,3.45,time_period_08,-70.964333,42.462541,4525.0,Market Square @ Western Ave
426,4525,0.0,0.4,3.5,time_period_09,-70.964333,42.462541,4525.0,Market Square @ Western Ave
426,4525,0.0,0.3,1.8,time_period_09,-70.964333,42.462541,4525.0,Market Square @ Western Ave
426,4525,0.527777777777778,1.53333333333333,8.06666666666667,time_period_10,-70.964333,42.462541,4525.0,Market Square @ Western Ave
426,4525,0.514285714285714,1.05714285714286,6.61428571428571,time_period_11,-70.964333,42.462541,4525.0,Market Square @ Western Ave
426,6822,0.05,1.1,6.2,time_period_02,-70.9601949999999,42.4627190000001,6822.0,S Common St @ Caggiano Plaza
426,6822,0.3,0.3,6.25,time_period_03,-70.9601949999999,42.4627190000001,6822.0,S Common St @ Caggiano Plaza
426,6822,0.4,0.6,7.85,time_period_03,-70.9601949999999,42.4627190000001,6822.0,S Common St @ Caggiano Plaza
426,6822,0.275,0.375,5.95,time_period_04,-70.9601949999999,42.4627190000001,6822.0,S Common St @ Caggiano Plaza
426,6822,0.3,0.533333333333333,9.46666666666667,time_period_05,-70.9601949999999,42.4627190000001,6822.0,S Common St @ Caggiano Plaza
426,6822,0.4,4.15,9.6,time_period_05,-70.9601949999999,42.4627190000001,6822.0,S Common St @ Caggiano Plaza
426,6822,0.2,5.8,14.6,time_period_05,-70.9601949999999,42.4627190000001,6822.0,S Common St @ Caggiano Plaza
426,6822,0.2,0.966666666666667,7.0,time_period_06,-70.9601949999999,42.4627190000001,6822.0,S Common St @ Caggiano Plaza
426,6822,0.2,0.5,6.4,time_period_06,-70.9601949999999,42.4627190000001,6822.0,S Common St @ Caggiano Plaza
426,6822,0.1,0.45,4.65,time_period_07,-70.9601949999999,42.4627190000001,6822.0,S Common St @ Caggiano Plaza
426,6822,0.0,0.25,3.2,time_period_08,-70.9601949999999,42.4627190000001,6822.0,S Common St @ Caggiano Plaza
426,6822,0.0,0.1,3.4,time_period_09,-70.9601949999999,42.4627190000001,6822.0,S Common St @ Caggiano Plaza
426,6822,0.0,0.3,1.6,time_period_09,-70.9601949999999,42.4627190000001,6822.0,S Common St @ Caggiano Plaza
426,6822,0.283333333333333,0.794444444444444,7.56666666666667,time_period_10,-70.9601949999999,42.4627190000001,6822.0,S Common St @ Caggiano Plaza
426,6822,0.166666666666667,0.466666666666667,6.31904761904762,time_period_11,-70.9601949999999,42.4627190000001,6822.0,S Common St @ Caggiano Plaza
426,6824,0.05,1.25,5.05,time_period_02,-70.955977,42.46329,6824.0,S Common St @ Blossom St
426,6824,0.1,0.4,6.0,time_period_03,-70.955977,42.46329,6824.0,S Common St @ Blossom St
426,6824,0.15,0.5,7.5,time_period_03,-70.955977,42.46329,6824.0,S Common St @ Blossom St
426,6824,0.075,0.45,5.625,time_period_04,-70.955977,42.46329,6824.0,S Common St @ Blossom St
426,6824,0.1,1.33333333333333,8.2,time_period_05,-70.955977,42.46329,6824.0,S Common St @ Blossom St
426,6824,0.15,4.4,10.4,time_period_05,-70.955977,42.46329,6824.0,S Common St @ Blossom St
426,6824,0.2,4.3,5.6,time_period_05,-70.955977,42.46329,6824.0,S Common St @ Blossom St
426,6824,0.0666666666666667,1.36666666666667,5.7,time_period_06,-70.955977,42.46329,6824.0,S Common St @ Blossom St
426,6824,0.0,1.6,4.8,time_period_06,-70.955977,42.46329,6824.0,S Common St @ Blossom St
426,6824,0.025,0.65,4.025,time_period_07,-70.955977,42.46329,6824.0,S Common St @ Blossom St
426,6824,0.05,0.75,2.5,time_period_08,-70.955977,42.46329,6824.0,S Common St @ Blossom St
426,6824,0.0,0.2,3.1,time_period_09,-70.955977,42.46329,6824.0,S Common St @ Blossom St
426,6824,0.0,0.2,1.4,time_period_09,-70.955977,42.46329,6824.0,S Common St @ Blossom St
426,6824,0.105555555555556,1.15555555555556,6.50555555555556,time_period_10,-70.955977,42.46329,6824.0,S Common St @ Blossom St
426,6824,0.0761904761904762,0.819047619047619,5.58095238095238,time_period_11,-70.955977,42.46329,6824.0,S Common St @ Blossom St
426,6827,0.0,0.4,4.7,time_period_02,-70.951763,42.4641340000001,6827.0,S Common St @ Market St
426,6827,0.0,0.95,5.1,time_period_03,-70.951763,42.4641340000001,6827.0,S Common St @ Market St
426,6827,0.0,0.75,6.8,time_period_03,-70.951763,42.4641340000001,6827.0,S Common St @ Market St
426,6827,0.05,0.725,4.875,time_period_04,-70.951763,42.4641340000001,6827.0,S Common St @ Market St
426,6827,0.133333333333333,1.46666666666667,6.9,time_period_05,-70.951763,42.4641340000001,6827.0,S Common St @ Market St
426,6827,0.1,2.95,7.6,time_period_05,-70.951763,42.4641340000001,6827.0,S Common St @ Market St
426,6827,0.05,0.75,4.9,time_period_05,-70.951763,42.4641340000001,6827.0,S Common St @ Market St
426,6827,0.0666666666666667,0.7,5.1,time_period_06,-70.951763,42.4641340000001,6827.0,S Common St @ Market St
426,6827,0.0,0.4,4.4,time_period_06,-70.951763,42.4641340000001,6827.0,S Common St @ Market St
426,6827,0.0,0.5,3.525,time_period_07,-70.951763,42.4641340000001,6827.0,S Common St @ Market St
426,6827,0.0,0.3,2.15,time_period_08,-70.951763,42.4641340000001,6827.0,S Common St @ Market St
426,6827,0.0,1.1,2.1,time_period_09,-70.951763,42.4641340000001,6827.0,S Common St @ Market St
426,6827,0.0,0.0,1.4,time_period_09,-70.951763,42.4641340000001,6827.0,S Common St @ Market St
426,6827,0.05,1.0,5.56111111111111,time_period_10,-70.951763,42.4641340000001,6827.0,S Common St @ Market St
426,6827,0.0380952380952381,0.828571428571429,4.77619047619048,time_period_11,-70.951763,42.4641340000001,6827.0,S Common St @ Market St
426,6773,0.0,0.2,4.5,time_period_02,-70.948957,42.4628910000001,6773.0,Market St @ Andrew St
426,6773,0.0,0.95,4.2,time_period_03,-70.948957,42.4628910000001,6773.0,Market St @ Andrew St
426,6773,0.05,2.4,4.35,time_period_03,-70.948957,42.4628910000001,6773.0,Market St @ Andrew St
426,6773,0.0,0.775,4.125,time_period_04,-70.948957,42.4628910000001,6773.0,Market St @ Andrew St
426,6773,0.0,1.73333333333333,5.16666666666667,time_period_05,-70.948957,42.4628910000001,6773.0,Market St @ Andrew St
426,6773,0.0,1.6,6.0,time_period_05,-70.948957,42.4628910000001,6773.0,Market St @ Andrew St
426,6773,0.1,0.85,4.15,time_period_05,-70.948957,42.4628910000001,6773.0,Market St @ Andrew St
426,6773,0.0333333333333333,0.833333333333333,4.26666666666667,time_period_06,-70.948957,42.4628910000001,6773.0,Market St @ Andrew St
426,6773,0.0,0.6,3.8,time_period_06,-70.948957,42.4628910000001,6773.0,Market St @ Andrew St
426,6773,0.0,0.6,2.95,time_period_07,-70.948957,42.4628910000001,6773.0,Market St @ Andrew St
426,6773,0.0,0.3,1.85,time_period_08,-70.948957,42.4628910000001,6773.0,Market St @ Andrew St
426,6773,0.0,0.2,1.8,time_period_09,-70.948957,42.4628910000001,6773.0,Market St @ Andrew St
426,6773,0.0,0.0,1.4,time_period_09,-70.948957,42.4628910000001,6773.0,Market St @ Andrew St
426,6773,0.0333333333333333,1.02222222222222,4.57777777777778,time_period_10,-70.948957,42.4628910000001,6773.0,Market St @ Andrew St
426,6773,0.0142857142857143,0.795238095238095,3.98571428571429,time_period_11,-70.948957,42.4628910000001,6773.0,Market St @ Andrew St
426,14748,0.0,4.15,0.3,time_period_02,,,,
426,14748,0.0,4.1,0.05,time_period_03,,,,
426,14748,0.0,4.3,0.05,time_period_03,,,,
426,14748,0.0,4.025,0.1,time_period_04,,,,
426,14748,0.0,5.06666666666667,0.1,time_period_05,,,,
426,14748,0.0,6.0,0.1,time_period_05,,,,
426,14748,0.0,4.05,0.15,time_period_05,,,,
426,14748,0.0,4.03333333333333,0.233333333333333,time_period_06,,,,
426,14748,0.0,3.8,0.0,time_period_06,,,,
426,14748,0.0,2.9,0.05,time_period_07,,,,
426,14748,0.0,1.9,0.0,time_period_08,,,,
426,14748,0.0,1.8,0.1,time_period_09,,,,
426,14748,0.0,1.3,0.1,time_period_09,,,,
426,14748,0.0,4.43888888888889,0.144444444444444,time_period_10,,,,
426,14748,0.0,3.93809523809524,0.0571428571428571,time_period_11,,,,
