route_id,stop_id,average_ons,average_offs,average_load,time_period_id,X,Y,Stop_ID,Stop_Name
35,11780,30.8,0.0,30.8,time_period_05,-71.102233,42.338443,11780.0,Ave Louis Pasteur @ Longwood Ave
35,91391,0.1,0.1,30.7,time_period_05,-71.100251,42.3360460000001,91391.0,Huntington Ave @ Longwood Ave
35,92391,0.0,0.0,30.8,time_period_05,-71.102717,42.335111,92391.0,677 Huntington Ave
35,1363,0.2,0.4,30.6,time_period_05,-71.105717,42.333739,1363.0,Huntington Ave @ Fenwood Rd
35,1365,0.0,0.0,30.6,time_period_05,-71.109273,42.3332800000001,1365.0,835 Huntington Ave opp Parker Hill Ave
35,21365,0.2,0.1,30.7,time_period_05,-71.112061,42.331803,21365.0,S Huntington Ave @ Huntington Ave
35,22365,0.1,0.1,30.7,time_period_05,-71.111046,42.329368,22365.0,105 S Huntington Ave
35,31365,0.1,0.0,30.7,time_period_05,-71.111437,42.326625,31365.0,S Huntington Ave opp VA Hospital
35,51365,0.0,0.0,30.7,time_period_05,-71.1123269999999,42.323986,51365.0,S Huntington Ave @ Bynner St
35,61365,0.1,0.1,30.7,time_period_05,-71.112195,42.32172,61365.0,S Huntington Ave @ Perkins St
35,1160,0.3,0.2,30.9,time_period_05,-71.111729,42.319618,1160.0,S Huntington Ave @ Moraine St
35,1161,0.1,0.1,30.9,time_period_05,-71.1132289999999,42.3173650000001,1161.0,Centre St @ Lochstead Ave
35,1164,0.3,0.4,30.9,time_period_05,-71.11416,42.3133060000001,1164.0,Centre St @ Myrtle St
35,11164,0.0,0.1,30.8,time_period_05,-71.1145,42.311466,11164.0,Centre St @ Burroughs St
35,1939,0.0,0.1,30.7,time_period_05,-71.1153449999999,42.3099490000001,1939.0,775 Centre St
35,11939,1.0,0.3,31.5,time_period_05,-71.115764,42.309651,11939.0,Centre St @ Eliot St
35,1940,0.0,0.1,31.4,time_period_05,-71.118664,42.3087990000001,1940.0,Centre St @ Aldworth St
35,1941,0.0,0.0,31.4,time_period_05,-71.1200019999999,42.308976,1941.0,Centre St @ Orchard St
35,5241,0.3,0.6,31.1,time_period_05,-71.122782,42.3082640000001,5241.0,Centre St @ Hillcroft Rd
35,15241,0.1,0.2,31.0,time_period_05,-71.124464,42.3058570000001,15241.0,Centre St @ Louders Ln
35,5243,0.0,0.0,30.9,time_period_05,-71.124831,42.3044840000001,5243.0,Centre St @ Rambler Rd
35,5244,0.2,0.9,30.4,time_period_05,-71.125398,42.3029680000001,5244.0,Centre St @ Westchester Rd
35,5245,0.1,0.1,30.3,time_period_05,-71.127864,42.3003140000001,5245.0,Centre St @ Faulkner Hospital
35,5246,0.1,0.1,30.4,time_period_05,-71.1303129999999,42.2980670000001,5246.0,Centre St opp Walter St
35,5247,0.0,0.0,30.4,time_period_05,-71.132485,42.297113,5247.0,Centre St @ VFW Pkwy
35,5248,0.0,0.0,30.4,time_period_05,-71.1342349999999,42.2959930000001,5248.0,Centre St @ Buchanan Rd
35,5249,0.1,0.2,30.3,time_period_05,-71.1366649999999,42.293913,5249.0,Centre St @ Weld St
35,5250,0.5,1.4,29.4,time_period_05,-71.13749,42.29326,5250.0,1437 Centre St opp Ardale St
35,5251,0.1,0.6,29.0,time_period_05,-71.1386929999999,42.2922350000001,5251.0,1467 Centre St opp Hewlett St
35,5252,0.0,0.0,29.0,time_period_05,-71.139718,42.291384,5252.0,Centre St @ Fletcher St
35,5253,0.0,0.0,29.0,time_period_05,-71.1416859999999,42.289725,5253.0,1539 Centre St opp Bradfield Ave
35,5254,0.0,0.2,28.8,time_period_05,-71.141991,42.2894840000001,5254.0,Centre St @ Montclair Ave
35,5255,0.3,0.4,28.7,time_period_05,-71.145032,42.288168,5255.0,Centre St @ Church St
35,5256,0.1,1.6,27.2,time_period_05,-71.14698,42.287538,5256.0,Centre St @ W Roxbury Pkwy
35,10642,2.9,0.0,2.9,time_period_01,-71.1146607,42.3006397,10642.0,Forest Hills Station
35,10642,5.23333333333333,0.0,5.23333333333333,time_period_02,-71.1146607,42.3006397,10642.0,Forest Hills Station
35,10642,6.65,0.0,6.975,time_period_03,-71.1146607,42.3006397,10642.0,Forest Hills Station
35,10642,14.3,0.0,14.3,time_period_03,-71.1146607,42.3006397,10642.0,Forest Hills Station
35,10642,11.9428571428571,0.0,12.0714285714286,time_period_04,-71.1146607,42.3006397,10642.0,Forest Hills Station
35,10642,22.9,0.0,22.9222222222222,time_period_05,-71.1146607,42.3006397,10642.0,Forest Hills Station
35,10642,17.66,0.0,17.8,time_period_06,-71.1146607,42.3006397,10642.0,Forest Hills Station
35,10642,13.6,0.0,13.7,time_period_07,-71.1146607,42.3006397,10642.0,Forest Hills Station
35,10642,5.68571428571429,0.0,5.72857142857143,time_period_10,-71.1146607,42.3006397,10642.0,Forest Hills Station
35,10642,11.9421052631579,0.0,12.1578947368421,time_period_10,-71.1146607,42.3006397,10642.0,Forest Hills Station
35,10642,10.425,0.0,10.64375,time_period_11,-71.1146607,42.3006397,10642.0,Forest Hills Station
35,596,0.0,0.0,2.9,time_period_01,-71.117515,42.296502,596.0,3867 Washington St opp Tollgate Way
35,596,0.0,0.166666666666667,5.0,time_period_02,-71.117515,42.296502,596.0,3867 Washington St opp Tollgate Way
35,596,0.025,0.1,6.875,time_period_03,-71.117515,42.296502,596.0,3867 Washington St opp Tollgate Way
35,596,0.1,0.0,14.5,time_period_03,-71.117515,42.296502,596.0,3867 Washington St opp Tollgate Way
35,596,0.128571428571429,0.0428571428571429,12.1428571428571,time_period_04,-71.117515,42.296502,596.0,3867 Washington St opp Tollgate Way
35,596,0.0555555555555556,0.0555555555555556,22.9222222222222,time_period_05,-71.117515,42.296502,596.0,3867 Washington St opp Tollgate Way
35,596,0.08,0.03,17.85,time_period_06,-71.117515,42.296502,596.0,3867 Washington St opp Tollgate Way
35,596,0.1,0.0333333333333333,13.7666666666667,time_period_07,-71.117515,42.296502,596.0,3867 Washington St opp Tollgate Way
35,596,0.0857142857142857,0.0857142857142857,5.72857142857143,time_period_10,-71.117515,42.296502,596.0,3867 Washington St opp Tollgate Way
35,596,0.1,0.0210526315789474,12.2368421052632,time_period_10,-71.117515,42.296502,596.0,3867 Washington St opp Tollgate Way
35,596,0.125,0.025,10.75,time_period_11,-71.117515,42.296502,596.0,3867 Washington St opp Tollgate Way
35,597,0.0,0.0333333333333333,2.86666666666667,time_period_01,-71.11976,42.2943770000001,597.0,Washington St @ Lochdale Rd
35,597,0.133333333333333,0.166666666666667,5.0,time_period_02,-71.11976,42.2943770000001,597.0,Washington St @ Lochdale Rd
35,597,0.025,0.125,6.825,time_period_03,-71.11976,42.2943770000001,597.0,Washington St @ Lochdale Rd
35,597,0.1,0.1,14.5,time_period_03,-71.11976,42.2943770000001,597.0,Washington St @ Lochdale Rd
35,597,0.357142857142857,0.342857142857143,12.2142857142857,time_period_04,-71.11976,42.2943770000001,597.0,Washington St @ Lochdale Rd
35,597,0.2,0.822222222222222,22.1888888888889,time_period_05,-71.11976,42.2943770000001,597.0,Washington St @ Lochdale Rd
35,597,0.13,0.73,17.28,time_period_06,-71.11976,42.2943770000001,597.0,Washington St @ Lochdale Rd
35,597,0.133333333333333,0.633333333333333,13.2666666666667,time_period_07,-71.11976,42.2943770000001,597.0,Washington St @ Lochdale Rd
35,597,0.0285714285714286,0.1,5.65714285714286,time_period_10,-71.11976,42.2943770000001,597.0,Washington St @ Lochdale Rd
35,597,0.263157894736842,0.321052631578947,12.1789473684211,time_period_10,-71.11976,42.2943770000001,597.0,Washington St @ Lochdale Rd
35,597,0.19375,0.325,10.61875,time_period_11,-71.11976,42.2943770000001,597.0,Washington St @ Lochdale Rd
35,598,0.0,0.0333333333333333,2.8,time_period_01,-71.121366,42.292857,598.0,Washington St @ Archdale Rd
35,598,0.1,0.0666666666666667,5.0,time_period_02,-71.121366,42.292857,598.0,Washington St @ Archdale Rd
35,598,0.125,0.125,6.825,time_period_03,-71.121366,42.292857,598.0,Washington St @ Archdale Rd
35,598,1.6,0.5,15.6,time_period_03,-71.121366,42.292857,598.0,Washington St @ Archdale Rd
35,598,0.628571428571429,0.585714285714286,12.2428571428571,time_period_04,-71.121366,42.292857,598.0,Washington St @ Archdale Rd
35,598,0.666666666666667,1.36666666666667,21.6666666666667,time_period_05,-71.121366,42.292857,598.0,Washington St @ Archdale Rd
35,598,0.29,1.1,16.53,time_period_06,-71.121366,42.292857,598.0,Washington St @ Archdale Rd
35,598,0.266666666666667,1.06666666666667,12.4333333333333,time_period_07,-71.121366,42.292857,598.0,Washington St @ Archdale Rd
35,598,0.1,0.0428571428571429,5.7,time_period_10,-71.121366,42.292857,598.0,Washington St @ Archdale Rd
35,598,0.773684210526316,0.615789473684211,12.3473684210526,time_period_10,-71.121366,42.292857,598.0,Washington St @ Archdale Rd
35,598,0.49375,0.5125,10.60625,time_period_11,-71.121366,42.292857,598.0,Washington St @ Archdale Rd
35,599,0.0,0.0333333333333333,2.76666666666667,time_period_01,-71.122671,42.2916200000001,599.0,Washington St @ Mosgrove Ave
35,599,0.1,0.0,5.1,time_period_02,-71.122671,42.2916200000001,599.0,Washington St @ Mosgrove Ave
35,599,0.075,0.075,6.825,time_period_03,-71.122671,42.2916200000001,599.0,Washington St @ Mosgrove Ave
35,599,0.1,0.1,15.6,time_period_03,-71.122671,42.2916200000001,599.0,Washington St @ Mosgrove Ave
35,599,0.171428571428571,0.171428571428571,12.2285714285714,time_period_04,-71.122671,42.2916200000001,599.0,Washington St @ Mosgrove Ave
35,599,0.1,0.377777777777778,21.3666666666667,time_period_05,-71.122671,42.2916200000001,599.0,Washington St @ Mosgrove Ave
35,599,0.08,0.34,16.29,time_period_06,-71.122671,42.2916200000001,599.0,Washington St @ Mosgrove Ave
35,599,0.0666666666666667,0.266666666666667,12.3,time_period_07,-71.122671,42.2916200000001,599.0,Washington St @ Mosgrove Ave
35,599,0.1,0.0,5.78571428571429,time_period_10,-71.122671,42.2916200000001,599.0,Washington St @ Mosgrove Ave
35,599,0.131578947368421,0.168421052631579,12.2947368421053,time_period_10,-71.122671,42.2916200000001,599.0,Washington St @ Mosgrove Ave
35,599,0.05625,0.125,10.55625,time_period_11,-71.122671,42.2916200000001,599.0,Washington St @ Mosgrove Ave
35,600,0.0,0.0333333333333333,2.73333333333333,time_period_01,-71.124116,42.290289,600.0,Washington St opp Granfield Ave
35,600,0.0,0.0,5.13333333333333,time_period_02,-71.124116,42.290289,600.0,Washington St opp Granfield Ave
35,600,0.075,0.075,6.85,time_period_03,-71.124116,42.290289,600.0,Washington St opp Granfield Ave
35,600,0.6,0.3,15.9,time_period_03,-71.124116,42.290289,600.0,Washington St opp Granfield Ave
35,600,0.1,0.257142857142857,12.0714285714286,time_period_04,-71.124116,42.290289,600.0,Washington St opp Granfield Ave
35,600,0.166666666666667,0.9,20.6777777777778,time_period_05,-71.124116,42.290289,600.0,Washington St opp Granfield Ave
35,600,0.12,0.9,15.51,time_period_06,-71.124116,42.290289,600.0,Washington St opp Granfield Ave
35,600,0.0,0.666666666666667,11.6,time_period_07,-71.124116,42.290289,600.0,Washington St opp Granfield Ave
35,600,0.128571428571429,0.0428571428571429,5.87142857142857,time_period_10,-71.124116,42.290289,600.0,Washington St opp Granfield Ave
35,600,0.0789473684210526,0.452631578947368,11.9263157894737,time_period_10,-71.124116,42.290289,600.0,Washington St opp Granfield Ave
35,600,0.1125,0.41875,10.25,time_period_11,-71.124116,42.290289,600.0,Washington St opp Granfield Ave
35,601,0.0,0.1,2.66666666666667,time_period_01,-71.125793,42.288708,601.0,Washington St @ South St
35,601,0.333333333333333,0.2,5.23333333333333,time_period_02,-71.125793,42.288708,601.0,Washington St @ South St
35,601,0.15,0.425,6.55,time_period_03,-71.125793,42.288708,601.0,Washington St @ South St
35,601,0.2,0.8,15.3,time_period_03,-71.125793,42.288708,601.0,Washington St @ South St
35,601,0.371428571428571,0.714285714285714,11.6857142857143,time_period_04,-71.125793,42.288708,601.0,Washington St @ South St
35,601,0.633333333333333,1.32222222222222,20.0,time_period_05,-71.125793,42.288708,601.0,Washington St @ South St
35,601,0.3,1.29,14.56,time_period_06,-71.125793,42.288708,601.0,Washington St @ South St
35,601,0.166666666666667,1.13333333333333,10.7,time_period_07,-71.125793,42.288708,601.0,Washington St @ South St
35,601,0.0571428571428571,0.3,5.64285714285714,time_period_10,-71.125793,42.288708,601.0,Washington St @ South St
35,601,0.494736842105263,1.01578947368421,11.4052631578947,time_period_10,-71.125793,42.288708,601.0,Washington St @ South St
35,601,0.35,0.8,9.7875,time_period_11,-71.125793,42.288708,601.0,Washington St @ South St
35,602,0.466666666666667,0.0666666666666667,3.1,time_period_01,-71.128508,42.28695,602.0,South St @ Taft Hill Terr
35,602,0.366666666666667,0.366666666666667,5.2,time_period_02,-71.128508,42.28695,602.0,South St @ Taft Hill Terr
35,602,0.425,1.125,5.825,time_period_03,-71.128508,42.28695,602.0,South St @ Taft Hill Terr
35,602,1.3,2.8,13.8,time_period_03,-71.128508,42.28695,602.0,South St @ Taft Hill Terr
35,602,0.985714285714286,2.67142857142857,10.0142857142857,time_period_04,-71.128508,42.28695,602.0,South St @ Taft Hill Terr
35,602,1.35555555555556,3.0,18.3222222222222,time_period_05,-71.128508,42.28695,602.0,South St @ Taft Hill Terr
35,602,0.56,2.55,12.6,time_period_06,-71.128508,42.28695,602.0,South St @ Taft Hill Terr
35,602,0.2,2.43333333333333,8.43333333333333,time_period_07,-71.128508,42.28695,602.0,South St @ Taft Hill Terr
35,602,0.3,0.642857142857143,5.3,time_period_10,-71.128508,42.28695,602.0,South St @ Taft Hill Terr
35,602,0.631578947368421,2.07368421052632,9.96315789473684,time_period_10,-71.128508,42.28695,602.0,South St @ Taft Hill Terr
35,602,0.53125,1.6375,8.6875,time_period_11,-71.128508,42.28695,602.0,South St @ Taft Hill Terr
35,797,0.0333333333333333,0.0333333333333333,3.1,time_period_01,-71.130867,42.286845,797.0,Belgrade Ave @ Robert St
35,797,0.1,0.0666666666666667,5.23333333333333,time_period_02,-71.130867,42.286845,797.0,Belgrade Ave @ Robert St
35,797,0.2,0.15,5.875,time_period_03,-71.130867,42.286845,797.0,Belgrade Ave @ Robert St
35,797,0.5,0.3,14.0,time_period_03,-71.130867,42.286845,797.0,Belgrade Ave @ Robert St
35,797,0.814285714285714,0.285714285714286,10.5714285714286,time_period_04,-71.130867,42.286845,797.0,Belgrade Ave @ Robert St
35,797,0.844444444444444,0.444444444444444,18.7222222222222,time_period_05,-71.130867,42.286845,797.0,Belgrade Ave @ Robert St
35,797,0.44,0.37,12.65,time_period_06,-71.130867,42.286845,797.0,Belgrade Ave @ Robert St
35,797,0.233333333333333,0.266666666666667,8.4,time_period_07,-71.130867,42.286845,797.0,Belgrade Ave @ Robert St
35,797,0.3,0.214285714285714,5.38571428571429,time_period_10,-71.130867,42.286845,797.0,Belgrade Ave @ Robert St
35,797,0.710526315789474,0.273684210526316,10.3894736842105,time_period_10,-71.130867,42.286845,797.0,Belgrade Ave @ Robert St
35,797,0.4375,0.26875,8.86875,time_period_11,-71.130867,42.286845,797.0,Belgrade Ave @ Robert St
35,798,0.0,0.0,3.1,time_period_01,-71.1329459999999,42.286415,798.0,Belgrade Ave opp Pinehurst St
35,798,0.0333333333333333,0.0333333333333333,5.23333333333333,time_period_02,-71.1329459999999,42.286415,798.0,Belgrade Ave opp Pinehurst St
35,798,0.025,0.075,5.825,time_period_03,-71.1329459999999,42.286415,798.0,Belgrade Ave opp Pinehurst St
35,798,0.0,0.1,13.9,time_period_03,-71.1329459999999,42.286415,798.0,Belgrade Ave opp Pinehurst St
35,798,0.0571428571428571,0.0428571428571429,10.5714285714286,time_period_04,-71.1329459999999,42.286415,798.0,Belgrade Ave opp Pinehurst St
35,798,0.0444444444444444,0.177777777777778,18.5888888888889,time_period_05,-71.1329459999999,42.286415,798.0,Belgrade Ave opp Pinehurst St
35,798,0.04,0.11,12.58,time_period_06,-71.1329459999999,42.286415,798.0,Belgrade Ave opp Pinehurst St
35,798,0.0333333333333333,0.166666666666667,8.26666666666667,time_period_07,-71.1329459999999,42.286415,798.0,Belgrade Ave opp Pinehurst St
35,798,0.0142857142857143,0.0142857142857143,5.38571428571429,time_period_10,-71.1329459999999,42.286415,798.0,Belgrade Ave opp Pinehurst St
35,798,0.068421052631579,0.1,10.3578947368421,time_period_10,-71.1329459999999,42.286415,798.0,Belgrade Ave opp Pinehurst St
35,798,0.01875,0.04375,8.85625,time_period_11,-71.1329459999999,42.286415,798.0,Belgrade Ave opp Pinehurst St
35,799,0.0333333333333333,0.0,3.1,time_period_01,-71.1351089999999,42.2863340000001,799.0,Belgrade Ave opp Penfield St
35,799,0.0,0.0,5.2,time_period_02,-71.1351089999999,42.2863340000001,799.0,Belgrade Ave opp Penfield St
35,799,0.025,0.05,5.775,time_period_03,-71.1351089999999,42.2863340000001,799.0,Belgrade Ave opp Penfield St
35,799,0.2,0.1,14.0,time_period_03,-71.1351089999999,42.2863340000001,799.0,Belgrade Ave opp Penfield St
35,799,0.1,0.171428571428571,10.4714285714286,time_period_04,-71.1351089999999,42.2863340000001,799.0,Belgrade Ave opp Penfield St
35,799,0.0666666666666667,0.411111111111111,18.2444444444444,time_period_05,-71.1351089999999,42.2863340000001,799.0,Belgrade Ave opp Penfield St
35,799,0.03,0.35,12.26,time_period_06,-71.1351089999999,42.2863340000001,799.0,Belgrade Ave opp Penfield St
35,799,0.0,0.133333333333333,8.13333333333333,time_period_07,-71.1351089999999,42.2863340000001,799.0,Belgrade Ave opp Penfield St
35,799,0.0,0.0714285714285714,5.32857142857143,time_period_10,-71.1351089999999,42.2863340000001,799.0,Belgrade Ave opp Penfield St
35,799,0.0947368421052632,0.105263157894737,10.3473684210526,time_period_10,-71.1351089999999,42.2863340000001,799.0,Belgrade Ave opp Penfield St
35,799,0.06875,0.18125,8.73125,time_period_11,-71.1351089999999,42.2863340000001,799.0,Belgrade Ave opp Penfield St
35,800,0.166666666666667,0.0333333333333333,3.23333333333333,time_period_01,-71.137034,42.286294,800.0,Belgrade Ave @ Walworth St
35,800,0.166666666666667,0.1,5.26666666666667,time_period_02,-71.137034,42.286294,800.0,Belgrade Ave @ Walworth St
35,800,0.275,0.375,5.7,time_period_03,-71.137034,42.286294,800.0,Belgrade Ave @ Walworth St
35,800,1.0,1.2,13.8,time_period_03,-71.137034,42.286294,800.0,Belgrade Ave @ Walworth St
35,800,0.214285714285714,0.414285714285714,10.2714285714286,time_period_04,-71.137034,42.286294,800.0,Belgrade Ave @ Walworth St
35,800,0.211111111111111,1.06666666666667,17.3666666666667,time_period_05,-71.137034,42.286294,800.0,Belgrade Ave @ Walworth St
35,800,0.17,0.85,11.61,time_period_06,-71.137034,42.286294,800.0,Belgrade Ave @ Walworth St
35,800,0.2,0.466666666666667,7.9,time_period_07,-71.137034,42.286294,800.0,Belgrade Ave @ Walworth St
35,800,0.171428571428571,0.171428571428571,5.3,time_period_10,-71.137034,42.286294,800.0,Belgrade Ave @ Walworth St
35,800,0.326315789473684,0.363157894736842,10.3157894736842,time_period_10,-71.137034,42.286294,800.0,Belgrade Ave @ Walworth St
35,800,0.25625,0.6125,8.3625,time_period_11,-71.137034,42.286294,800.0,Belgrade Ave @ Walworth St
35,801,0.0,0.0,3.23333333333333,time_period_01,-71.1395439999999,42.2861950000001,801.0,Belgrade Ave opp Aldrich St
35,801,0.1,0.0666666666666667,5.33333333333333,time_period_02,-71.1395439999999,42.2861950000001,801.0,Belgrade Ave opp Aldrich St
35,801,0.05,0.075,5.65,time_period_03,-71.1395439999999,42.2861950000001,801.0,Belgrade Ave opp Aldrich St
35,801,0.0,0.1,13.7,time_period_03,-71.1395439999999,42.2861950000001,801.0,Belgrade Ave opp Aldrich St
35,801,0.157142857142857,0.242857142857143,10.1714285714286,time_period_04,-71.1395439999999,42.2861950000001,801.0,Belgrade Ave opp Aldrich St
35,801,0.0888888888888889,0.511111111111111,16.9333333333333,time_period_05,-71.1395439999999,42.2861950000001,801.0,Belgrade Ave opp Aldrich St
35,801,0.06,0.31,11.33,time_period_06,-71.1395439999999,42.2861950000001,801.0,Belgrade Ave opp Aldrich St
35,801,0.0,0.366666666666667,7.53333333333333,time_period_07,-71.1395439999999,42.2861950000001,801.0,Belgrade Ave opp Aldrich St
35,801,0.0,0.157142857142857,5.17142857142857,time_period_10,-71.1395439999999,42.2861950000001,801.0,Belgrade Ave opp Aldrich St
35,801,0.0947368421052632,0.268421052631579,10.1368421052632,time_period_10,-71.1395439999999,42.2861950000001,801.0,Belgrade Ave opp Aldrich St
35,801,0.0875,0.1875,8.275,time_period_11,-71.1395439999999,42.2861950000001,801.0,Belgrade Ave opp Aldrich St
35,802,0.0,0.0,3.23333333333333,time_period_01,-71.143403,42.2861080000001,802.0,Belgrade Ave opp Rexhame St
35,802,0.0,0.0666666666666667,5.23333333333333,time_period_02,-71.143403,42.2861080000001,802.0,Belgrade Ave opp Rexhame St
35,802,0.025,0.075,5.6,time_period_03,-71.143403,42.2861080000001,802.0,Belgrade Ave opp Rexhame St
35,802,0.1,0.1,13.7,time_period_03,-71.143403,42.2861080000001,802.0,Belgrade Ave opp Rexhame St
35,802,0.0285714285714286,0.0714285714285714,10.1142857142857,time_period_04,-71.143403,42.2861080000001,802.0,Belgrade Ave opp Rexhame St
35,802,0.0555555555555556,0.222222222222222,16.8222222222222,time_period_05,-71.143403,42.2861080000001,802.0,Belgrade Ave opp Rexhame St
35,802,0.01,0.16,11.19,time_period_06,-71.143403,42.2861080000001,802.0,Belgrade Ave opp Rexhame St
35,802,0.0,0.166666666666667,7.36666666666667,time_period_07,-71.143403,42.2861080000001,802.0,Belgrade Ave opp Rexhame St
35,802,0.0,0.0571428571428571,5.12857142857143,time_period_10,-71.143403,42.2861080000001,802.0,Belgrade Ave opp Rexhame St
35,802,0.0105263157894737,0.136842105263158,10.0210526315789,time_period_10,-71.143403,42.2861080000001,802.0,Belgrade Ave opp Rexhame St
35,802,0.01875,0.1375,8.18125,time_period_11,-71.143403,42.2861080000001,802.0,Belgrade Ave opp Rexhame St
35,803,0.0,0.133333333333333,3.13333333333333,time_period_01,-71.145052,42.286077,803.0,Belgrade Ave @ McCraw St
35,803,0.0,0.2,5.03333333333333,time_period_02,-71.145052,42.286077,803.0,Belgrade Ave @ McCraw St
35,803,0.075,0.175,5.525,time_period_03,-71.145052,42.286077,803.0,Belgrade Ave @ McCraw St
35,803,0.0,0.3,13.4,time_period_03,-71.145052,42.286077,803.0,Belgrade Ave @ McCraw St
35,803,0.1,0.228571428571429,9.98571428571429,time_period_04,-71.145052,42.286077,803.0,Belgrade Ave @ McCraw St
35,803,0.0666666666666667,0.422222222222222,16.4777777777778,time_period_05,-71.145052,42.286077,803.0,Belgrade Ave @ McCraw St
35,803,0.04,0.49,10.78,time_period_06,-71.145052,42.286077,803.0,Belgrade Ave @ McCraw St
35,803,0.0333333333333333,0.433333333333333,6.96666666666667,time_period_07,-71.145052,42.286077,803.0,Belgrade Ave @ McCraw St
35,803,0.0571428571428571,0.142857142857143,5.04285714285714,time_period_10,-71.145052,42.286077,803.0,Belgrade Ave @ McCraw St
35,803,0.0894736842105263,0.284210526315789,9.82631578947368,time_period_10,-71.145052,42.286077,803.0,Belgrade Ave @ McCraw St
35,803,0.1,0.23125,8.05,time_period_11,-71.145052,42.286077,803.0,Belgrade Ave @ McCraw St
35,804,0.0,0.0,3.13333333333333,time_period_01,-71.147975,42.286034,804.0,Belgrade Ave @ West Roxbury Pkwy
35,804,0.0,0.0,5.03333333333333,time_period_02,-71.147975,42.286034,804.0,Belgrade Ave @ West Roxbury Pkwy
35,804,0.0,0.05,5.5,time_period_03,-71.147975,42.286034,804.0,Belgrade Ave @ West Roxbury Pkwy
35,804,0.0,0.1,13.3,time_period_03,-71.147975,42.286034,804.0,Belgrade Ave @ West Roxbury Pkwy
35,804,0.0428571428571429,0.0857142857142857,9.94285714285714,time_period_04,-71.147975,42.286034,804.0,Belgrade Ave @ West Roxbury Pkwy
35,804,0.0666666666666667,0.244444444444444,16.3,time_period_05,-71.147975,42.286034,804.0,Belgrade Ave @ West Roxbury Pkwy
35,804,0.02,0.27,10.55,time_period_06,-71.147975,42.286034,804.0,Belgrade Ave @ West Roxbury Pkwy
35,804,0.0,0.166666666666667,6.83333333333333,time_period_07,-71.147975,42.286034,804.0,Belgrade Ave @ West Roxbury Pkwy
35,804,0.0428571428571429,0.0428571428571429,5.04285714285714,time_period_10,-71.147975,42.286034,804.0,Belgrade Ave @ West Roxbury Pkwy
35,804,0.0157894736842105,0.163157894736842,9.66842105263158,time_period_10,-71.147975,42.286034,804.0,Belgrade Ave @ West Roxbury Pkwy
35,804,0.01875,0.1375,7.9375,time_period_11,-71.147975,42.286034,804.0,Belgrade Ave @ West Roxbury Pkwy
35,805,0.2,0.166666666666667,3.1,time_period_01,-71.1499899999999,42.2871930000001,805.0,Belgrade Ave @ Centre St
35,805,0.433333333333333,0.233333333333333,5.26666666666667,time_period_02,-71.1499899999999,42.2871930000001,805.0,Belgrade Ave @ Centre St
35,805,0.1,0.525,5.075,time_period_03,-71.1499899999999,42.2871930000001,805.0,Belgrade Ave @ Centre St
35,805,0.3,0.7,12.9,time_period_03,-71.1499899999999,42.2871930000001,805.0,Belgrade Ave @ Centre St
35,805,0.114285714285714,1.05714285714286,9.0,time_period_04,-71.1499899999999,42.2871930000001,805.0,Belgrade Ave @ Centre St
35,805,0.233333333333333,0.777777777777778,15.7333333333333,time_period_05,-71.1499899999999,42.2871930000001,805.0,Belgrade Ave @ Centre St
35,805,0.3,0.49,10.34,time_period_06,-71.1499899999999,42.2871930000001,805.0,Belgrade Ave @ Centre St
35,805,0.166666666666667,0.3,6.7,time_period_07,-71.1499899999999,42.2871930000001,805.0,Belgrade Ave @ Centre St
35,805,0.257142857142857,0.9,4.37142857142857,time_period_10,-71.1499899999999,42.2871930000001,805.0,Belgrade Ave @ Centre St
35,805,0.068421052631579,0.694736842105263,9.04736842105263,time_period_10,-71.1499899999999,42.2871930000001,805.0,Belgrade Ave @ Centre St
35,805,0.0625,0.8625,7.1375,time_period_11,-71.1499899999999,42.2871930000001,805.0,Belgrade Ave @ Centre St
35,806,0.0,0.0,3.1,time_period_01,-71.1520839999999,42.287564,806.0,Centre St @ Willow St
35,806,0.0,0.1,5.16666666666667,time_period_02,-71.1520839999999,42.287564,806.0,Centre St @ Willow St
35,806,0.0,0.15,4.925,time_period_03,-71.1520839999999,42.287564,806.0,Centre St @ Willow St
35,806,0.2,0.2,12.9,time_period_03,-71.1520839999999,42.287564,806.0,Centre St @ Willow St
35,806,0.2,0.485714285714286,8.71428571428571,time_period_04,-71.1520839999999,42.287564,806.0,Centre St @ Willow St
35,806,0.5,0.988888888888889,15.2444444444444,time_period_05,-71.1520839999999,42.287564,806.0,Centre St @ Willow St
35,806,1.1,3.2,25.3,time_period_05,-71.1520839999999,42.287564,806.0,Centre St @ Willow St
35,806,0.22,0.49,10.11,time_period_06,-71.1520839999999,42.287564,806.0,Centre St @ Willow St
35,806,0.266666666666667,0.4,6.53333333333333,time_period_07,-71.1520839999999,42.287564,806.0,Centre St @ Willow St
35,806,0.0714285714285714,0.271428571428571,4.2,time_period_10,-71.1520839999999,42.287564,806.0,Centre St @ Willow St
35,806,0.405263157894737,0.426315789473684,9.03157894736842,time_period_10,-71.1520839999999,42.287564,806.0,Centre St @ Willow St
35,806,0.26875,0.4875,6.9125,time_period_11,-71.1520839999999,42.287564,806.0,Centre St @ Willow St
35,807,0.0,0.0666666666666667,3.06666666666667,time_period_01,-71.1550809999999,42.286119,807.0,Centre St @ Corey St
35,807,0.0333333333333333,0.533333333333333,4.73333333333333,time_period_02,-71.1550809999999,42.286119,807.0,Centre St @ Corey St
35,807,0.2,1.3,11.8,time_period_03,-71.1550809999999,42.286119,807.0,Centre St @ Corey St
35,807,0.05,0.95,4.05,time_period_03,-71.1550809999999,42.286119,807.0,Centre St @ Corey St
35,807,0.442857142857143,0.914285714285714,8.22857142857143,time_period_04,-71.1550809999999,42.286119,807.0,Centre St @ Corey St
35,807,0.366666666666667,0.888888888888889,14.7,time_period_05,-71.1550809999999,42.286119,807.0,Centre St @ Corey St
35,807,0.6,1.9,23.9,time_period_05,-71.1550809999999,42.286119,807.0,Centre St @ Corey St
35,807,0.31,0.55,9.85,time_period_06,-71.1550809999999,42.286119,807.0,Centre St @ Corey St
35,807,0.133333333333333,0.3,6.3,time_period_07,-71.1550809999999,42.286119,807.0,Centre St @ Corey St
35,807,0.0857142857142857,0.757142857142857,3.5,time_period_10,-71.1550809999999,42.286119,807.0,Centre St @ Corey St
35,807,0.394736842105263,0.58421052631579,8.83684210526316,time_period_10,-71.1550809999999,42.286119,807.0,Centre St @ Corey St
35,807,0.2,0.63125,6.5,time_period_11,-71.1550809999999,42.286119,807.0,Centre St @ Corey St
35,808,0.0,0.133333333333333,2.93333333333333,time_period_01,-71.156853,42.2844150000001,808.0,Centre St opp Bellevue st
35,808,0.0,0.533333333333333,4.16666666666667,time_period_02,-71.156853,42.2844150000001,808.0,Centre St opp Bellevue st
35,808,0.2,4.0,8.0,time_period_03,-71.156853,42.2844150000001,808.0,Centre St opp Bellevue st
35,808,0.0,0.75,3.35,time_period_03,-71.156853,42.2844150000001,808.0,Centre St opp Bellevue st
35,808,0.371428571428571,0.8,7.8,time_period_04,-71.156853,42.2844150000001,808.0,Centre St opp Bellevue st
35,808,0.533333333333333,1.12222222222222,14.1222222222222,time_period_05,-71.156853,42.2844150000001,808.0,Centre St opp Bellevue st
35,808,0.2,3.9,20.3,time_period_05,-71.156853,42.2844150000001,808.0,Centre St opp Bellevue st
35,808,0.41,0.61,9.65,time_period_06,-71.156853,42.2844150000001,808.0,Centre St opp Bellevue st
35,808,0.2,0.433333333333333,6.1,time_period_07,-71.156853,42.2844150000001,808.0,Centre St opp Bellevue st
35,808,0.0285714285714286,0.257142857142857,3.27142857142857,time_period_10,-71.156853,42.2844150000001,808.0,Centre St opp Bellevue st
35,808,0.331578947368421,0.515789473684211,8.66842105263158,time_period_10,-71.156853,42.2844150000001,808.0,Centre St opp Bellevue st
35,808,0.16875,0.46875,6.20625,time_period_11,-71.156853,42.2844150000001,808.0,Centre St opp Bellevue st
35,810,0.0,0.0333333333333333,2.9,time_period_01,-71.157831,42.2820330000001,810.0,1999 Centre St
35,810,0.0,0.333333333333333,3.86666666666667,time_period_02,-71.157831,42.2820330000001,810.0,1999 Centre St
35,810,0.1,1.1,7.0,time_period_03,-71.157831,42.2820330000001,810.0,1999 Centre St
35,810,0.0,0.475,2.875,time_period_03,-71.157831,42.2820330000001,810.0,1999 Centre St
35,810,0.142857142857143,0.342857142857143,7.58571428571429,time_period_04,-71.157831,42.2820330000001,810.0,1999 Centre St
35,810,0.322222222222222,0.511111111111111,13.9555555555556,time_period_05,-71.157831,42.2820330000001,810.0,1999 Centre St
35,810,0.5,2.0,18.8,time_period_05,-71.157831,42.2820330000001,810.0,1999 Centre St
35,810,0.13,0.39,9.4,time_period_06,-71.157831,42.2820330000001,810.0,1999 Centre St
35,810,0.133333333333333,0.333333333333333,5.9,time_period_07,-71.157831,42.2820330000001,810.0,1999 Centre St
35,810,0.0142857142857143,0.2,3.1,time_period_10,-71.157831,42.2820330000001,810.0,1999 Centre St
35,810,0.2,0.373684210526316,8.47894736842105,time_period_10,-71.157831,42.2820330000001,810.0,1999 Centre St
35,810,0.1,0.29375,5.99375,time_period_11,-71.157831,42.2820330000001,810.0,1999 Centre St
35,821,0.0333333333333333,0.533333333333333,2.4,time_period_01,-71.159388,42.2789890000001,821.0,Centre St @ Lorette St
35,821,0.0,0.366666666666667,3.5,time_period_02,-71.159388,42.2789890000001,821.0,Centre St @ Lorette St
35,821,0.0,1.6,5.4,time_period_03,-71.159388,42.2789890000001,821.0,Centre St @ Lorette St
35,821,0.075,0.675,2.3,time_period_03,-71.159388,42.2789890000001,821.0,Centre St @ Lorette St
35,821,0.342857142857143,1.04285714285714,6.91428571428571,time_period_04,-71.159388,42.2789890000001,821.0,Centre St @ Lorette St
35,821,0.555555555555556,1.32222222222222,13.1888888888889,time_period_05,-71.159388,42.2789890000001,821.0,Centre St @ Lorette St
35,821,1.4,1.4,18.8,time_period_05,-71.159388,42.2789890000001,821.0,Centre St @ Lorette St
35,821,0.52,0.76,9.17,time_period_06,-71.159388,42.2789890000001,821.0,Centre St @ Lorette St
35,821,0.133333333333333,0.933333333333333,5.06666666666667,time_period_07,-71.159388,42.2789890000001,821.0,Centre St @ Lorette St
35,821,0.0142857142857143,0.942857142857143,2.15714285714286,time_period_10,-71.159388,42.2789890000001,821.0,Centre St @ Lorette St
35,821,0.478947368421053,1.09473684210526,7.87894736842105,time_period_10,-71.159388,42.2789890000001,821.0,Centre St @ Lorette St
35,821,0.25625,0.74375,5.50625,time_period_11,-71.159388,42.2789890000001,821.0,Centre St @ Lorette St
35,822,0.0,0.0,2.4,time_period_01,-71.1605319999999,42.2764760000001,822.0,Centre St @ Autumn St
35,822,0.0,0.0333333333333333,3.5,time_period_02,-71.1605319999999,42.2764760000001,822.0,Centre St @ Autumn St
35,822,0.1,0.0,5.5,time_period_03,-71.1605319999999,42.2764760000001,822.0,Centre St @ Autumn St
35,822,0.025,0.0,2.3,time_period_03,-71.1605319999999,42.2764760000001,822.0,Centre St @ Autumn St
35,822,0.0285714285714286,0.0142857142857143,6.91428571428571,time_period_04,-71.1605319999999,42.2764760000001,822.0,Centre St @ Autumn St
35,822,0.0888888888888889,0.211111111111111,13.0888888888889,time_period_05,-71.1605319999999,42.2764760000001,822.0,Centre St @ Autumn St
35,822,0.0,0.4,18.5,time_period_05,-71.1605319999999,42.2764760000001,822.0,Centre St @ Autumn St
35,822,0.04,0.17,9.06,time_period_06,-71.1605319999999,42.2764760000001,822.0,Centre St @ Autumn St
35,822,0.0333333333333333,0.1,5.03333333333333,time_period_07,-71.1605319999999,42.2764760000001,822.0,Centre St @ Autumn St
35,822,0.0,0.0428571428571429,2.11428571428571,time_period_10,-71.1605319999999,42.2764760000001,822.0,Centre St @ Autumn St
35,822,0.0578947368421053,0.115789473684211,7.82105263157895,time_period_10,-71.1605319999999,42.2764760000001,822.0,Centre St @ Autumn St
35,822,0.03125,0.125,5.41875,time_period_11,-71.1605319999999,42.2764760000001,822.0,Centre St @ Autumn St
35,823,0.0,1.76666666666667,0.6,time_period_01,-71.1603689999999,42.2744910000001,823.0,Centre St @ Cass St
35,823,0.0,2.0,1.5,time_period_02,-71.1603689999999,42.2744910000001,823.0,Centre St @ Cass St
35,823,0.0,0.3,5.2,time_period_03,-71.1603689999999,42.2744910000001,823.0,Centre St @ Cass St
35,823,0.0,0.375,1.925,time_period_03,-71.1603689999999,42.2744910000001,823.0,Centre St @ Cass St
35,823,0.0142857142857143,0.242857142857143,6.68571428571429,time_period_04,-71.1603689999999,42.2744910000001,823.0,Centre St @ Cass St
35,823,0.0333333333333333,1.1,12.0222222222222,time_period_05,-71.1603689999999,42.2744910000001,823.0,Centre St @ Cass St
35,823,0.0,0.0,18.5,time_period_05,-71.1603689999999,42.2744910000001,823.0,Centre St @ Cass St
35,823,0.04,0.31,8.78,time_period_06,-71.1603689999999,42.2744910000001,823.0,Centre St @ Cass St
35,823,0.0,0.133333333333333,4.9,time_period_07,-71.1603689999999,42.2744910000001,823.0,Centre St @ Cass St
35,823,0.0,1.04285714285714,1.08571428571429,time_period_10,-71.1603689999999,42.2744910000001,823.0,Centre St @ Cass St
35,823,0.0210526315789474,0.310526315789474,7.53684210526316,time_period_10,-71.1603689999999,42.2744910000001,823.0,Centre St @ Cass St
35,823,0.04375,0.21875,5.24375,time_period_11,-71.1603689999999,42.2744910000001,823.0,Centre St @ Cass St
35,824,0.0,0.0,0.6,time_period_01,-71.16095,42.2729590000001,824.0,Centre St @ Bronx Rd
35,824,0.0,0.0333333333333333,1.46666666666667,time_period_02,-71.16095,42.2729590000001,824.0,Centre St @ Bronx Rd
35,824,0.0,0.1,5.1,time_period_03,-71.16095,42.2729590000001,824.0,Centre St @ Bronx Rd
35,824,0.0,0.0,1.925,time_period_03,-71.16095,42.2729590000001,824.0,Centre St @ Bronx Rd
35,824,0.0142857142857143,0.0285714285714286,6.68571428571429,time_period_04,-71.16095,42.2729590000001,824.0,Centre St @ Bronx Rd
35,824,0.0,0.466666666666667,11.6222222222222,time_period_05,-71.16095,42.2729590000001,824.0,Centre St @ Bronx Rd
35,824,0.0,1.4,17.1,time_period_05,-71.16095,42.2729590000001,824.0,Centre St @ Bronx Rd
35,824,0.0,0.29,8.5,time_period_06,-71.16095,42.2729590000001,824.0,Centre St @ Bronx Rd
35,824,0.0,0.166666666666667,4.76666666666667,time_period_07,-71.16095,42.2729590000001,824.0,Centre St @ Bronx Rd
35,824,0.0,0.0,1.08571428571429,time_period_10,-71.16095,42.2729590000001,824.0,Centre St @ Bronx Rd
35,824,0.0263157894736842,0.0578947368421053,7.5,time_period_10,-71.16095,42.2729590000001,824.0,Centre St @ Bronx Rd
35,824,0.00625,0.03125,5.225,time_period_11,-71.16095,42.2729590000001,824.0,Centre St @ Bronx Rd
35,825,0.0,0.0,0.6,time_period_01,-71.161439,42.2721290000001,825.0,Centre St opp Wedgemere Rd
35,825,0.0,0.366666666666667,1.06666666666667,time_period_02,-71.161439,42.2721290000001,825.0,Centre St opp Wedgemere Rd
35,825,0.0,1.4,3.7,time_period_03,-71.161439,42.2721290000001,825.0,Centre St opp Wedgemere Rd
35,825,0.0,0.125,1.8,time_period_03,-71.161439,42.2721290000001,825.0,Centre St opp Wedgemere Rd
35,825,0.0428571428571429,0.228571428571429,6.5,time_period_04,-71.161439,42.2721290000001,825.0,Centre St opp Wedgemere Rd
35,825,0.0222222222222222,0.411111111111111,11.2,time_period_05,-71.161439,42.2721290000001,825.0,Centre St opp Wedgemere Rd
35,825,0.0,0.7,16.4,time_period_05,-71.161439,42.2721290000001,825.0,Centre St opp Wedgemere Rd
35,825,0.0,0.32,8.21,time_period_06,-71.161439,42.2721290000001,825.0,Centre St opp Wedgemere Rd
35,825,0.0,0.233333333333333,4.56666666666667,time_period_07,-71.161439,42.2721290000001,825.0,Centre St opp Wedgemere Rd
35,825,0.0,0.0571428571428571,1.02857142857143,time_period_10,-71.161439,42.2721290000001,825.0,Centre St opp Wedgemere Rd
35,825,0.0157894736842105,0.0842105263157895,7.43684210526316,time_period_10,-71.161439,42.2721290000001,825.0,Centre St opp Wedgemere Rd
35,825,0.0125,0.0875,5.15,time_period_11,-71.161439,42.2721290000001,825.0,Centre St opp Wedgemere Rd
35,826,0.0,0.133333333333333,0.466666666666667,time_period_01,-71.16203,42.2701250000001,826.0,Centre St @ Glenhaven Rd
35,826,0.0,0.233333333333333,0.866666666666667,time_period_02,-71.16203,42.2701250000001,826.0,Centre St @ Glenhaven Rd
35,826,0.0,0.1,3.7,time_period_03,-71.16203,42.2701250000001,826.0,Centre St @ Glenhaven Rd
35,826,0.0,0.125,1.7,time_period_03,-71.16203,42.2701250000001,826.0,Centre St @ Glenhaven Rd
35,826,0.114285714285714,0.214285714285714,6.4,time_period_04,-71.16203,42.2701250000001,826.0,Centre St @ Glenhaven Rd
35,826,0.0555555555555556,0.611111111111111,10.6555555555556,time_period_05,-71.16203,42.2701250000001,826.0,Centre St @ Glenhaven Rd
35,826,0.0,0.9,15.5,time_period_05,-71.16203,42.2701250000001,826.0,Centre St @ Glenhaven Rd
35,826,0.01,0.44,7.81,time_period_06,-71.16203,42.2701250000001,826.0,Centre St @ Glenhaven Rd
35,826,0.1,0.2,4.46666666666667,time_period_07,-71.16203,42.2701250000001,826.0,Centre St @ Glenhaven Rd
35,826,0.0142857142857143,0.171428571428571,0.871428571428571,time_period_10,-71.16203,42.2701250000001,826.0,Centre St @ Glenhaven Rd
35,826,0.0736842105263158,0.189473684210526,7.33684210526316,time_period_10,-71.16203,42.2701250000001,826.0,Centre St @ Glenhaven Rd
35,826,0.0,0.23125,4.925,time_period_11,-71.16203,42.2701250000001,826.0,Centre St @ Glenhaven Rd
35,10768,0.0666666666666667,0.0666666666666667,0.5,time_period_01,-71.161907,42.2688630000001,10768.0,Centre St @ Grove St
35,10768,0.1,0.2,0.9,time_period_02,-71.161907,42.2688630000001,10768.0,Centre St @ Grove St
35,10768,0.0,0.1,3.6,time_period_03,-71.161907,42.2688630000001,10768.0,Centre St @ Grove St
35,10768,0.15,0.775,1.15,time_period_03,-71.161907,42.2688630000001,10768.0,Centre St @ Grove St
35,10768,0.0428571428571429,0.314285714285714,6.14285714285714,time_period_04,-71.161907,42.2688630000001,10768.0,Centre St @ Grove St
35,10768,0.0333333333333333,0.144444444444444,10.5666666666667,time_period_05,-71.161907,42.2688630000001,10768.0,Centre St @ Grove St
35,10768,0.0,0.2,15.3,time_period_05,-71.161907,42.2688630000001,10768.0,Centre St @ Grove St
35,10768,0.0,0.23,7.57,time_period_06,-71.161907,42.2688630000001,10768.0,Centre St @ Grove St
35,10768,0.0333333333333333,0.0333333333333333,4.5,time_period_07,-71.161907,42.2688630000001,10768.0,Centre St @ Grove St
35,10768,0.0285714285714286,0.0428571428571429,0.871428571428571,time_period_10,-71.161907,42.2688630000001,10768.0,Centre St @ Grove St
35,10768,0.0052631578947368,0.157894736842105,7.17894736842105,time_period_10,-71.161907,42.2688630000001,10768.0,Centre St @ Grove St
35,10768,0.00625,0.01875,4.9125,time_period_11,-71.161907,42.2688630000001,10768.0,Centre St @ Grove St
35,827,0.0,0.1,3.5,time_period_03,-71.1628219999999,42.267596,827.0,Centre St @ Northdale Rd
35,827,0.0,0.0714285714285714,6.05714285714286,time_period_04,-71.1628219999999,42.267596,827.0,Centre St @ Northdale Rd
35,827,0.0222222222222222,0.688888888888889,9.9,time_period_05,-71.1628219999999,42.267596,827.0,Centre St @ Northdale Rd
35,827,0.0,2.5,12.8,time_period_05,-71.1628219999999,42.267596,827.0,Centre St @ Northdale Rd
35,827,0.04,0.6,7.0,time_period_06,-71.1628219999999,42.267596,827.0,Centre St @ Northdale Rd
35,827,0.0,0.2,4.3,time_period_07,-71.1628219999999,42.267596,827.0,Centre St @ Northdale Rd
35,827,0.0263157894736842,0.105263157894737,7.10526315789474,time_period_10,-71.1628219999999,42.267596,827.0,Centre St @ Northdale Rd
35,827,0.00625,0.03125,4.9,time_period_11,-71.1628219999999,42.267596,827.0,Centre St @ Northdale Rd
35,828,0.0,0.1,3.5,time_period_03,-71.162965,42.265745,828.0,Centre St @ Fairlane Rd
35,828,0.0285714285714286,0.114285714285714,5.95714285714286,time_period_04,-71.162965,42.265745,828.0,Centre St @ Fairlane Rd
35,828,0.0333333333333333,0.244444444444444,9.7,time_period_05,-71.162965,42.265745,828.0,Centre St @ Fairlane Rd
35,828,0.0,1.5,11.3,time_period_05,-71.162965,42.265745,828.0,Centre St @ Fairlane Rd
35,828,0.0,0.48,6.54,time_period_06,-71.162965,42.265745,828.0,Centre St @ Fairlane Rd
35,828,0.0,0.4,3.93333333333333,time_period_07,-71.162965,42.265745,828.0,Centre St @ Fairlane Rd
35,828,0.0105263157894737,0.0631578947368421,7.05789473684211,time_period_10,-71.162965,42.265745,828.0,Centre St @ Fairlane Rd
35,828,0.00625,0.06875,4.8375,time_period_11,-71.162965,42.265745,828.0,Centre St @ Fairlane Rd
35,829,0.0,0.0,3.4,time_period_03,-71.162978,42.2647490000001,829.0,2519 Centre St
35,829,0.0142857142857143,0.0428571428571429,5.92857142857143,time_period_04,-71.162978,42.2647490000001,829.0,2519 Centre St
35,829,0.0,0.0888888888888889,9.58888888888889,time_period_05,-71.162978,42.2647490000001,829.0,2519 Centre St
35,829,0.1,0.0,11.4,time_period_05,-71.162978,42.2647490000001,829.0,2519 Centre St
35,829,0.0,0.11,6.43,time_period_06,-71.162978,42.2647490000001,829.0,2519 Centre St
35,829,0.0,0.1,3.86666666666667,time_period_07,-71.162978,42.2647490000001,829.0,2519 Centre St
35,829,0.0,0.0421052631578947,7.01052631578947,time_period_10,-71.162978,42.2647490000001,829.0,2519 Centre St
35,829,0.0,0.00625,4.83125,time_period_11,-71.162978,42.2647490000001,829.0,2519 Centre St
35,830,0.0,0.0,3.5,time_period_03,-71.1632769999999,42.2627820000001,830.0,Stimson St @ Centre St
35,830,0.0,0.2,5.74285714285714,time_period_04,-71.1632769999999,42.2627820000001,830.0,Stimson St @ Centre St
35,830,0.0,0.588888888888889,9.03333333333333,time_period_05,-71.1632769999999,42.2627820000001,830.0,Stimson St @ Centre St
35,830,0.0,3.9,7.5,time_period_05,-71.1632769999999,42.2627820000001,830.0,Stimson St @ Centre St
35,830,0.0,0.71,5.75,time_period_06,-71.1632769999999,42.2627820000001,830.0,Stimson St @ Centre St
35,830,0.0,0.133333333333333,3.73333333333333,time_period_07,-71.1632769999999,42.2627820000001,830.0,Stimson St @ Centre St
35,830,0.0368421052631579,0.115789473684211,6.93684210526316,time_period_10,-71.1632769999999,42.2627820000001,830.0,Stimson St @ Centre St
35,830,0.0125,0.1375,4.69375,time_period_11,-71.1632769999999,42.2627820000001,830.0,Stimson St @ Centre St
35,831,0.0,0.1,3.4,time_period_03,-71.1597189999999,42.260813,831.0,80 Stimson St
35,831,0.0,0.0428571428571429,5.68571428571429,time_period_04,-71.1597189999999,42.260813,831.0,80 Stimson St
35,831,0.0,0.122222222222222,8.92222222222222,time_period_05,-71.1597189999999,42.260813,831.0,80 Stimson St
35,831,0.0,1.3,6.3,time_period_05,-71.1597189999999,42.260813,831.0,80 Stimson St
35,831,0.0,0.15,5.6,time_period_06,-71.1597189999999,42.260813,831.0,80 Stimson St
35,831,0.0,0.0333333333333333,3.73333333333333,time_period_07,-71.1597189999999,42.260813,831.0,80 Stimson St
35,831,0.0,0.0578947368421053,6.89473684210526,time_period_10,-71.1597189999999,42.260813,831.0,80 Stimson St
35,831,0.0,0.05,4.65,time_period_11,-71.1597189999999,42.260813,831.0,80 Stimson St
35,832,0.1,0.1,3.4,time_period_03,-71.158675,42.260206,832.0,Stimson St @ Washington St
35,832,0.0428571428571429,0.542857142857143,5.2,time_period_04,-71.158675,42.260206,832.0,Stimson St @ Washington St
35,832,0.0777777777777778,1.2,7.76666666666667,time_period_05,-71.158675,42.260206,832.0,Stimson St @ Washington St
35,832,0.1,2.4,4.0,time_period_05,-71.158675,42.260206,832.0,Stimson St @ Washington St
35,832,0.03,1.03,4.63,time_period_06,-71.158675,42.260206,832.0,Stimson St @ Washington St
35,832,0.0666666666666667,0.566666666666667,3.23333333333333,time_period_07,-71.158675,42.260206,832.0,Stimson St @ Washington St
35,832,0.147368421052632,0.747368421052632,6.29473684210526,time_period_10,-71.158675,42.260206,832.0,Stimson St @ Washington St
35,832,0.10625,0.54375,4.21875,time_period_11,-71.158675,42.260206,832.0,Stimson St @ Washington St
35,618,0.1,0.3,3.2,time_period_03,-71.16126,42.258017,618.0,Washington St opp Rockland Towers
35,618,0.214285714285714,0.6,4.81428571428571,time_period_04,-71.16126,42.258017,618.0,Washington St opp Rockland Towers
35,618,0.166666666666667,0.977777777777778,6.94444444444444,time_period_05,-71.16126,42.258017,618.0,Washington St opp Rockland Towers
35,618,0.2,1.4,2.8,time_period_05,-71.16126,42.258017,618.0,Washington St opp Rockland Towers
35,618,0.07,0.99,3.74,time_period_06,-71.16126,42.258017,618.0,Washington St opp Rockland Towers
35,618,0.0666666666666667,0.666666666666667,2.63333333333333,time_period_07,-71.16126,42.258017,618.0,Washington St opp Rockland Towers
35,618,0.189473684210526,0.536842105263158,5.93157894736842,time_period_10,-71.16126,42.258017,618.0,Washington St opp Rockland Towers
35,618,0.11875,0.3625,3.9875,time_period_11,-71.16126,42.258017,618.0,Washington St opp Rockland Towers
35,10618,0.0,0.1,3.1,time_period_03,-71.163235,42.2564110000001,10618.0,Washington St @ Sumner St
35,10618,0.0285714285714286,0.271428571428571,4.55714285714286,time_period_04,-71.163235,42.2564110000001,10618.0,Washington St @ Sumner St
35,10618,0.0333333333333333,0.233333333333333,6.75555555555556,time_period_05,-71.163235,42.2564110000001,10618.0,Washington St @ Sumner St
35,10618,0.0,0.0,2.8,time_period_05,-71.163235,42.2564110000001,10618.0,Washington St @ Sumner St
35,10618,0.0,0.36,3.42,time_period_06,-71.163235,42.2564110000001,10618.0,Washington St @ Sumner St
35,10618,0.0,0.3,2.33333333333333,time_period_07,-71.163235,42.2564110000001,10618.0,Washington St @ Sumner St
35,10618,0.0157894736842105,0.178947368421053,5.76842105263158,time_period_10,-71.163235,42.2564110000001,10618.0,Washington St @ Sumner St
35,10618,0.0375,0.13125,3.89375,time_period_11,-71.163235,42.2564110000001,10618.0,Washington St @ Sumner St
35,10835,0.0,1.3,1.9,time_period_03,,,,
35,10835,0.314285714285714,1.55714285714286,3.37142857142857,time_period_04,,,,
35,10835,0.288888888888889,2.46666666666667,4.57777777777778,time_period_05,,,,
35,10835,0.0,0.5,2.3,time_period_05,,,,
35,10835,0.2,1.11,2.52,time_period_06,,,,
35,10835,0.2,0.7,1.86666666666667,time_period_07,,,,
35,10835,0.305263157894737,2.36315789473684,3.71578947368421,time_period_10,,,,
35,10835,0.3875,1.69375,2.58125,time_period_11,,,,
35,10833,0.0,1.8,0.0,time_period_03,-71.1679379999999,42.2578930000001,10833.0,Dedham Mall @ Stop & Shop
35,10833,0.0,3.12857142857143,0.257142857142857,time_period_04,-71.1679379999999,42.2578930000001,10833.0,Dedham Mall @ Stop & Shop
35,10833,0.0,4.43333333333333,0.188888888888889,time_period_05,-71.1679379999999,42.2578930000001,10833.0,Dedham Mall @ Stop & Shop
35,10833,0.0,1.5,0.8,time_period_05,-71.1679379999999,42.2578930000001,10833.0,Dedham Mall @ Stop & Shop
35,10833,0.0,2.28,0.25,time_period_06,-71.1679379999999,42.2578930000001,10833.0,Dedham Mall @ Stop & Shop
35,10833,0.0,1.73333333333333,0.1,time_period_07,-71.1679379999999,42.2578930000001,10833.0,Dedham Mall @ Stop & Shop
35,10833,0.0,3.62631578947368,0.1,time_period_10,-71.1679379999999,42.2578930000001,10833.0,Dedham Mall @ Stop & Shop
35,10833,0.0,2.3125,0.28125,time_period_11,-71.1679379999999,42.2578930000001,10833.0,Dedham Mall @ Stop & Shop
35,992,0.0,0.0,0.5,time_period_01,-71.1581879999999,42.264504,992.0,Grove St opp Altair Rd
35,992,0.0,0.0,0.9,time_period_02,-71.1581879999999,42.264504,992.0,Grove St opp Altair Rd
35,992,0.0,0.0,1.15,time_period_03,-71.1581879999999,42.264504,992.0,Grove St opp Altair Rd
35,992,0.0,0.0,0.871428571428571,time_period_10,-71.1581879999999,42.264504,992.0,Grove St opp Altair Rd
35,993,0.0,0.0,0.5,time_period_01,-71.157452,42.262598,993.0,Grove St @ Overlook Rd
35,993,0.0,0.0,0.866666666666667,time_period_02,-71.157452,42.262598,993.0,Grove St @ Overlook Rd
35,993,0.025,0.075,1.125,time_period_03,-71.157452,42.262598,993.0,Grove St @ Overlook Rd
35,993,0.0714285714285714,0.128571428571429,0.871428571428571,time_period_10,-71.157452,42.262598,993.0,Grove St @ Overlook Rd
35,616,0.0,0.433333333333333,0.0666666666666667,time_period_01,-71.157252,42.2612330000001,616.0,Washington St @ Grove St
35,616,0.0,0.7,0.133333333333333,time_period_02,-71.157252,42.2612330000001,616.0,Washington St @ Grove St
35,616,0.0,0.975,0.125,time_period_03,-71.157252,42.2612330000001,616.0,Washington St @ Grove St
35,616,0.0,0.771428571428571,0.114285714285714,time_period_10,-71.157252,42.2612330000001,616.0,Washington St @ Grove St
